{"protocolSection": {"identificationModule": {"nctId": "NCT00332488", "orgStudyIdInfo": {"id": "MKC-TI-103"}, "organization": {"fullName": "Mannkind Corporation", "class": "INDUSTRY"}, "briefTitle": "Efficacy and Safety of Prandial Inhalation of Technosphere/Insulin in Combination With Metformin or Technosphere/Insulin Alone Versus 2 Oral Anti-Diabetic Agents in Subjects With Type 2 Diabetes", "officialTitle": "A Phase 3, 24-Week, Multi-Center, Open-Label, Randomized, Controlled Trial Comparing the Efficacy and Safety of Prandial Inhalation of Technosphere/Insulin in Combination With Metformin or Technosphere/Insulin Alone Versus 2 Oral Anti-Diabetic Agents (Metformin and a Secretagogue) in Subjects With Type 2 Diabetes Mellitus Sub-optimally Controlled on Combination Metformin and a Secretagogue."}, "statusModule": {"statusVerifiedDate": "2014-10", "overallStatus": "COMPLETED", "expandedAccessInfo": {"hasExpandedAccess": false}, "startDateStruct": {"date": "2004-12"}, "primaryCompletionDateStruct": {"date": "2008-03", "type": "ACTUAL"}, "studyFirstSubmitDate": "2006-05-31", "studyFirstSubmitQcDate": "2006-05-31", "studyFirstPostDateStruct": {"date": "2006-06-01", "type": "ESTIMATED"}, "resultsFirstSubmitDate": "2014-07-22", "resultsFirstSubmitQcDate": "2014-10-09", "resultsFirstPostDateStruct": {"date": "2014-10-16", "type": "ESTIMATED"}, "dispFirstSubmitDate": "2009-06-09", "dispFirstSubmitQcDate": "2009-10-01", "dispFirstPostDateStruct": {"date": "2009-10-05", "type": "ESTIMATED"}, "lastUpdateSubmitDate": "2014-10-09", "lastUpdatePostDateStruct": {"date": "2014-10-16", "type": "ESTIMATED"}}, "sponsorCollaboratorsModule": {"responsibleParty": {"type": "SPONSOR"}, "leadSponsor": {"name": "Mannkind Corporation", "class": "INDUSTRY"}}, "descriptionModule": {"briefSummary": "to demonstrate the efficacy of inhaled Technosphere/Insulin in combination with metformin versus combination metformin and a secretagogue"}, "conditionsModule": {"conditions": ["Diabetes Mellitus, Type 2"]}, "designModule": {"studyType": "INTERVENTIONAL", "phases": ["PHASE3"], "designInfo": {"allocation": "RANDOMIZED", "interventionModel": "CROSSOVER", "primaryPurpose": "TREATMENT", "maskingInfo": {"masking": "NONE"}}, "enrollmentInfo": {"count": 547, "type": "ACTUAL"}}, "armsInterventionsModule": {"armGroups": [{"label": "1", "type": "EXPERIMENTAL", "description": "Technosphere Insulin", "interventionNames": ["Drug: Technosphere Insulin"]}, {"label": "2", "type": "ACTIVE_COMPARATOR", "description": "Metformin \\& Secretagogues", "interventionNames": ["Drug: Metformin & Secretagogues"]}, {"label": "3", "type": "EXPERIMENTAL", "description": "Technosphere \\& Metformin", "interventionNames": ["Drug: Technosphere Insulin & Metformin"]}], "interventions": [{"type": "DRUG", "name": "Technosphere Insulin", "description": "Inhalation, 15U/30U, prandial", "armGroupLabels": ["1"]}, {"type": "DRUG", "name": "Metformin & Secretagogues", "description": "Metformin tablets,Secretagogues supplied as any of the currently marketed brands and formulations.", "armGroupLabels": ["2"]}, {"type": "DRUG", "name": "Technosphere Insulin & Metformin", "description": "Technosphere Insulin Inhalation Powder 15U/30U, Metformin tablets", "armGroupLabels": ["3"]}]}, "outcomesModule": {"primaryOutcomes": [{"measure": "Difference in Change From Baseline for HbA1c Between TI+ Metformin and Metformin+Secretagogue", "timeFrame": "Baseline to Week 12"}], "secondaryOutcomes": [{"measure": "Difference in Change From Baseline for HbA1c Between TI Alone and Metformin+Secretagogue", "description": "(Change from baseline within TI Alone) minus (change from baseline within metformin + secretagogue)", "timeFrame": "Baseline to Week 12"}, {"measure": "Change in HbA1c From Baseline to Week 24 (Subjects Who Stayed on Original Treatment)", "timeFrame": "Week 24"}]}, "eligibilityModule": {"eligibilityCriteria": "Inclusion Criteria:\n\n* Non-smokers with clinical diagnosis of Type 2 diabetes mellitus for \\>or= to 6 months\n* Stable regimen of metformin for \\> or = to 1000mg/day or maximum tolerated dose) and a secretagogue \\< or = 1/2 the maximum manufacturer-recommended daily dose without any dose adjustments within the preceding 6 wks.\n* Fixed dose combination products of metformin and sulfonylurea are acceptable as long as each individual dose meets inclusion criteria\n* HbA1c \\>or= to 7.5% and \\< or= to 11.0%\n* BMI \\< or = to 40kg/m2.\n* FEV1\\> or = to 70%, Total Lung capacity and \\> or =80% DLco \\> or= to 70%\n\nExclusion Criteria:\n\n* Treatment with any type of anti-diabetic therapy, other than metformin \\& secretagogues within the preceding 12 weeks\n* Serum creatinine \\> 1.4mg/dL in female subjects and \\>1.5mg/dL in male subjects\n* History of chronic obstructive pulmonary disease, clinically proven asthma and/or any other clinically important pulmonary function testing and/or radiologic findings\n* Evidence of serious complications of diabetes (e.g. autonomic neuropathy)", "healthyVolunteers": false, "sex": "ALL", "minimumAge": "18 Years", "maximumAge": "80 Years", "stdAges": ["ADULT", "OLDER_ADULT"]}, "contactsLocationsModule": {"overallOfficials": [{"name": "For MannKind sponsored trials, the Overall Study Official is the Chief Scientific Officer", "affiliation": "Mannkind Corporation", "role": "STUDY_DIRECTOR"}], "locations": [{"facility": "Radiant Research-Birmingham", "city": "Birmingham", "state": "Alabama", "zip": "35209", "country": "United States", "geoPoint": {"lat": 33.52066, "lon": -86.80249}}, {"facility": "Parkway Medical Center", "city": "Birmingham", "state": "Alabama", "zip": "35215", "country": "United States", "geoPoint": {"lat": 33.52066, "lon": -86.80249}}, {"facility": "Redpoint Research", "city": "Phoenix", "state": "Arizona", "zip": "85029", "country": "United States", "geoPoint": {"lat": 33.44838, "lon": -112.07404}}, {"facility": "Arizona Center for Clinical Research", "city": "Phoenix", "state": "Arizona", "zip": "85032", "country": "United States", "geoPoint": {"lat": 33.44838, "lon": -112.07404}}, {"facility": "International Clinical Research Network", "city": "Chula Vista", "state": "California", "zip": "91911", "country": "United States", "geoPoint": {"lat": 32.64005, "lon": -117.0842}}, {"facility": "National Jewish Medical & Research Center", "city": "Denver", "state": "Colorado", "zip": "80206", "country": "United States", "geoPoint": {"lat": 39.73915, "lon": -104.9847}}, {"facility": "Creekside Endocrine Associates", "city": "Denver", "state": "Colorado", "zip": "80209", "country": "United States", "geoPoint": {"lat": 39.73915, "lon": -104.9847}}, {"facility": "Jennifer Hone MD", "city": "Denver", "state": "Colorado", "zip": "80220", "country": "United States", "geoPoint": {"lat": 39.73915, "lon": -104.9847}}, {"facility": "Chase Medical Research, LLC", "city": "Waterbury", "state": "Connecticut", "zip": "06708", "country": "United States", "geoPoint": {"lat": 41.55815, "lon": -73.0515}}, {"facility": "Center for Diabetes & Endocrine Care", "city": "Hollywood", "state": "Florida", "zip": "33021", "country": "United States", "geoPoint": {"lat": 26.0112, "lon": -80.14949}}, {"facility": "International Research Associates LLC", "city": "Miami", "state": "Florida", "zip": "33156", "country": "United States", "geoPoint": {"lat": 25.77427, "lon": -80.19366}}, {"facility": "Cedar-Crosse Research Center", "city": "Chicago", "state": "Illinois", "zip": "60607", "country": "United States", "geoPoint": {"lat": 41.85003, "lon": -87.65005}}, {"facility": "John H Stoger Jr Hospital of Cook County", "city": "Chicago", "state": "Illinois", "zip": "60612", "country": "United States", "geoPoint": {"lat": 41.85003, "lon": -87.65005}}, {"facility": "Clintell Inc", "city": "Skokie", "state": "Illinois", "zip": "60076", "country": "United States", "geoPoint": {"lat": 42.03336, "lon": -87.73339}}, {"facility": "James A Dicke MDPA", "city": "Towson", "state": "Maryland", "zip": "21204", "country": "United States", "geoPoint": {"lat": 39.4015, "lon": -76.60191}}, {"facility": "East Coast Clinical Research Inc", "city": "Haverhill", "state": "Massachusetts", "zip": "01830", "country": "United States", "geoPoint": {"lat": 42.7762, "lon": -71.07728}}, {"facility": "Wayne State University", "city": "Detroit", "state": "Michigan", "zip": "48201", "country": "United States", "geoPoint": {"lat": 42.33143, "lon": -83.04575}}, {"facility": "Michigan Institute of Medicine", "city": "Livonia", "state": "Michigan", "zip": "48152", "country": "United States", "geoPoint": {"lat": 42.36837, "lon": -83.35271}}, {"facility": "Clayton Medical Research", "city": "St Louis", "state": "Missouri", "zip": "63117", "country": "United States", "geoPoint": {"lat": 38.62727, "lon": -90.19789}}, {"facility": "Raidant Research-St Louis", "city": "St Louis", "state": "Missouri", "zip": "63141", "country": "United States", "geoPoint": {"lat": 38.62727, "lon": -90.19789}}, {"facility": "Washington University School of Medicine", "city": "St. Louis", "state": "Missouri", "zip": "63110", "country": "United States", "geoPoint": {"lat": 38.62727, "lon": -90.19789}}, {"facility": "Creighton Diabetes Center", "city": "Omaha", "state": "Nebraska", "zip": "68131", "country": "United States", "geoPoint": {"lat": 41.25626, "lon": -95.94043}}, {"facility": "Lovelace Scientific Resources (Albuquerque)", "city": "Albuquerque", "state": "New Mexico", "zip": "87108", "country": "United States", "geoPoint": {"lat": 35.08449, "lon": -106.65114}}, {"facility": "Winthrop University Hospital", "city": "Mineola", "state": "New York", "zip": "11501", "country": "United States", "geoPoint": {"lat": 40.74927, "lon": -73.64068}}, {"facility": "North Shore Diabetes and Endocrine Associates", "city": "New Hyde Park", "state": "New York", "zip": "11042", "country": "United States", "geoPoint": {"lat": 40.7351, "lon": -73.68791}}, {"facility": "Metrolina Internal Medicine", "city": "Charlotte", "state": "North Carolina", "zip": "28204", "country": "United States", "geoPoint": {"lat": 35.22709, "lon": -80.84313}}, {"facility": "Charlotte Clinical Research Inc", "city": "Charlotte", "state": "North Carolina", "zip": "28211", "country": "United States", "geoPoint": {"lat": 35.22709, "lon": -80.84313}}, {"facility": "Sensenbrenner Primary Care", "city": "Charlotte", "state": "North Carolina", "zip": "28277", "country": "United States", "geoPoint": {"lat": 35.22709, "lon": -80.84313}}, {"facility": "Duke Medical Center", "city": "Durham", "state": "North Carolina", "zip": "27710", "country": "United States", "geoPoint": {"lat": 35.99403, "lon": -78.89862}}, {"facility": "Dayton Clinical Research", "city": "Dayton", "state": "Ohio", "zip": "45406", "country": "United States", "geoPoint": {"lat": 39.75895, "lon": -84.19161}}, {"facility": "Providence Health Partners - Center of Clinical Research", "city": "Dayton", "state": "Ohio", "zip": "45439", "country": "United States", "geoPoint": {"lat": 39.75895, "lon": -84.19161}}, {"facility": "Radiant Research", "city": "Portland", "state": "Oregon", "zip": "97239", "country": "United States", "geoPoint": {"lat": 45.52345, "lon": -122.67621}}, {"facility": "Upstate Pharmaceutical Research", "city": "Greenville", "state": "South Carolina", "zip": "29615", "country": "United States", "geoPoint": {"lat": 34.85262, "lon": -82.39401}}, {"facility": "Collierville Medical Specialists", "city": "Collierville", "state": "Tennessee", "zip": "38017", "country": "United States", "geoPoint": {"lat": 35.04204, "lon": -89.66453}}, {"facility": "Memphis Internal Medicine (Kathawala)", "city": "Memphis", "state": "Tennessee", "zip": "38119", "country": "United States", "geoPoint": {"lat": 35.14953, "lon": -90.04898}}, {"facility": "GoodLife Medical Center PLLC", "city": "Memphis", "state": "Tennessee", "zip": "38120", "country": "United States", "geoPoint": {"lat": 35.14953, "lon": -90.04898}}, {"facility": "Baylor Endocrine Center", "city": "Dallas", "state": "Texas", "zip": "75246", "country": "United States", "geoPoint": {"lat": 32.78306, "lon": -96.80667}}, {"facility": "Quality Assurance Research Center Inc", "city": "San Antonio", "state": "Texas", "zip": "78205", "country": "United States", "geoPoint": {"lat": 29.42412, "lon": -98.49363}}, {"facility": "Clinical Trials of Texas Inc", "city": "San Antonio", "state": "Texas", "zip": "78229", "country": "United States", "geoPoint": {"lat": 29.42412, "lon": -98.49363}}, {"facility": "Covenant Clinic Research", "city": "San Antonio", "state": "Texas", "zip": "78229", "country": "United States", "geoPoint": {"lat": 29.42412, "lon": -98.49363}}, {"facility": "Diabetes & Glandular Disease Research Assoc PA", "city": "San Antonio", "state": "Texas", "zip": "78229", "country": "United States", "geoPoint": {"lat": 29.42412, "lon": -98.49363}}, {"facility": "SAM Clinical Research Center", "city": "San Antonio", "state": "Texas", "zip": "78229", "country": "United States", "geoPoint": {"lat": 29.42412, "lon": -98.49363}}, {"facility": "Cedar Research", "city": "Tacoma", "state": "Washington", "zip": "98405", "country": "United States", "geoPoint": {"lat": 47.25288, "lon": -122.44429}}, {"facility": "Hospital Interzonal de Agudos Pedro Fiorito", "city": "Avellaneda", "state": "Buenos Aires", "zip": "B1870ARG", "country": "Argentina", "geoPoint": {"lat": -29.11761, "lon": -59.65834}}, {"facility": "Centro Endocrinologic Tiempo", "city": "Buenos Aires", "zip": "C1117ABH", "country": "Argentina", "geoPoint": {"lat": -34.61315, "lon": -58.37723}}, {"facility": "Hospital Italiano de Buenos Aires", "city": "Buenos Aires", "zip": "C1181ACH", "country": "Argentina", "geoPoint": {"lat": -34.61315, "lon": -58.37723}}, {"facility": "Cons Asoc de Endocrinologia", "city": "Buenos Aires", "zip": "C1425AGC", "country": "Argentina", "geoPoint": {"lat": -34.61315, "lon": -58.37723}}, {"facility": "CIMeL", "city": "Buenos Aires", "country": "Argentina", "geoPoint": {"lat": -34.61315, "lon": -58.37723}}, {"facility": "Hospital de Clinicas de Porto Alegre", "city": "Porto Alegre", "state": "Rio Grande do Sul", "zip": "90035-903", "country": "Brazil", "geoPoint": {"lat": -30.03306, "lon": -51.23}}, {"facility": "Hospital Sao Lucas da PUCRS", "city": "Porto Alegre", "state": "Rio Grande do Sul", "zip": "90610-000", "country": "Brazil", "geoPoint": {"lat": -30.03306, "lon": -51.23}}, {"facility": "Ccbr Brasil Centro de Analises e Pesquisas Clinicas Ltda", "city": "Rio de Janeiro", "zip": "22271-100", "country": "Brazil", "geoPoint": {"lat": -22.90278, "lon": -43.2075}}, {"facility": "Hospital Guilherme Alvaro", "city": "Santos", "zip": "11045-904", "country": "Brazil", "geoPoint": {"lat": -23.96083, "lon": -46.33361}}, {"facility": "CPClin-Centro de Pesquisas Clinicas", "city": "Sao Paulo", "zip": "01244-030", "country": "Brazil", "geoPoint": {"lat": -23.5475, "lon": -46.63611}}, {"facility": "UNIFRSP", "city": "Sao Paulo", "zip": "04020-050", "country": "Brazil", "geoPoint": {"lat": -23.5475, "lon": -46.63611}}, {"facility": "Hospital do Rim e Hipertensao", "city": "Sao Paulo", "zip": "04025-011", "country": "Brazil", "geoPoint": {"lat": -23.5475, "lon": -46.63611}}, {"facility": "Instituto de Pesquisa Clinica e Medicina Avancada", "city": "Sao Paulo", "zip": "05437-010", "country": "Brazil", "geoPoint": {"lat": -23.5475, "lon": -46.63611}}, {"facility": "Quest Clinical Trials", "city": "Markham", "state": "Ontario", "zip": "L6B 1A1", "country": "Canada", "geoPoint": {"lat": 43.86682, "lon": -79.2663}}, {"facility": "Lifestyle Metabolism Center", "city": "Oakville", "state": "Ontario", "zip": "L6H 3P1", "country": "Canada", "geoPoint": {"lat": 43.45011, "lon": -79.68292}}, {"facility": "Lifestyle Metabolism Center", "city": "Thornhill", "state": "Ontario", "zip": "L4J 8L7", "country": "Canada"}, {"facility": "Lifestyle Metabolism Center", "city": "Toronto", "state": "Ontario", "zip": "M4R 2G4", "country": "Canada", "geoPoint": {"lat": 43.70011, "lon": -79.4163}}, {"facility": "Trial Management Group Inc (Henein", "city": "Toronto", "state": "Ontario", "zip": "M4T 1N5", "country": "Canada", "geoPoint": {"lat": 43.70011, "lon": -79.4163}}, {"facility": "Unimedico Management", "city": "Richmond Hill", "zip": "L4C 9M7", "country": "Canada", "geoPoint": {"lat": 43.87111, "lon": -79.43725}}, {"facility": "Hospital Padre Alberto Hurtado", "city": "Santiago", "state": "Region Metropolitana", "country": "Chile", "geoPoint": {"lat": -33.45694, "lon": -70.64827}}, {"facility": "Hospital Clinico Pontificia Universidad Catolica de Chile", "city": "Santiago", "country": "Chile", "geoPoint": {"lat": -33.45694, "lon": -70.64827}}, {"facility": "Hospital del Salvador", "city": "Santiago", "country": "Chile", "geoPoint": {"lat": -33.45694, "lon": -70.64827}}, {"facility": "Instituto de Informacion de Tramiento y Educacion en Salud", "city": "Santiago", "country": "Chile", "geoPoint": {"lat": -33.45694, "lon": -70.64827}}, {"facility": "Diabetologicka a interni ambulance", "city": "Ostrava-Kuncice", "state": "CZE", "zip": "70702", "country": "Czech Republic", "geoPoint": {"lat": 49.7903, "lon": 18.2919}}, {"facility": "Institute for Clinical and Exp Medicine", "city": "Prague 4", "state": "CZE", "zip": "140 21", "country": "Czech Republic", "geoPoint": {"lat": 50.08804, "lon": 14.42076}}, {"facility": "University Hospital Na Bulovce", "city": "Prague 8", "state": "CZE", "zip": "180 81", "country": "Czech Republic", "geoPoint": {"lat": 50.08804, "lon": 14.42076}}, {"facility": "Diabetologicka ambulance (Chmura)", "city": "Ostrava", "zip": "70200", "country": "Czech Republic", "geoPoint": {"lat": 49.83465, "lon": 18.28204}}, {"facility": "Intern\u00ed a diabetologick\u00e1 Outpatient", "city": "Ostrava", "zip": "70900", "country": "Czech Republic", "geoPoint": {"lat": 49.83465, "lon": 18.28204}}, {"facility": "II interni klinika FN Kralovske Vinohrady", "city": "Praha 10", "zip": "10034", "country": "Czech Republic", "geoPoint": {"lat": 50.08804, "lon": 14.42076}}, {"facility": "Endokrinologicky ustav", "city": "Praha 1", "zip": "11694", "country": "Czech Republic", "geoPoint": {"lat": 50.08804, "lon": 14.42076}}, {"facility": "3rd Medical Department General Faculty Hospital", "city": "Praha 2", "zip": "12801", "country": "Czech Republic", "geoPoint": {"lat": 50.08804, "lon": 14.42076}}, {"facility": "Instituto Mexicano de Investigacion", "city": "Mexico City", "state": "Durango", "zip": "06700", "country": "Mexico", "geoPoint": {"lat": 19.42847, "lon": -99.12766}}, {"facility": "Hospital Universitario Dr Jose E Gonzalez", "city": "Monterrey", "state": "Nuevo Leon", "zip": "64460", "country": "Mexico", "geoPoint": {"lat": 25.67507, "lon": -100.31847}}, {"facility": "Hospital Santa Engracia-CIMA", "city": "Garza Garcia", "zip": "66260", "country": "Mexico", "geoPoint": {"lat": 25.65384, "lon": -100.37758}}, {"facility": "Centro de Estudios en Diabetes", "city": "Mexico City", "zip": "01120", "country": "Mexico", "geoPoint": {"lat": 19.42847, "lon": -99.12766}}, {"facility": "Hospital General de Mexico Servicio EndocrinologiaJefe Del Servicio", "city": "Mexico City", "zip": "06726", "country": "Mexico", "geoPoint": {"lat": 19.42847, "lon": -99.12766}}, {"facility": "OCA-MIRC", "city": "Monterrey", "zip": "64020", "country": "Mexico", "geoPoint": {"lat": 25.67507, "lon": -100.31847}}, {"facility": "Klinika Endocrinologii Diabetologii I", "city": "Bialystock", "state": "POL", "zip": "15-276", "country": "Poland"}, {"facility": "NZOZ Specjalistyczny Osrodek Internistyczno - Diabetologiczny", "city": "Bialystok", "state": "POL", "zip": "15-435", "country": "Poland", "geoPoint": {"lat": 53.13333, "lon": 23.16433}}, {"facility": "Katedra I Klinika Chorob Metabolicznych Collegium Medicum Uniwersytety Jagiellonskiego", "city": "Krakow", "state": "POL", "zip": "31 501", "country": "Poland", "geoPoint": {"lat": 50.06143, "lon": 19.93658}}, {"facility": "Instytut Centrum Zdrowia (009) Matki Polki", "city": "Lodz", "state": "POL", "zip": "93-338", "country": "Poland", "geoPoint": {"lat": 51.75, "lon": 19.46667}}, {"facility": "Spzital Kolejowy imm Wlodzimierza Roeflera", "city": "Pruszkow", "state": "POL", "zip": "05-800", "country": "Poland", "geoPoint": {"lat": 52.17072, "lon": 20.81214}}, {"facility": "Oddzial Kliniczny Diabetologii (009) Kliniczny nr 1 im Norberta Barlickiego Uniwersytety Meycznego", "city": "Lodz", "zip": "90-153", "country": "Poland", "geoPoint": {"lat": 51.75, "lon": 19.46667}}, {"facility": "Niepubliczny Zaklad Opieki Zdrowotnej VIVAMED", "city": "Warsaw", "zip": "03 580", "country": "Poland", "geoPoint": {"lat": 52.22977, "lon": 21.01178}}, {"facility": "Centrum Leczenia Chorob cywilizacyjnych", "city": "Warszawa", "zip": "02 777", "country": "Poland", "geoPoint": {"lat": 52.22977, "lon": 21.01178}}, {"facility": "NHI Kemerovo Regional Clinical Hospital", "city": "Kemerovo", "state": "RUS", "zip": "650061", "country": "Russian Federation", "geoPoint": {"lat": 55.33333, "lon": 86.08333}}, {"facility": "NI Principal Military Clinical Hospital n a academician N.N. Burdenko of the Ministry of Defense", "city": "Moscow", "state": "RUS", "zip": "105229", "country": "Russian Federation", "geoPoint": {"lat": 55.75222, "lon": 37.61556}}, {"facility": "NEI HPE Moscow State University of Medicine and Dentistry of FAHSD City Clinical Hospital #70", "city": "Moscow", "state": "RUS", "zip": "111399", "country": "Russian Federation", "geoPoint": {"lat": 55.75222, "lon": 37.61556}}, {"facility": "NI Endrocrinological Research Centre of RAMS In patient replacing technologies department", "city": "Moscow", "state": "RUS", "zip": "115478", "country": "Russian Federation", "geoPoint": {"lat": 55.75222, "lon": 37.61556}}, {"facility": "NI Moscow Regional Scientific Research Clinical Institute na MF Vladimirsky", "city": "Moscow", "state": "RUS", "zip": "129110", "country": "Russian Federation", "geoPoint": {"lat": 55.75222, "lon": 37.61556}}, {"facility": "NEI HPE Smolensk State Medical Academy of FAHSD RNHI Smolensk Regional Clinical Hospital", "city": "Smolensk", "state": "RUS", "zip": "214018", "country": "Russian Federation", "geoPoint": {"lat": 54.7818, "lon": 32.0401}}, {"facility": "St Petersburg NHI City Polytclinic #77 City Diabetological Center #4", "city": "St Petersburg", "state": "RUS", "zip": "193012", "country": "Russian Federation", "geoPoint": {"lat": 59.93863, "lon": 30.31413}}, {"facility": "Central Medical Sanitary Unit #122", "city": "St Petersburg", "state": "RUS", "zip": "194291", "country": "Russian Federation", "geoPoint": {"lat": 59.93863, "lon": 30.31413}}, {"facility": "TUV Medico-Military Academy", "city": "St Petersburg", "state": "RUS", "zip": "198013", "country": "Russian Federation", "geoPoint": {"lat": 59.93863, "lon": 30.31413}}, {"facility": "St Petersburg NHI Municipal Multi-Speciality Hospital # 2", "city": "St. Petersburg", "state": "RUS", "zip": "194354", "country": "Russian Federation", "geoPoint": {"lat": 59.93863, "lon": 30.31413}}, {"facility": "MHI Clinical Hospital for Emergency Care na NV Soloviev", "city": "Yaroslavl", "state": "RUS", "zip": "150003", "country": "Russian Federation", "geoPoint": {"lat": 57.62987, "lon": 39.87368}}, {"facility": "NHI Yaroslavl Regional Clinical Hospital", "city": "Yaroslavl", "state": "RUS", "zip": "150062", "country": "Russian Federation", "geoPoint": {"lat": 57.62987, "lon": 39.87368}}, {"facility": "NI Central Clinical Hospital of RAS", "city": "Moscow", "zip": "117 593", "country": "Russian Federation", "geoPoint": {"lat": 55.75222, "lon": 37.61556}}, {"facility": "Complejo Hospitalario Nuestra Senora de Valme", "city": "Sevilla", "state": "Andalucia", "zip": "41014", "country": "Spain", "geoPoint": {"lat": 37.38283, "lon": -5.97317}}, {"facility": "Hospital Clinic I Provincial", "city": "Barcelona", "zip": "08036", "country": "Spain", "geoPoint": {"lat": 41.38879, "lon": 2.15899}}, {"facility": "Hospital Universitario de la Princessa", "city": "Madrid", "zip": "28006", "country": "Spain", "geoPoint": {"lat": 40.4165, "lon": -3.70256}}, {"facility": "Hospital Ramon y Cajal", "city": "Madrid", "zip": "28034", "country": "Spain", "geoPoint": {"lat": 40.4165, "lon": -3.70256}}, {"facility": "Corporacion Sanitaria Parc Tauli Unidad de Endocrinologia", "city": "Sabadell", "zip": "08208", "country": "Spain", "geoPoint": {"lat": 41.54329, "lon": 2.10942}}, {"facility": "Bukovinian State Medical University Dept of Clinical Immun", "city": "Chernivtsy", "state": "UKR", "zip": "58022", "country": "Ukraine"}, {"facility": "Dniepropetrovsh State Medical Academy", "city": "Dniepropetrovsk", "state": "UKR", "zip": "49023", "country": "Ukraine"}, {"facility": "Donetsk State Medical University", "city": "Donetsk", "state": "UKR", "zip": "83003", "country": "Ukraine", "geoPoint": {"lat": 48.023, "lon": 37.80224}}, {"facility": "Donetsk State Medical University (Chair of Immun Allergogoly & Endocrin)", "city": "Donetsk", "state": "UKR", "zip": "83099", "country": "Ukraine", "geoPoint": {"lat": 48.023, "lon": 37.80224}}, {"facility": "Railway Clinical Hospital on Donetsk Station", "city": "Donetsk", "state": "UKR", "zip": "83114", "country": "Ukraine", "geoPoint": {"lat": 48.023, "lon": 37.80224}}, {"facility": "Chair Family Med of National Med University", "city": "Kiev", "state": "UKR", "zip": "04050", "country": "Ukraine", "geoPoint": {"lat": 50.45466, "lon": 30.5238}}, {"facility": "Institute of Endocrinology and Metabolism", "city": "Kiev", "state": "UKR", "zip": "04114", "country": "Ukraine", "geoPoint": {"lat": 50.45466, "lon": 30.5238}}, {"facility": "Ukr Scientifically Practical Centre of Endocrine Surgery", "city": "Kiev", "state": "UKR", "zip": "2175", "country": "Ukraine", "geoPoint": {"lat": 50.45466, "lon": 30.5238}}, {"facility": "Odessa State Medical University Dept of Gen Practice and Med Rehab", "city": "Odessa", "state": "UKR", "zip": "65009", "country": "Ukraine", "geoPoint": {"lat": 46.47747, "lon": 30.73262}}, {"facility": "Odessa Reg. Clinical Hosp Outpatient Department", "city": "Odessa", "state": "UKR", "zip": "65025", "country": "Ukraine", "geoPoint": {"lat": 46.47747, "lon": 30.73262}}, {"facility": "Odessa State Med Dept of Family Med and Gen Practice", "city": "Odessa", "state": "UKR", "zip": "65039", "country": "Ukraine", "geoPoint": {"lat": 46.47747, "lon": 30.73262}}, {"facility": "Vinnitsa State Medical University", "city": "Vinnitsa", "state": "UKR", "zip": "21010", "country": "Ukraine", "geoPoint": {"lat": 49.84639, "lon": 37.71861}}, {"facility": "Outpatient Clinic of Family Physician \"Rusanovka\"", "city": "Kiev", "zip": "02147", "country": "Ukraine", "geoPoint": {"lat": 50.45466, "lon": 30.5238}}, {"facility": "Public Institution City Policlinic #20 Odessa", "city": "Odessa", "zip": "65114", "country": "Ukraine", "geoPoint": {"lat": 46.47747, "lon": 30.73262}}]}}, "resultsSection": {"participantFlowModule": {"preAssignmentDetails": "2 week screening period prior to randomization. 1512 patients screened with 528 patients randomized. 977 patients failed screening criteria, 9 subjects passed screening but were not randomized, 2 subjects failed screening but were randomized.", "recruitmentDetails": "31 May 2006 (first subject enrolled) to 03 Mar 2008 (last subject completed. Multi-national trial conducted in Argentina, Brazil, Canada, Chile, Czech Republic, Mexico, Poland, Russian Federation, Spain, Ukraine, and USA.", "groups": [{"id": "FG000", "title": "TI Inhalation Powder Alone", "description": "Technosphere\u00ae Insulin Inhalation Powder administered prior to each meal without any other anti-diabetic treatment; dose individualized for each subject"}, {"id": "FG001", "title": "Metformin & Secretagogues", "description": "Metformin (\\>= 1,000 mg/day or maximum tolerate dose) \\& Secretagogue (Sulfonylurea or meglitinide at \\>= half maximum manufacturer recommended dose or maximum tolerated dose)"}, {"id": "FG002", "title": "TI Inhalation Powder + Metformin", "description": "Technosphere\u00ae Insulin Inhalation Powder administered prior to each meal (dose individualized for each subject) \\& Metformin (\\>= 1,000 mg/day or maximum tolerate dose)"}], "periods": [{"title": "Initial Treatment Phase (Weeks 0 - 12)", "milestones": [{"type": "STARTED", "achievements": [{"groupId": "FG000", "numSubjects": "183"}, {"groupId": "FG001", "numSubjects": "170"}, {"groupId": "FG002", "numSubjects": "175"}]}, {"type": "COMPLETED", "achievements": [{"groupId": "FG000", "numSubjects": "133"}, {"groupId": "FG001", "numSubjects": "152"}, {"groupId": "FG002", "numSubjects": "119"}]}, {"type": "NOT COMPLETED", "achievements": [{"groupId": "FG000", "numSubjects": "50"}, {"groupId": "FG001", "numSubjects": "18"}, {"groupId": "FG002", "numSubjects": "56"}]}], "dropWithdraws": [{"type": "Adverse Event", "reasons": [{"groupId": "FG000", "numSubjects": "8"}, {"groupId": "FG001", "numSubjects": "2"}, {"groupId": "FG002", "numSubjects": "6"}]}, {"type": "Physician Decision", "reasons": [{"groupId": "FG000", "numSubjects": "13"}, {"groupId": "FG001", "numSubjects": "2"}, {"groupId": "FG002", "numSubjects": "10"}]}, {"type": "Withdrawal by Subject", "reasons": [{"groupId": "FG000", "numSubjects": "21"}, {"groupId": "FG001", "numSubjects": "10"}, {"groupId": "FG002", "numSubjects": "20"}]}, {"type": "Various", "reasons": [{"groupId": "FG000", "numSubjects": "4"}, {"groupId": "FG001", "numSubjects": "0"}, {"groupId": "FG002", "numSubjects": "20"}]}, {"type": "Lost to Follow-up", "reasons": [{"groupId": "FG000", "numSubjects": "1"}, {"groupId": "FG001", "numSubjects": "3"}, {"groupId": "FG002", "numSubjects": "0"}]}, {"type": "Protocol Violation", "reasons": [{"groupId": "FG000", "numSubjects": "3"}, {"groupId": "FG001", "numSubjects": "1"}, {"groupId": "FG002", "numSubjects": "0"}]}]}, {"title": "Transfer Treatment Phase (Weeks 12 - 24)", "milestones": [{"type": "STARTED", "achievements": [{"groupId": "FG000", "comment": "Subjects on TI who achieved an HbA1c \\< 7.5% or had an HbA1c decrease from baseline \\>= 1.0%", "numSubjects": "29"}, {"groupId": "FG001", "comment": "Subjects on treatment who achieved an HbA1c \\< 7.5% or had an HbA1c decrease from baseline \\>= 1.0%", "numSubjects": "72"}, {"groupId": "FG002", "comment": "Subjects in this arm who met HbA1c criteria + subjects from other arms who did not", "numSubjects": "254"}]}, {"type": "COMPLETED", "achievements": [{"groupId": "FG000", "numSubjects": "27"}, {"groupId": "FG001", "numSubjects": "70"}, {"groupId": "FG002", "numSubjects": "233"}]}, {"type": "NOT COMPLETED", "achievements": [{"groupId": "FG000", "numSubjects": "2"}, {"groupId": "FG001", "numSubjects": "2"}, {"groupId": "FG002", "numSubjects": "21"}]}], "dropWithdraws": [{"type": "Adverse Event", "reasons": [{"groupId": "FG000", "numSubjects": "0"}, {"groupId": "FG001", "numSubjects": "0"}, {"groupId": "FG002", "numSubjects": "3"}]}, {"type": "Lost to Follow-up", "reasons": [{"groupId": "FG000", "numSubjects": "0"}, {"groupId": "FG001", "numSubjects": "0"}, {"groupId": "FG002", "numSubjects": "1"}]}, {"type": "Physician Decision", "reasons": [{"groupId": "FG000", "numSubjects": "0"}, {"groupId": "FG001", "numSubjects": "0"}, {"groupId": "FG002", "numSubjects": "3"}]}, {"type": "Protocol Violation", "reasons": [{"groupId": "FG000", "numSubjects": "0"}, {"groupId": "FG001", "numSubjects": "0"}, {"groupId": "FG002", "numSubjects": "1"}]}, {"type": "Withdrawal by Subject", "reasons": [{"groupId": "FG000", "numSubjects": "2"}, {"groupId": "FG001", "numSubjects": "2"}, {"groupId": "FG002", "numSubjects": "8"}]}, {"type": "Various", "reasons": [{"groupId": "FG000", "numSubjects": "0"}, {"groupId": "FG001", "numSubjects": "0"}, {"groupId": "FG002", "numSubjects": "5"}]}]}]}, "baselineCharacteristicsModule": {"groups": [{"id": "BG000", "title": "TI Inhalation Powder Alone"}, {"id": "BG001", "title": "Metformin & Secretagogues"}, {"id": "BG002", "title": "TI Inhalation Powder + Metformin"}, {"id": "BG003", "title": "Total", "description": "Total of all reporting groups"}], "denoms": [{"units": "Participants", "counts": [{"groupId": "BG000", "value": "177"}, {"groupId": "BG001", "value": "162"}, {"groupId": "BG002", "value": "169"}, {"groupId": "BG003", "value": "508"}]}], "measures": [{"title": "Age, Continuous", "paramType": "MEAN", "dispersionType": "FULL_RANGE", "unitOfMeasure": "years", "classes": [{"categories": [{"measurements": [{"groupId": "BG000", "value": "57.3", "lowerLimit": "26", "upperLimit": "75"}, {"groupId": "BG001", "value": "57.6", "lowerLimit": "18", "upperLimit": "75"}, {"groupId": "BG002", "value": "56.8", "lowerLimit": "37", "upperLimit": "77"}, {"groupId": "BG003", "value": "57.2", "lowerLimit": "18", "upperLimit": "77"}]}]}]}, {"title": "Sex: Female, Male", "paramType": "COUNT_OF_PARTICIPANTS", "unitOfMeasure": "Participants", "classes": [{"categories": [{"title": "Female", "measurements": [{"groupId": "BG000", "value": "93"}, {"groupId": "BG001", "value": "88"}, {"groupId": "BG002", "value": "101"}, {"groupId": "BG003", "value": "282"}]}, {"title": "Male", "measurements": [{"groupId": "BG000", "value": "84"}, {"groupId": "BG001", "value": "74"}, {"groupId": "BG002", "value": "68"}, {"groupId": "BG003", "value": "226"}]}]}]}, {"title": "Body Weight", "paramType": "MEAN", "dispersionType": "STANDARD_DEVIATION", "unitOfMeasure": "kilograms", "classes": [{"categories": [{"measurements": [{"groupId": "BG000", "value": "86.1", "spread": "15.6"}, {"groupId": "BG001", "value": "84.2", "spread": "16.2"}, {"groupId": "BG002", "value": "83.9", "spread": "13.9"}, {"groupId": "BG003", "value": "84.8", "spread": "15.27"}]}]}]}, {"title": "Fasting Plasma Glucose", "description": "Fasting Plasma Glucose", "paramType": "MEAN", "dispersionType": "STANDARD_DEVIATION", "unitOfMeasure": "milligrams per deciliter", "classes": [{"categories": [{"measurements": [{"groupId": "BG000", "value": "193.5", "spread": "52.4"}, {"groupId": "BG001", "value": "194.6", "spread": "48.5"}, {"groupId": "BG002", "value": "188.6", "spread": "49.7"}, {"groupId": "BG003", "value": "192.2", "spread": "50.23"}]}]}]}, {"title": "HbA1c", "description": "Glycated hemoglobin measurement", "paramType": "MEAN", "dispersionType": "STANDARD_DEVIATION", "unitOfMeasure": "percentage", "classes": [{"categories": [{"measurements": [{"groupId": "BG000", "value": "8.9", "spread": "0.95"}, {"groupId": "BG001", "value": "8.9", "spread": "0.94"}, {"groupId": "BG002", "value": "9.0", "spread": "0.97"}, {"groupId": "BG003", "value": "8.9", "spread": "0.95"}]}]}]}]}, "outcomeMeasuresModule": {"outcomeMeasures": [{"type": "PRIMARY", "title": "Difference in Change From Baseline for HbA1c Between TI+ Metformin and Metformin+Secretagogue", "populationDescription": "Intention to Treat (ITT) Population with Last Observation Carried Forward", "reportingStatus": "POSTED", "paramType": "LEAST_SQUARES_MEAN", "dispersionType": "95% Confidence Interval", "unitOfMeasure": "Percentage of total hemoglobin", "timeFrame": "Baseline to Week 12", "groups": [{"id": "OG000", "title": "Metformin & Secretagogues", "description": "Metformin \\& Secretagogues"}, {"id": "OG001", "title": "TI Inhalation Powder + Metformin", "description": "Technosphere\u00ae Insulin Inhalation Powder \\& Metformin"}], "denoms": [{"units": "Participants", "counts": [{"groupId": "OG000", "value": "162"}, {"groupId": "OG001", "value": "169"}]}], "classes": [{"categories": [{"measurements": [{"groupId": "OG000", "value": "-0.78", "spread": "-0.78", "lowerLimit": "-0.92", "upperLimit": "-0.64"}, {"groupId": "OG001", "value": "-0.70", "spread": "-0.70", "lowerLimit": "-0.84", "upperLimit": "-0.56"}]}]}], "analyses": [{"groupIds": ["OG000", "OG001"], "groupDescription": "ANCOVA fitting model change from baseline in A1c with fixed effects for treatment and pooled site and baseline A1c as a covariate", "testedNonInferiority": false, "nonInferiorityType": "SUPERIORITY_OR_OTHER", "pValue": "0.420", "statisticalMethod": "ANCOVA", "paramType": "Mean Difference (Final Values)", "paramValue": "0.08", "ciPctValue": "95", "ciNumSides": "TWO_SIDED", "ciLowerLimit": "-0.11", "ciUpperLimit": "0.27"}]}, {"type": "SECONDARY", "title": "Difference in Change From Baseline for HbA1c Between TI Alone and Metformin+Secretagogue", "description": "(Change from baseline within TI Alone) minus (change from baseline within metformin + secretagogue)", "populationDescription": "Intention to Treat (ITT) Population for patients with available data", "reportingStatus": "POSTED", "paramType": "MEAN", "dispersionType": "Standard Deviation", "unitOfMeasure": "Percentage of total hemoglobin", "timeFrame": "Baseline to Week 12", "groups": [{"id": "OG000", "title": "TI Inhalation Powder Alone", "description": "Technosphere\u00ae Insulin Inhalation Powder"}, {"id": "OG001", "title": "Metformin & Secretagogues", "description": "Metformin \\& Secretagogues"}], "denoms": [{"units": "Participants", "counts": [{"groupId": "OG000", "value": "133"}, {"groupId": "OG001", "value": "153"}]}], "classes": [{"categories": [{"measurements": [{"groupId": "OG000", "value": "0.12", "spread": "1.3"}, {"groupId": "OG001", "value": "-0.76", "spread": "0.92"}]}]}], "analyses": [{"groupIds": ["OG000", "OG001"], "groupDescription": "ANCOVA fitting model change from baseline in A1c with fixed effects for treatment and pooled site and baseline A1c as a covariate", "testedNonInferiority": false, "nonInferiorityType": "SUPERIORITY_OR_OTHER", "pValue": "< 0.001", "statisticalMethod": "ANCOVA", "statisticalComment": "Type III", "paramType": "Mean Difference (Final Values)", "paramValue": "0.91", "ciPctValue": "95", "ciNumSides": "TWO_SIDED", "ciLowerLimit": "0.69", "ciUpperLimit": "1.14"}]}, {"type": "SECONDARY", "title": "Change in HbA1c From Baseline to Week 24 (Subjects Who Stayed on Original Treatment)", "populationDescription": "Intent to Treat: Subjects who stayed on original treatment", "reportingStatus": "POSTED", "paramType": "MEAN", "dispersionType": "Standard Deviation", "unitOfMeasure": "percentage of total hemoglobin", "timeFrame": "Week 24", "groups": [{"id": "OG000", "title": "TI Inhalation Powder Alone", "description": "Technosphere\u00ae Insulin Inhalation Powder"}, {"id": "OG001", "title": "Metformin & Secretagogues", "description": "Metformin \\& Secretagogues"}, {"id": "OG002", "title": "TI Inhalation Powder + Metformin", "description": "Technosphere\u00ae Insulin Inhalation Powder \\& Metformin"}], "denoms": [{"units": "Participants", "counts": [{"groupId": "OG000", "value": "29"}, {"groupId": "OG001", "value": "72"}, {"groupId": "OG002", "value": "77"}]}], "classes": [{"categories": [{"measurements": [{"groupId": "OG000", "value": "-1.82", "spread": "1.114"}, {"groupId": "OG001", "value": "-1.23", "spread": "1.080"}, {"groupId": "OG002", "value": "-1.68", "spread": "1.014"}]}]}]}]}, "adverseEventsModule": {"frequencyThreshold": "5", "timeFrame": "From first dose until 30 days after last dose of study medication", "description": "Subjects in the TI Alone and Metformin + Secretagogue arms may have transferred to the TI + Metformin Arm for study period 2. There are 181, 166 and 351 subjects in the TI Alone, Metformin + Secretagogue and TI + Metformin treatment arms, respectively, across all 24 weeks of the study.", "eventGroups": [{"id": "EG000", "title": "TI Inhalation Powder Alone", "description": "Technosphere\u00ae Insulin Inhalation Powder", "seriousNumAffected": 5, "seriousNumAtRisk": 181, "otherNumAffected": 72, "otherNumAtRisk": 181}, {"id": "EG001", "title": "Metformin & Secretagogues", "description": "Metformin \\& Secretagogues", "seriousNumAffected": 5, "seriousNumAtRisk": 166, "otherNumAffected": 42, "otherNumAtRisk": 166}, {"id": "EG002", "title": "TI Inhalation Powder + Metformin", "description": "Technosphere\u00ae Insulin Inhalation Powder \\& Metformin", "seriousNumAffected": 11, "seriousNumAtRisk": 351, "otherNumAffected": 138, "otherNumAtRisk": 351}], "seriousEvents": [{"term": "ACUTE CORONARY SYNDROME", "organSystem": "Cardiac disorders", "sourceVocabulary": "MedDRA 7.1", "assessmentType": "SYSTEMATIC_ASSESSMENT", "stats": [{"groupId": "EG000", "numAffected": 0, "numAtRisk": 181}, {"groupId": "EG001", "numAffected": 0, "numAtRisk": 166}, {"groupId": "EG002", "numAffected": 1, "numAtRisk": 351}]}, {"term": "ANGINA UNSTABLE", "organSystem": "Cardiac disorders", "sourceVocabulary": "MedDRA 7.1", "assessmentType": "SYSTEMATIC_ASSESSMENT", "stats": [{"groupId": "EG000", "numAffected": 0, "numAtRisk": 181}, {"groupId": "EG001", "numAffected": 0, "numAtRisk": 166}, {"groupId": "EG002", "numAffected": 1, "numAtRisk": 351}]}, {"term": "ATRIAL FIBRILLATION", "organSystem": "Cardiac disorders", "sourceVocabulary": "MedDRA 7.1", "assessmentType": "SYSTEMATIC_ASSESSMENT", "stats": [{"groupId": "EG000", "numAffected": 0, "numAtRisk": 181}, {"groupId": "EG001", "numAffected": 2, "numAtRisk": 166}, {"groupId": "EG002", "numAffected": 0, "numAtRisk": 351}]}, {"term": "ISCHAEMIC CARDIOMYOPATHY", "organSystem": "Cardiac disorders", "sourceVocabulary": "MedDRA 7.1", "assessmentType": "SYSTEMATIC_ASSESSMENT", "stats": [{"groupId": "EG000", "numAffected": 0, "numAtRisk": 181}, {"groupId": "EG001", "numAffected": 0, "numAtRisk": 166}, {"groupId": "EG002", "numAffected": 1, "numAtRisk": 351}]}, {"term": "SUPRAVENTRICULAR TACHYCARDIA", "organSystem": "Cardiac disorders", "sourceVocabulary": "MedDRA 7.1", "assessmentType": "SYSTEMATIC_ASSESSMENT", "stats": [{"groupId": "EG000", "numAffected": 0, "numAtRisk": 181}, {"groupId": "EG001", "numAffected": 1, "numAtRisk": 166}, {"groupId": "EG002", "numAffected": 0, "numAtRisk": 351}]}, {"term": "RETROPERITONEAL HAEMORRHAGE", "organSystem": "Gastrointestinal disorders", "sourceVocabulary": "MedDRA 7.1", "assessmentType": "SYSTEMATIC_ASSESSMENT", "stats": [{"groupId": "EG000", "numAffected": 1, "numAtRisk": 181}, {"groupId": "EG001", "numAffected": 0, "numAtRisk": 166}, {"groupId": "EG002", "numAffected": 0, "numAtRisk": 351}]}, {"term": "INTESTINAL OBSTRUCTION", "organSystem": "Gastrointestinal disorders", "sourceVocabulary": "MedDRA 7.1", "assessmentType": "SYSTEMATIC_ASSESSMENT", "stats": [{"groupId": "EG000", "numAffected": 0, "numAtRisk": 181}, {"groupId": "EG001", "numAffected": 0, "numAtRisk": 166}, {"groupId": "EG002", "numAffected": 1, "numAtRisk": 351}]}, {"term": "PANCREATITIS ACUTE", "organSystem": "Gastrointestinal disorders", "sourceVocabulary": "MedDRA 7.1", "assessmentType": "SYSTEMATIC_ASSESSMENT", "stats": [{"groupId": "EG000", "numAffected": 0, "numAtRisk": 181}, {"groupId": "EG001", "numAffected": 0, "numAtRisk": 166}, {"groupId": "EG002", "numAffected": 1, "numAtRisk": 351}]}, {"term": "CHOLECYSTITIS", "organSystem": "Hepatobiliary disorders", "sourceVocabulary": "MedDRA 7.1", "assessmentType": "SYSTEMATIC_ASSESSMENT", "stats": [{"groupId": "EG000", "numAffected": 0, "numAtRisk": 181}, {"groupId": "EG001", "numAffected": 0, "numAtRisk": 166}, {"groupId": "EG002", "numAffected": 1, "numAtRisk": 351}]}, {"term": "CHOLECYCTITIS ACUTE", "organSystem": "Hepatobiliary disorders", "sourceVocabulary": "MedDRA 7.1", "assessmentType": "SYSTEMATIC_ASSESSMENT", "stats": [{"groupId": "EG000", "numAffected": 0, "numAtRisk": 181}, {"groupId": "EG001", "numAffected": 0, "numAtRisk": 166}, {"groupId": "EG002", "numAffected": 1, "numAtRisk": 351}]}, {"term": "SEPSIS", "organSystem": "Infections and infestations", "sourceVocabulary": "MedDRA 7.1", "assessmentType": "SYSTEMATIC_ASSESSMENT", "stats": [{"groupId": "EG000", "numAffected": 1, "numAtRisk": 181}, {"groupId": "EG001", "numAffected": 0, "numAtRisk": 166}, {"groupId": "EG002", "numAffected": 0, "numAtRisk": 351}]}, {"term": "CELLULITIS", "organSystem": "Infections and infestations", "sourceVocabulary": "MedDRA 7.1", "assessmentType": "SYSTEMATIC_ASSESSMENT", "stats": [{"groupId": "EG000", "numAffected": 0, "numAtRisk": 181}, {"groupId": "EG001", "numAffected": 1, "numAtRisk": 166}, {"groupId": "EG002", "numAffected": 0, "numAtRisk": 351}]}, {"term": "ROAD TRAFFIC ACCIDENT", "organSystem": "Injury, poisoning and procedural complications", "sourceVocabulary": "MedDRA 7.1", "assessmentType": "SYSTEMATIC_ASSESSMENT", "stats": [{"groupId": "EG000", "numAffected": 1, "numAtRisk": 181}, {"groupId": "EG001", "numAffected": 0, "numAtRisk": 166}, {"groupId": "EG002", "numAffected": 0, "numAtRisk": 351}]}, {"term": "ANKLE FRACTURE", "organSystem": "Injury, poisoning and procedural complications", "sourceVocabulary": "MedDRA 7.1", "assessmentType": "SYSTEMATIC_ASSESSMENT", "stats": [{"groupId": "EG000", "numAffected": 0, "numAtRisk": 181}, {"groupId": "EG001", "numAffected": 0, "numAtRisk": 166}, {"groupId": "EG002", "numAffected": 1, "numAtRisk": 351}]}, {"term": "FALL", "organSystem": "Injury, poisoning and procedural complications", "sourceVocabulary": "MedDRA 7.1", "assessmentType": "SYSTEMATIC_ASSESSMENT", "stats": [{"groupId": "EG000", "numAffected": 0, "numAtRisk": 181}, {"groupId": "EG001", "numAffected": 0, "numAtRisk": 166}, {"groupId": "EG002", "numAffected": 1, "numAtRisk": 351}]}, {"term": "LOWER LIMB FRACTURE", "organSystem": "Injury, poisoning and procedural complications", "sourceVocabulary": "MedDRA 7.1", "assessmentType": "SYSTEMATIC_ASSESSMENT", "stats": [{"groupId": "EG000", "numAffected": 0, "numAtRisk": 181}, {"groupId": "EG001", "numAffected": 1, "numAtRisk": 166}, {"groupId": "EG002", "numAffected": 0, "numAtRisk": 351}]}, {"term": "HYPERGLYCAEMIA", "organSystem": "Metabolism and nutrition disorders", "sourceVocabulary": "MedDRA 7.1", "assessmentType": "SYSTEMATIC_ASSESSMENT", "stats": [{"groupId": "EG000", "numAffected": 1, "numAtRisk": 181}, {"groupId": "EG001", "numAffected": 0, "numAtRisk": 166}, {"groupId": "EG002", "numAffected": 0, "numAtRisk": 351}]}, {"term": "HYPOGLYCAEMIA", "organSystem": "Metabolism and nutrition disorders", "sourceVocabulary": "MedDRA 7.1", "assessmentType": "SYSTEMATIC_ASSESSMENT", "stats": [{"groupId": "EG000", "numAffected": 1, "numAtRisk": 181}, {"groupId": "EG001", "numAffected": 0, "numAtRisk": 166}, {"groupId": "EG002", "numAffected": 2, "numAtRisk": 351}]}, {"term": "DUPUYTREN'S CONTRACTURE", "organSystem": "Musculoskeletal and connective tissue disorders", "sourceVocabulary": "MedDRA 7.1", "assessmentType": "SYSTEMATIC_ASSESSMENT", "stats": [{"groupId": "EG000", "numAffected": 0, "numAtRisk": 181}, {"groupId": "EG001", "numAffected": 1, "numAtRisk": 166}, {"groupId": "EG002", "numAffected": 0, "numAtRisk": 351}]}, {"term": "LOSS OF CONSCIOUSNESS", "organSystem": "Nervous system disorders", "sourceVocabulary": "MedDRA 7.1", "assessmentType": "SYSTEMATIC_ASSESSMENT", "stats": [{"groupId": "EG000", "numAffected": 1, "numAtRisk": 181}, {"groupId": "EG001", "numAffected": 0, "numAtRisk": 166}, {"groupId": "EG002", "numAffected": 0, "numAtRisk": 351}]}, {"term": "TRANSIENT ISCHAEMIC ATTACK", "organSystem": "Nervous system disorders", "sourceVocabulary": "MedDRA 7.1", "assessmentType": "SYSTEMATIC_ASSESSMENT", "stats": [{"groupId": "EG000", "numAffected": 1, "numAtRisk": 181}, {"groupId": "EG001", "numAffected": 0, "numAtRisk": 166}, {"groupId": "EG002", "numAffected": 0, "numAtRisk": 351}]}, {"term": "IIIRD NERVE PARALYSIS", "organSystem": "Nervous system disorders", "sourceVocabulary": "MedDRA 7.1", "assessmentType": "SYSTEMATIC_ASSESSMENT", "stats": [{"groupId": "EG000", "numAffected": 0, "numAtRisk": 181}, {"groupId": "EG001", "numAffected": 0, "numAtRisk": 166}, {"groupId": "EG002", "numAffected": 1, "numAtRisk": 351}]}, {"term": "BLADDER NECK OBSTRUCTION", "organSystem": "Renal and urinary disorders", "sourceVocabulary": "MedDRA 7.1", "assessmentType": "SYSTEMATIC_ASSESSMENT", "stats": [{"groupId": "EG000", "numAffected": 0, "numAtRisk": 181}, {"groupId": "EG001", "numAffected": 1, "numAtRisk": 166}, {"groupId": "EG002", "numAffected": 0, "numAtRisk": 351}]}, {"term": "CALCULUS BLADDER", "organSystem": "Renal and urinary disorders", "sourceVocabulary": "MedDRA 7.1", "assessmentType": "SYSTEMATIC_ASSESSMENT", "stats": [{"groupId": "EG000", "numAffected": 0, "numAtRisk": 181}, {"groupId": "EG001", "numAffected": 0, "numAtRisk": 166}, {"groupId": "EG002", "numAffected": 1, "numAtRisk": 351}]}, {"term": "URETHRAL STRICTURE", "organSystem": "Renal and urinary disorders", "sourceVocabulary": "MedDRA 7.1", "assessmentType": "SYSTEMATIC_ASSESSMENT", "stats": [{"groupId": "EG000", "numAffected": 0, "numAtRisk": 181}, {"groupId": "EG001", "numAffected": 1, "numAtRisk": 166}, {"groupId": "EG002", "numAffected": 0, "numAtRisk": 351}]}, {"term": "HYPOTENSION", "organSystem": "Vascular disorders", "sourceVocabulary": "MedDRA 7.1", "assessmentType": "SYSTEMATIC_ASSESSMENT", "stats": [{"groupId": "EG000", "numAffected": 1, "numAtRisk": 181}, {"groupId": "EG001", "numAffected": 0, "numAtRisk": 166}, {"groupId": "EG002", "numAffected": 0, "numAtRisk": 351}]}, {"term": "DEEP VEIN THROMBOSIS", "organSystem": "Vascular disorders", "sourceVocabulary": "MedDRA 7.1", "assessmentType": "SYSTEMATIC_ASSESSMENT", "stats": [{"groupId": "EG000", "numAffected": 0, "numAtRisk": 181}, {"groupId": "EG001", "numAffected": 0, "numAtRisk": 166}, {"groupId": "EG002", "numAffected": 1, "numAtRisk": 351}]}, {"term": "HYPERTENSIVE CRISIS", "organSystem": "Vascular disorders", "sourceVocabulary": "MedDRA 7.1", "assessmentType": "SYSTEMATIC_ASSESSMENT", "stats": [{"groupId": "EG000", "numAffected": 0, "numAtRisk": 181}, {"groupId": "EG001", "numAffected": 0, "numAtRisk": 166}, {"groupId": "EG002", "numAffected": 1, "numAtRisk": 351}]}, {"term": "ANGINA PECTORIS", "organSystem": "Cardiac disorders", "sourceVocabulary": "MedDRA 7.1", "assessmentType": "SYSTEMATIC_ASSESSMENT", "stats": [{"groupId": "EG000", "numAffected": 0, "numAtRisk": 181}, {"groupId": "EG001", "numAffected": 1, "numAtRisk": 166}, {"groupId": "EG002", "numAffected": 0, "numAtRisk": 351}]}], "otherEvents": [{"term": "UPPER RESPIRATORY TRACT INFECTION", "organSystem": "Infections and infestations", "sourceVocabulary": "MedDRA 7.1", "assessmentType": "SYSTEMATIC_ASSESSMENT", "stats": [{"groupId": "EG000", "numAffected": 7, "numAtRisk": 181}, {"groupId": "EG001", "numAffected": 12, "numAtRisk": 166}, {"groupId": "EG002", "numAffected": 8, "numAtRisk": 351}]}, {"term": "NASOPHARYNGITIS", "organSystem": "Infections and infestations", "sourceVocabulary": "MedDRA 7.1", "assessmentType": "SYSTEMATIC_ASSESSMENT", "stats": [{"groupId": "EG000", "numAffected": 4, "numAtRisk": 181}, {"groupId": "EG001", "numAffected": 13, "numAtRisk": 166}, {"groupId": "EG002", "numAffected": 18, "numAtRisk": 351}]}, {"term": "HYPOGLYCAEMIA", "organSystem": "Metabolism and nutrition disorders", "sourceVocabulary": "MedDRA 7.1", "assessmentType": "SYSTEMATIC_ASSESSMENT", "stats": [{"groupId": "EG000", "numAffected": 24, "numAtRisk": 181}, {"groupId": "EG001", "numAffected": 21, "numAtRisk": 166}, {"groupId": "EG002", "numAffected": 84, "numAtRisk": 351}]}, {"term": "COUGH", "organSystem": "Respiratory, thoracic and mediastinal disorders", "sourceVocabulary": "MedDRA 7.1", "assessmentType": "SYSTEMATIC_ASSESSMENT", "stats": [{"groupId": "EG000", "numAffected": 49, "numAtRisk": 181}, {"groupId": "EG001", "numAffected": 6, "numAtRisk": 166}, {"groupId": "EG002", "numAffected": 62, "numAtRisk": 351}]}]}, "moreInfoModule": {"limitationsAndCaveats": {"description": "Wks 12-24 was a non-randomized treatment period of the trial; outcomes were not analyzed for Wks 12-24. Safety results include entire trial; patients counted in multiple treatments for safety."}, "certainAgreement": {"piSponsorEmployee": false, "restrictionType": "OTHER", "restrictiveAgreement": true, "otherDetails": "MannKind has right to 1st joint multicenter publication. After 1st publication PI may publish data only if PI submits proposed publication to MNKD for review 60 days prior to publication date. MNKD may remove any confidential information. If a multicenter publication is not submitted 12 months after conclusion, abandonment, or termination of the Study at all sites, or if MNKD confirms there will be no multicenter Study publication, PI may publish the Study results subject to MNKD rights herein."}, "pointOfContact": {"title": "Chief Medical Officer", "organization": "MannKind Corporation", "email": "aboss@mannkindcorp.com", "phone": "201-983-5000"}}}, "derivedSection": {"miscInfoModule": {"versionHolder": "2024-06-24"}, "conditionBrowseModule": {"meshes": [{"id": "D000003920", "term": "Diabetes Mellitus"}, {"id": "D000003924", "term": "Diabetes Mellitus, Type 2"}], "ancestors": [{"id": "D000044882", "term": "Glucose Metabolism Disorders"}, {"id": "D000008659", "term": "Metabolic Diseases"}, {"id": "D000004700", "term": "Endocrine System Diseases"}], "browseLeaves": [{"id": "M27137", "name": "Respiratory Aspiration", "relevance": "LOW"}, {"id": "M7115", "name": "Diabetes Mellitus", "asFound": "Diabetes Mellitus", "relevance": "HIGH"}, {"id": "M7119", "name": "Diabetes Mellitus, Type 2", "asFound": "Diabetes Mellitus, Type 2", "relevance": "HIGH"}, {"id": "M11639", "name": "Metabolic Diseases", "relevance": "LOW"}, {"id": "M25403", "name": "Glucose Metabolism Disorders", "relevance": "LOW"}, {"id": "M7862", "name": "Endocrine System Diseases", "relevance": "LOW"}], "browseBranches": [{"abbrev": "BC08", "name": "Respiratory Tract (Lung and Bronchial) Diseases"}, {"abbrev": "BC23", "name": "Symptoms and General Pathology"}, {"abbrev": "All", "name": "All Conditions"}, {"abbrev": "BC18", "name": "Nutritional and Metabolic Diseases"}, {"abbrev": "BC19", "name": "Gland and Hormone Related Diseases"}]}, "interventionBrowseModule": {"meshes": [{"id": "D000007328", "term": "Insulin"}, {"id": "C000557859", "term": "Insulin, Globin Zinc"}, {"id": "D000008687", "term": "Metformin"}, {"id": "D000078604", "term": "Secretagogues"}], "ancestors": [{"id": "D000007004", "term": "Hypoglycemic Agents"}, {"id": "D000045505", "term": "Physiological Effects of Drugs"}], "browseLeaves": [{"id": "M10365", "name": "Insulin", "asFound": "Blood", "relevance": "HIGH"}, {"id": "M11667", "name": "Metformin", "asFound": "Assessment", "relevance": "HIGH"}, {"id": "M173166", "name": "Insulin, Globin Zinc", "asFound": "Blood", "relevance": "HIGH"}, {"id": "M10054", "name": "Hypoglycemic Agents", "relevance": "LOW"}, {"id": "M1985", "name": "Secretagogues", "asFound": "HMG-CoA Reductase Inhibitors", "relevance": "HIGH"}, {"id": "M17768", "name": "Zinc", "relevance": "LOW"}], "browseBranches": [{"abbrev": "Hypo", "name": "Hypoglycemic Agents"}, {"abbrev": "All", "name": "All Drugs and Chemicals"}, {"abbrev": "Micro", "name": "Micronutrients"}]}}, "hasResults": true}