{"protocolSection": {"identificationModule": {"nctId": "NCT02548455", "orgStudyIdInfo": {"id": "CRD 616"}, "organization": {"fullName": "Abbott Medical Devices", "class": "INDUSTRY"}, "briefTitle": "Quartet 1457Q Left Ventricular (LV) Lead Investigational Device Exemption (IDE) Study", "officialTitle": "A Clinical Evaluation of the Safety of the St. Jude Medical Quartet 1457Q Left Ventricular Lead, an IDE Study"}, "statusModule": {"statusVerifiedDate": "2019-01", "overallStatus": "COMPLETED", "expandedAccessInfo": {"hasExpandedAccess": false}, "startDateStruct": {"date": "2015-10-27", "type": "ACTUAL"}, "primaryCompletionDateStruct": {"date": "2016-08-19", "type": "ACTUAL"}, "completionDateStruct": {"date": "2017-03-21", "type": "ACTUAL"}, "studyFirstSubmitDate": "2015-09-10", "studyFirstSubmitQcDate": "2015-09-10", "studyFirstPostDateStruct": {"date": "2015-09-14", "type": "ESTIMATED"}, "resultsFirstSubmitDate": "2018-04-05", "resultsFirstSubmitQcDate": "2018-04-05", "resultsFirstPostDateStruct": {"date": "2018-05-08", "type": "ACTUAL"}, "lastUpdateSubmitDate": "2019-01-31", "lastUpdatePostDateStruct": {"date": "2019-02-04", "type": "ACTUAL"}}, "sponsorCollaboratorsModule": {"responsibleParty": {"type": "SPONSOR"}, "leadSponsor": {"name": "Abbott Medical Devices", "class": "INDUSTRY"}}, "oversightModule": {"oversightHasDmc": false, "isFdaRegulatedDrug": false, "isFdaRegulatedDevice": true}, "descriptionModule": {"briefSummary": "The primary intent of this study is to assess the safety of the model 1457Q Quartet LV lead at 3 months in a patient population indicated for cardiac resynchronization therapy.", "detailedDescription": "This is a prospective, multi-center, IDE clinical study designed to evaluate the safety of the Model 1457Q Quartet LV lead.\n\nA minimum of 94 and a maximum of 430 subjects will be enrolled in this study at up to 40 centers worldwide.\n\nAll subjects successfully implanted with a Quartet 1457Q lead will be followed every 6 months post implant until Pre Market Approval (PMA) is obtained or the study is closed."}, "conditionsModule": {"conditions": ["Heart Failure"]}, "designModule": {"studyType": "INTERVENTIONAL", "phases": ["NA"], "designInfo": {"allocation": "NA", "interventionModel": "SINGLE_GROUP", "primaryPurpose": "TREATMENT", "maskingInfo": {"masking": "NONE"}}, "enrollmentInfo": {"count": 499, "type": "ACTUAL"}}, "armsInterventionsModule": {"armGroups": [{"label": "Treatment", "type": "EXPERIMENTAL", "description": "Subjects implanted with the Quartet 1457Q LV lead", "interventionNames": ["Device: Quartet 1457Q LV Lead"]}], "interventions": [{"type": "DEVICE", "name": "Quartet 1457Q LV Lead", "armGroupLabels": ["Treatment"]}]}, "outcomesModule": {"primaryOutcomes": [{"measure": "Number of Patients Free From LV Lead-related Complications Through 3 Months", "description": "A complication is defined as a Serious Adverse Device Effect related to the Quartet 1457Q lead. A Serious Adverse Device Effect is an event related to the use of a medical device that led to death, a life-threatening illness or injury, a permanent impairment to a body structure or a body function, an in-patient or prolonged hospitalization, medical or surgical intervention to prevent life-threatening illness or injury or permanent impairment to a body structure or a body, a malignant tumor OR fetal distress, fetal death or a congenital abnormality or birth defect.", "timeFrame": "3 months"}]}, "eligibilityModule": {"eligibilityCriteria": "Inclusion Criteria:\n\n1. Meets current St. Jude Medical clinical indication for implantation of a cardiac resynchronization therapy system:\n\n   \" to provide a reduction of the symptoms of moderate to severe heart failure (New York Heart Association Functional Class III or IV) in those patients who remain symptomatic despite stable, optimal medical therapy and have a left ventricular ejection fraction \u2264 35% and a prolonged QRS duration, OR \" to maintain synchrony of the left and right ventricles in patients who have undergone an Atrio Ventricular nodal ablation for chronic (permanent) atrial fibrillation and have New York Heart Association Functional Class II or III heart failure.\n2. Is receiving a new market-approved St. Jude Medical quadripolar cardiac resynchronization therapy system implant with the Quartet 1457Q LV lead.\n3. Have the ability to provide informed consent for study participation and is willing and able to comply with the prescribed follow-up tests and schedule of evaluations.\n4. Are 18 years or above, or of legal age to give informed consent specific to state and national law.\n\nExclusion Criteria:\n\n1. Had a previous unsuccessful commercial or non-Quartet 1457Q LV lead implant attempt\n2. Have a hypersensitivity to a single 1.0mg dose of dexamethasone sodium phosphate\n3. Patient is currently participating or plans to participate in a potentially confounding drug or device trial during the course of this study. Co-enrollment in other studies may be allowed if pre-approval is granted from the study manager.\n4. Are pregnant or planning pregnancy in the next 6 months\n5. Have a life expectancy of less than 24 months due to any condition", "healthyVolunteers": false, "sex": "ALL", "minimumAge": "18 Years", "stdAges": ["ADULT", "OLDER_ADULT"]}, "contactsLocationsModule": {"overallOfficials": [{"name": "David Delurgio, MD", "affiliation": "Emory University", "role": "STUDY_CHAIR"}], "locations": [{"facility": "Heart Center Research", "city": "Huntsville", "state": "Alabama", "zip": "35801", "country": "United States", "geoPoint": {"lat": 34.7304, "lon": -86.58594}}, {"facility": "Arizona Arrhythmia Research Center", "city": "Phoenix", "state": "Arizona", "zip": "85013", "country": "United States", "geoPoint": {"lat": 33.44838, "lon": -112.07404}}, {"facility": "Cardiology Associates of Northeast Arkansas", "city": "Jonesboro", "state": "Arkansas", "zip": "72401", "country": "United States", "geoPoint": {"lat": 35.8423, "lon": -90.70428}}, {"facility": "Scripps Health", "city": "La Jolla", "state": "California", "zip": "92037", "country": "United States", "geoPoint": {"lat": 32.84727, "lon": -117.2742}}, {"facility": "Premier Cardiology, Inc.", "city": "Newport Beach", "state": "California", "zip": "92663", "country": "United States", "geoPoint": {"lat": 33.61891, "lon": -117.92895}}, {"facility": "Stanford University Hospital", "city": "Stanford", "state": "California", "zip": "94305", "country": "United States", "geoPoint": {"lat": 37.42411, "lon": -122.16608}}, {"facility": "Munroe Regional Medical Center", "city": "Ocala", "state": "Florida", "zip": "34471", "country": "United States", "geoPoint": {"lat": 29.1872, "lon": -82.14009}}, {"facility": "Tallahassee Research Institute", "city": "Tallahassee", "state": "Florida", "zip": "32308", "country": "United States", "geoPoint": {"lat": 30.43826, "lon": -84.28073}}, {"facility": "Emory University Hospital", "city": "Atlanta", "state": "Georgia", "zip": "30322", "country": "United States", "geoPoint": {"lat": 33.749, "lon": -84.38798}}, {"facility": "North Georgia Heart Foundation", "city": "Gainesville", "state": "Georgia", "zip": "30501", "country": "United States", "geoPoint": {"lat": 34.29788, "lon": -83.82407}}, {"facility": "Iowa Heart Center", "city": "West Des Moines", "state": "Iowa", "zip": "50266", "country": "United States", "geoPoint": {"lat": 41.57721, "lon": -93.71133}}, {"facility": "Central Baptist Hospital", "city": "Lexington", "state": "Kentucky", "zip": "40503", "country": "United States", "geoPoint": {"lat": 37.98869, "lon": -84.47772}}, {"facility": "One Health Cardiology", "city": "Owensboro", "state": "Kentucky", "zip": "42304", "country": "United States", "geoPoint": {"lat": 37.77422, "lon": -87.11333}}, {"facility": "Massachusetts General Hospital", "city": "Boston", "state": "Massachusetts", "zip": "02114", "country": "United States", "geoPoint": {"lat": 42.35843, "lon": -71.05977}}, {"facility": "Brigham and Women's Hospital", "city": "Boston", "state": "Massachusetts", "zip": "02115", "country": "United States", "geoPoint": {"lat": 42.35843, "lon": -71.05977}}, {"facility": "Thoracic Cardiovascular Healthcare Foundation", "city": "Lansing", "state": "Michigan", "zip": "48912", "country": "United States", "geoPoint": {"lat": 42.73253, "lon": -84.55553}}, {"facility": "Missouri Heart Center", "city": "Columbia", "state": "Missouri", "zip": "65201", "country": "United States", "geoPoint": {"lat": 38.95171, "lon": -92.33407}}, {"facility": "Catholic Medical Center", "city": "Manchester", "state": "New Hampshire", "zip": "03102", "country": "United States", "geoPoint": {"lat": 42.99564, "lon": -71.45479}}, {"facility": "Cardiovascular Associates of Delaware Valley", "city": "Haddon Heights", "state": "New Jersey", "zip": "08035", "country": "United States", "geoPoint": {"lat": 39.87734, "lon": -75.06462}}, {"facility": "Forsyth Medical Center", "city": "Winston-Salem", "state": "North Carolina", "zip": "27103", "country": "United States", "geoPoint": {"lat": 36.09986, "lon": -80.24422}}, {"facility": "University Hospitals of Cleveland", "city": "Cleveland", "state": "Ohio", "zip": "44106", "country": "United States", "geoPoint": {"lat": 41.4995, "lon": -81.69541}}, {"facility": "Oklahoma Heart Institute at Utica", "city": "Tulsa", "state": "Oklahoma", "zip": "74104", "country": "United States", "geoPoint": {"lat": 36.15398, "lon": -95.99277}}, {"facility": "Lancaster General Hospital", "city": "Lancaster", "state": "Pennsylvania", "zip": "17602", "country": "United States", "geoPoint": {"lat": 40.03788, "lon": -76.30551}}, {"facility": "Donald Guthrie Foundation for Education & Research", "city": "Sayre", "state": "Pennsylvania", "zip": "18840", "country": "United States", "geoPoint": {"lat": 41.97896, "lon": -76.5155}}, {"facility": "Greenville Health System", "city": "Greenville", "state": "South Carolina", "zip": "29605", "country": "United States", "geoPoint": {"lat": 34.85262, "lon": -82.39401}}, {"facility": "Erlanger Medical Center", "city": "Chattanooga", "state": "Tennessee", "zip": "37403", "country": "United States", "geoPoint": {"lat": 35.04563, "lon": -85.30968}}, {"facility": "The Stern Cardiovascular Foundation", "city": "Germantown", "state": "Tennessee", "zip": "38138", "country": "United States", "geoPoint": {"lat": 35.08676, "lon": -89.81009}}, {"facility": "The Heart Hospital Baylor Plano", "city": "Plano", "state": "Texas", "zip": "75093", "country": "United States", "geoPoint": {"lat": 33.01984, "lon": -96.69889}}, {"facility": "Swedish Medical Center - Heart & Vascular", "city": "Seattle", "state": "Washington", "zip": "98122", "country": "United States", "geoPoint": {"lat": 47.60621, "lon": -122.33207}}, {"facility": "St. Mary's Hospital", "city": "Madison", "state": "Wisconsin", "zip": "53715", "country": "United States", "geoPoint": {"lat": 43.07305, "lon": -89.40123}}]}, "ipdSharingStatementModule": {"ipdSharing": "NO"}}, "resultsSection": {"participantFlowModule": {"groups": [{"id": "FG000", "title": "Treatment", "description": "Left Ventricular Lead model Quartet 1457Q\n\nLeft Ventricular Lead"}], "periods": [{"title": "Overall Study", "milestones": [{"type": "STARTED", "comment": "484 were successful and 15 were unsuccessful.", "achievements": [{"groupId": "FG000", "comment": "A total of 499 subjects were enrolled at 31 investigational sites.", "numSubjects": "499"}]}, {"type": "Completed Pre-Discharge", "achievements": [{"groupId": "FG000", "numSubjects": "484"}]}, {"type": "Completed 6-Month Follow-up", "achievements": [{"groupId": "FG000", "numSubjects": "259"}]}, {"type": "Completed 12-Month Follow-up", "achievements": [{"groupId": "FG000", "comment": "Study completed prior to all subjects reaching the 6- and 12-month visits.", "numSubjects": "61"}]}, {"type": "COMPLETED", "achievements": [{"groupId": "FG000", "comment": "Completed 6-Month Follow-up", "numSubjects": "259"}]}, {"type": "NOT COMPLETED", "achievements": [{"groupId": "FG000", "numSubjects": "240"}]}], "dropWithdraws": [{"type": "Withdrawal by Subject", "reasons": [{"groupId": "FG000", "numSubjects": "27"}]}, {"type": "Death", "reasons": [{"groupId": "FG000", "numSubjects": "26"}]}, {"type": "Lost to Follow-up", "reasons": [{"groupId": "FG000", "numSubjects": "14"}]}, {"type": "Visit not completed", "reasons": [{"groupId": "FG000", "numSubjects": "173"}]}]}]}, "baselineCharacteristicsModule": {"groups": [{"id": "BG000", "title": "Treatment", "description": "Left Ventricular Lead model Quartet 1457Q\n\nLeft Ventricular Lead"}], "denoms": [{"units": "Participants", "counts": [{"groupId": "BG000", "value": "499"}]}], "measures": [{"title": "Age, Continuous", "paramType": "MEAN", "dispersionType": "STANDARD_DEVIATION", "unitOfMeasure": "years", "classes": [{"categories": [{"measurements": [{"groupId": "BG000", "value": "72.3", "spread": "10.4"}]}]}]}, {"title": "Sex: Female, Male", "paramType": "COUNT_OF_PARTICIPANTS", "unitOfMeasure": "Participants", "classes": [{"categories": [{"title": "Female", "measurements": [{"groupId": "BG000", "value": "194"}]}, {"title": "Male", "measurements": [{"groupId": "BG000", "value": "305"}]}]}]}, {"title": "Ethnicity (NIH/OMB)", "paramType": "COUNT_OF_PARTICIPANTS", "unitOfMeasure": "Participants", "classes": [{"categories": [{"title": "Hispanic or Latino", "measurements": [{"groupId": "BG000", "value": "4"}]}, {"title": "Not Hispanic or Latino", "measurements": [{"groupId": "BG000", "value": "491"}]}, {"title": "Unknown or Not Reported", "measurements": [{"groupId": "BG000", "value": "4"}]}]}]}, {"title": "Race (NIH/OMB)", "paramType": "COUNT_OF_PARTICIPANTS", "unitOfMeasure": "Participants", "classes": [{"categories": [{"title": "American Indian or Alaska Native", "measurements": [{"groupId": "BG000", "value": "5"}]}, {"title": "Asian", "measurements": [{"groupId": "BG000", "value": "1"}]}, {"title": "Native Hawaiian or Other Pacific Islander", "measurements": [{"groupId": "BG000", "value": "0"}]}, {"title": "Black or African American", "measurements": [{"groupId": "BG000", "value": "39"}]}, {"title": "White", "measurements": [{"groupId": "BG000", "value": "450"}]}, {"title": "More than one race", "measurements": [{"groupId": "BG000", "value": "0"}]}, {"title": "Unknown or Not Reported", "measurements": [{"groupId": "BG000", "value": "4"}]}]}]}, {"title": "Region of Enrollment", "paramType": "COUNT_OF_PARTICIPANTS", "unitOfMeasure": "Participants", "classes": [{"title": "United States", "categories": [{"measurements": [{"groupId": "BG000", "value": "499"}]}]}]}]}, "outcomeMeasuresModule": {"outcomeMeasures": [{"type": "PRIMARY", "title": "Number of Patients Free From LV Lead-related Complications Through 3 Months", "description": "A complication is defined as a Serious Adverse Device Effect related to the Quartet 1457Q lead. A Serious Adverse Device Effect is an event related to the use of a medical device that led to death, a life-threatening illness or injury, a permanent impairment to a body structure or a body function, an in-patient or prolonged hospitalization, medical or surgical intervention to prevent life-threatening illness or injury or permanent impairment to a body structure or a body, a malignant tumor OR fetal distress, fetal death or a congenital abnormality or birth defect.", "populationDescription": "The first 94 subjects who underwent an attempted implant of the Quartet 1457Q lead and either completed a 3-month follow-up visit, withdrew from the study or died prior to the 3-month follow-up visit.", "reportingStatus": "POSTED", "paramType": "COUNT_OF_PARTICIPANTS", "unitOfMeasure": "Participants", "timeFrame": "3 months", "groups": [{"id": "OG000", "title": "Treatment", "description": "Subjects implanted with the Quartet 1457Q left ventricular lead"}], "denoms": [{"units": "Participants", "counts": [{"groupId": "OG000", "value": "94"}]}], "classes": [{"categories": [{"measurements": [{"groupId": "OG000", "value": "4"}]}]}], "analyses": [{"groupIds": ["OG000"], "groupDescription": "The hypothesis for the endpoint is:\n\nH0: Freedom from LV lead-related complications through 3 months (91 days) \u2264 85% H1: Freedom from LV lead-related complications through 3 months (91 days) \\> 85%\n\nA total of 85 subjects were required to have at least 80% power to reject the null hypothesis at the 5% significance level at three months (91 days) post-implant or attempted implant. After accounting for 9% attrition, the required sample size was 94 subjects.", "nonInferiorityType": "EQUIVALENCE", "nonInferiorityComment": "Freedom from left ventricular lead-related complications through 3 months was estimated to be 96.0% with a 95% lower confidence bound of 92.6% based on the Promote Q IDE study (NCT00990665), and 98.3% with a 95% lower confidence bound of 97.7% based on data from the Quadripolar Post-Approval study (NCT01555619).", "pValue": "0.05", "statisticalMethod": "Log Rank", "paramType": "Kaplan-Meier Estimate", "paramValue": "85", "ciNumSides": "TWO_SIDED"}]}]}, "adverseEventsModule": {"frequencyThreshold": "0", "timeFrame": "Adverse event data was collected on all subjects from enrollment through 12 months of follow-up.", "eventGroups": [{"id": "EG000", "title": "Treatment", "description": "Subjects implanted with the Quartet 1457Q left ventricular lead", "deathsNumAffected": 27, "deathsNumAtRisk": 499, "seriousNumAffected": 60, "seriousNumAtRisk": 499, "otherNumAffected": 56, "otherNumAtRisk": 499}], "seriousEvents": [{"term": "Cardiac Tamponade", "organSystem": "Injury, poisoning and procedural complications", "assessmentType": "SYSTEMATIC_ASSESSMENT", "stats": [{"groupId": "EG000", "numEvents": 3, "numAffected": 3, "numAtRisk": 499}]}, {"term": "Coronary Sinus Dissection", "organSystem": "Injury, poisoning and procedural complications", "assessmentType": "SYSTEMATIC_ASSESSMENT", "stats": [{"groupId": "EG000", "numEvents": 4, "numAffected": 4, "numAtRisk": 499}]}, {"term": "Coronary Sinus Perforation", "organSystem": "Injury, poisoning and procedural complications", "assessmentType": "SYSTEMATIC_ASSESSMENT", "stats": [{"groupId": "EG000", "numEvents": 1, "numAffected": 1, "numAtRisk": 499}]}, {"term": "Excessive Bleeding", "organSystem": "Injury, poisoning and procedural complications", "assessmentType": "SYSTEMATIC_ASSESSMENT", "stats": [{"groupId": "EG000", "numEvents": 2, "numAffected": 2, "numAtRisk": 499}]}, {"term": "Hematoma/Seroma", "organSystem": "Injury, poisoning and procedural complications", "assessmentType": "SYSTEMATIC_ASSESSMENT", "stats": [{"groupId": "EG000", "numEvents": 1, "numAffected": 1, "numAtRisk": 499}]}, {"term": "Induced Arrhythmias Atrial/Ventricular", "organSystem": "Injury, poisoning and procedural complications", "assessmentType": "SYSTEMATIC_ASSESSMENT", "stats": [{"groupId": "EG000", "numEvents": 2, "numAffected": 2, "numAtRisk": 499}]}, {"term": "Infections", "organSystem": "Injury, poisoning and procedural complications", "assessmentType": "SYSTEMATIC_ASSESSMENT", "stats": [{"groupId": "EG000", "numEvents": 1, "numAffected": 1, "numAtRisk": 499}]}, {"term": "Infections", "organSystem": "Infections and infestations", "assessmentType": "SYSTEMATIC_ASSESSMENT", "stats": [{"groupId": "EG000", "numEvents": 5, "numAffected": 5, "numAtRisk": 499}]}, {"term": "Lead Dislodgement", "organSystem": "Injury, poisoning and procedural complications", "assessmentType": "SYSTEMATIC_ASSESSMENT", "stats": [{"groupId": "EG000", "numEvents": 20, "numAffected": 20, "numAtRisk": 499}]}, {"term": "Lead Dislodgement", "organSystem": "Product Issues", "assessmentType": "SYSTEMATIC_ASSESSMENT", "stats": [{"groupId": "EG000", "numEvents": 14, "numAffected": 14, "numAtRisk": 499}]}, {"term": "Loss of Pacing/Sensing", "organSystem": "Product Issues", "assessmentType": "SYSTEMATIC_ASSESSMENT", "stats": [{"groupId": "EG000", "numEvents": 1, "numAffected": 1, "numAtRisk": 499}]}, {"term": "Pectoral/Diaphragmatic Stimulation", "organSystem": "Injury, poisoning and procedural complications", "assessmentType": "SYSTEMATIC_ASSESSMENT", "stats": [{"groupId": "EG000", "numEvents": 1, "numAffected": 1, "numAtRisk": 499}]}, {"term": "Pericardial Effusion", "organSystem": "Injury, poisoning and procedural complications", "assessmentType": "SYSTEMATIC_ASSESSMENT", "stats": [{"groupId": "EG000", "numEvents": 1, "numAffected": 1, "numAtRisk": 499}]}, {"term": "Pneumothorax", "organSystem": "Injury, poisoning and procedural complications", "assessmentType": "SYSTEMATIC_ASSESSMENT", "stats": [{"groupId": "EG000", "numEvents": 6, "numAffected": 6, "numAtRisk": 499}]}, {"term": "Pulmonary Edema", "organSystem": "Injury, poisoning and procedural complications", "assessmentType": "SYSTEMATIC_ASSESSMENT", "stats": [{"groupId": "EG000", "numEvents": 2, "numAffected": 2, "numAtRisk": 499}]}, {"term": "Rise in Threshold", "organSystem": "Injury, poisoning and procedural complications", "assessmentType": "SYSTEMATIC_ASSESSMENT", "stats": [{"groupId": "EG000", "numEvents": 1, "numAffected": 1, "numAtRisk": 499}]}, {"term": "Rise in Threshold", "organSystem": "Product Issues", "assessmentType": "SYSTEMATIC_ASSESSMENT", "stats": [{"groupId": "EG000", "numEvents": 1, "numAffected": 1, "numAtRisk": 499}]}, {"term": "Anesthesia Complication", "organSystem": "Injury, poisoning and procedural complications", "assessmentType": "SYSTEMATIC_ASSESSMENT", "stats": [{"groupId": "EG000", "numEvents": 1, "numAffected": 1, "numAtRisk": 499}]}, {"term": "Cardiogenic Shock", "organSystem": "Injury, poisoning and procedural complications", "assessmentType": "SYSTEMATIC_ASSESSMENT", "stats": [{"groupId": "EG000", "numEvents": 1, "numAffected": 1, "numAtRisk": 499}]}, {"term": "Elevated Pacing Threshold", "organSystem": "Injury, poisoning and procedural complications", "assessmentType": "SYSTEMATIC_ASSESSMENT", "stats": [{"groupId": "EG000", "numEvents": 1, "numAffected": 1, "numAtRisk": 499}]}, {"term": "Guide Wire Problem", "organSystem": "Injury, poisoning and procedural complications", "assessmentType": "SYSTEMATIC_ASSESSMENT", "stats": [{"groupId": "EG000", "numEvents": 1, "numAffected": 1, "numAtRisk": 499}]}, {"term": "Hypotension", "organSystem": "Injury, poisoning and procedural complications", "assessmentType": "SYSTEMATIC_ASSESSMENT", "stats": [{"groupId": "EG000", "numEvents": 1, "numAffected": 1, "numAtRisk": 499}]}, {"term": "Loose Set Screw", "organSystem": "Injury, poisoning and procedural complications", "assessmentType": "SYSTEMATIC_ASSESSMENT", "stats": [{"groupId": "EG000", "numEvents": 1, "numAffected": 1, "numAtRisk": 499}]}, {"term": "Respiratory Compromise", "organSystem": "Respiratory, thoracic and mediastinal disorders", "assessmentType": "SYSTEMATIC_ASSESSMENT", "stats": [{"groupId": "EG000", "numEvents": 1, "numAffected": 1, "numAtRisk": 499}]}, {"term": "Upper Extremity Deep Vein Thrombosis", "organSystem": "Injury, poisoning and procedural complications", "assessmentType": "SYSTEMATIC_ASSESSMENT", "stats": [{"groupId": "EG000", "numEvents": 2, "numAffected": 2, "numAtRisk": 499}]}], "otherEvents": [{"term": "Cardiac/Coronary Sinus Dissection", "organSystem": "Injury, poisoning and procedural complications", "assessmentType": "SYSTEMATIC_ASSESSMENT", "stats": [{"groupId": "EG000", "numEvents": 2, "numAffected": 2, "numAtRisk": 499}]}, {"term": "Cardiac/Coronary Sinus Perforation", "organSystem": "Injury, poisoning and procedural complications", "assessmentType": "SYSTEMATIC_ASSESSMENT", "stats": [{"groupId": "EG000", "numEvents": 1, "numAffected": 1, "numAtRisk": 499}]}, {"term": "Hematoma/Seroma", "organSystem": "Injury, poisoning and procedural complications", "assessmentType": "SYSTEMATIC_ASSESSMENT", "stats": [{"groupId": "EG000", "numEvents": 7, "numAffected": 7, "numAtRisk": 499}]}, {"term": "Induced Atrial or Ventricular Arrythmias", "organSystem": "Injury, poisoning and procedural complications", "assessmentType": "SYSTEMATIC_ASSESSMENT", "stats": [{"groupId": "EG000", "numEvents": 1, "numAffected": 1, "numAtRisk": 499}]}, {"term": "Infection", "organSystem": "Injury, poisoning and procedural complications", "assessmentType": "SYSTEMATIC_ASSESSMENT", "stats": [{"groupId": "EG000", "numEvents": 1, "numAffected": 1, "numAtRisk": 499}]}, {"term": "Lead Dislodgement", "organSystem": "Injury, poisoning and procedural complications", "assessmentType": "SYSTEMATIC_ASSESSMENT", "stats": [{"groupId": "EG000", "numEvents": 6, "numAffected": 5, "numAtRisk": 499}]}, {"term": "Lead Dislodgement", "organSystem": "Product Issues", "assessmentType": "SYSTEMATIC_ASSESSMENT", "stats": [{"groupId": "EG000", "numEvents": 1, "numAffected": 1, "numAtRisk": 499}]}, {"term": "Local Tissue Reaction; Formation of Fibrotic Tissue", "organSystem": "Skin and subcutaneous tissue disorders", "assessmentType": "SYSTEMATIC_ASSESSMENT", "stats": [{"groupId": "EG000", "numEvents": 1, "numAffected": 1, "numAtRisk": 499}]}, {"term": "Pectoral/Diaphramatic/Phrenic Nerve Stimulation", "organSystem": "Injury, poisoning and procedural complications", "assessmentType": "SYSTEMATIC_ASSESSMENT", "stats": [{"groupId": "EG000", "numEvents": 22, "numAffected": 20, "numAtRisk": 499}]}, {"term": "Pectoral/Diaphramatic/Phrenic Nerve Stimulation", "organSystem": "Product Issues", "assessmentType": "SYSTEMATIC_ASSESSMENT", "stats": [{"groupId": "EG000", "numEvents": 10, "numAffected": 10, "numAtRisk": 499}]}, {"term": "Oversensing", "organSystem": "General disorders", "assessmentType": "SYSTEMATIC_ASSESSMENT", "stats": [{"groupId": "EG000", "numEvents": 2, "numAffected": 2, "numAtRisk": 499}]}, {"term": "Upper Extremity Discomfort", "organSystem": "Injury, poisoning and procedural complications", "assessmentType": "SYSTEMATIC_ASSESSMENT", "stats": [{"groupId": "EG000", "numEvents": 1, "numAffected": 1, "numAtRisk": 499}]}, {"term": "Oversensing", "organSystem": "Injury, poisoning and procedural complications", "assessmentType": "SYSTEMATIC_ASSESSMENT", "stats": [{"groupId": "EG000", "numEvents": 1, "numAffected": 1, "numAtRisk": 499}]}, {"term": "Should Pain", "organSystem": "Injury, poisoning and procedural complications", "assessmentType": "SYSTEMATIC_ASSESSMENT", "stats": [{"groupId": "EG000", "numEvents": 1, "numAffected": 1, "numAtRisk": 499}]}, {"term": "Suture Sleeve Disruption", "organSystem": "Injury, poisoning and procedural complications", "assessmentType": "SYSTEMATIC_ASSESSMENT", "stats": [{"groupId": "EG000", "numEvents": 1, "numAffected": 1, "numAtRisk": 499}]}, {"term": "Upper Extremity Deep Vein Thrombosis", "organSystem": "Injury, poisoning and procedural complications", "assessmentType": "SYSTEMATIC_ASSESSMENT", "stats": [{"groupId": "EG000", "numEvents": 3, "numAffected": 3, "numAtRisk": 499}]}, {"term": "Device Reset Mode", "organSystem": "Product Issues", "assessmentType": "SYSTEMATIC_ASSESSMENT", "stats": [{"groupId": "EG000", "numEvents": 1, "numAffected": 1, "numAtRisk": 499}]}, {"term": "Elevated Threshold", "organSystem": "Product Issues", "assessmentType": "SYSTEMATIC_ASSESSMENT", "stats": [{"groupId": "EG000", "numEvents": 1, "numAffected": 1, "numAtRisk": 499}]}, {"term": "Oversensing", "organSystem": "Product Issues", "assessmentType": "SYSTEMATIC_ASSESSMENT", "stats": [{"groupId": "EG000", "numEvents": 1, "numAffected": 1, "numAtRisk": 499}]}]}, "moreInfoModule": {"certainAgreement": {"piSponsorEmployee": false, "restrictionType": "LTE60", "restrictiveAgreement": true}, "pointOfContact": {"title": "Clay Cohorn, Clinical Program Director", "organization": "Abbott", "email": "clay.cohorn@abbott.com", "phone": "972-309-8087"}}}, "derivedSection": {"miscInfoModule": {"versionHolder": "2024-06-24"}, "conditionBrowseModule": {"meshes": [{"id": "D000006333", "term": "Heart Failure"}], "ancestors": [{"id": "D000006331", "term": "Heart Diseases"}, {"id": "D000002318", "term": "Cardiovascular Diseases"}], "browseLeaves": [{"id": "M9421", "name": "Heart Failure", "asFound": "Heart Failure", "relevance": "HIGH"}, {"id": "M9419", "name": "Heart Diseases", "relevance": "LOW"}], "browseBranches": [{"abbrev": "BC14", "name": "Heart and Blood Diseases"}, {"abbrev": "All", "name": "All Conditions"}]}, "interventionBrowseModule": {"meshes": [{"id": "C000072593", "term": "Ethinyl estradiol, levonorgestrel drug combination"}], "ancestors": [{"id": "D000080066", "term": "Contraceptive Agents, Hormonal"}, {"id": "D000003270", "term": "Contraceptive Agents"}, {"id": "D000012102", "term": "Reproductive Control Agents"}, {"id": "D000045505", "term": "Physiological Effects of Drugs"}, {"id": "D000003277", "term": "Contraceptives, Oral, Combined"}, {"id": "D000003276", "term": "Contraceptives, Oral"}, {"id": "D000003271", "term": "Contraceptive Agents, Female"}], "browseLeaves": [{"id": "M265601", "name": "Ethinyl estradiol, levonorgestrel drug combination", "asFound": "Neobladder", "relevance": "HIGH"}, {"id": "M19256", "name": "Levonorgestrel", "relevance": "LOW"}, {"id": "M8145", "name": "Ethinyl Estradiol", "relevance": "LOW"}, {"id": "M8108", "name": "Estradiol", "relevance": "LOW"}, {"id": "M266279", "name": "Estradiol 17 beta-cypionate", "relevance": "LOW"}, {"id": "M266280", "name": "Estradiol 3-benzoate", "relevance": "LOW"}, {"id": "M234941", "name": "Polyestradiol phosphate", "relevance": "LOW"}, {"id": "M6494", "name": "Contraceptive Agents", "relevance": "LOW"}, {"id": "M2116", "name": "Contraceptive Agents, Hormonal", "relevance": "LOW"}, {"id": "M6500", "name": "Contraceptives, Oral", "relevance": "LOW"}, {"id": "M6501", "name": "Contraceptives, Oral, Combined", "relevance": "LOW"}, {"id": "M6495", "name": "Contraceptive Agents, Female", "relevance": "LOW"}], "browseBranches": [{"abbrev": "Repr", "name": "Reproductive Control Agents"}, {"abbrev": "All", "name": "All Drugs and Chemicals"}]}}, "hasResults": true}