{"protocolSection": {"identificationModule": {"nctId": "NCT02075008", "orgStudyIdInfo": {"id": "CQGE031B2201E1"}, "secondaryIdInfos": [{"id": "2013-003683-31", "type": "EUDRACT_NUMBER"}], "organization": {"fullName": "Novartis", "class": "INDUSTRY"}, "briefTitle": "Long-term Safety Study of QGE031 in Patients With Allergic Asthma Who Completed Study CQGE031B2201", "officialTitle": "An Open-label, Multi-center, Extension Study to Evaluate the Long-term Safety of Subcutaneous 240mg QGE031 Given Every 4 Weeks for 52 Weeks in Allergic Asthma Patients Who Completed Study CQGE031B2201"}, "statusModule": {"statusVerifiedDate": "2017-08", "overallStatus": "TERMINATED", "whyStopped": "The study was prematurely terminated after core study CQGE031B2201 failed to meet the primary objective of demonstrating superiority for QGE031 versus placebo.", "expandedAccessInfo": {"hasExpandedAccess": false}, "startDateStruct": {"date": "2014-03-27", "type": "ACTUAL"}, "primaryCompletionDateStruct": {"date": "2016-03-22", "type": "ACTUAL"}, "completionDateStruct": {"date": "2016-03-22", "type": "ACTUAL"}, "studyFirstSubmitDate": "2014-02-27", "studyFirstSubmitQcDate": "2014-02-27", "studyFirstPostDateStruct": {"date": "2014-03-03", "type": "ESTIMATED"}, "resultsFirstSubmitDate": "2017-03-14", "resultsFirstSubmitQcDate": "2017-03-14", "resultsFirstPostDateStruct": {"date": "2017-04-25", "type": "ACTUAL"}, "lastUpdateSubmitDate": "2017-08-07", "lastUpdatePostDateStruct": {"date": "2017-08-11", "type": "ACTUAL"}}, "sponsorCollaboratorsModule": {"responsibleParty": {"type": "SPONSOR"}, "leadSponsor": {"name": "Novartis Pharmaceuticals", "class": "INDUSTRY"}}, "oversightModule": {"oversightHasDmc": false}, "descriptionModule": {"briefSummary": "This study planned to assess long-term safety of QGE031 during 12 months treatment in asthma patients who completed study CQGE031B2201.", "detailedDescription": "This study planned to assess long-term safety and tolerability of QGE031 administered every 4 weeks for an additional 12 months in patients with allergic asthma who previously completed study CQGE031B2201. The study was terminated early due to the efficacy results from an interim analysis of the Phase II study CQGE031B2201."}, "conditionsModule": {"conditions": ["Asthma"], "keywords": ["asthma", "allergic asthma", "QGE031", "open-label", "IgE", "long-term safety"]}, "designModule": {"studyType": "INTERVENTIONAL", "phases": ["PHASE2"], "designInfo": {"allocation": "NA", "interventionModel": "SINGLE_GROUP", "primaryPurpose": "TREATMENT", "maskingInfo": {"masking": "NONE"}}, "enrollmentInfo": {"count": 270, "type": "ACTUAL"}}, "armsInterventionsModule": {"armGroups": [{"label": "QGE031 every 4 weeks (q4w)", "type": "EXPERIMENTAL", "description": "QGE031 240 mg subcutaneously q4w", "interventionNames": ["Drug: QGE031"]}], "interventions": [{"type": "DRUG", "name": "QGE031", "description": "QGE031 120 mg/mL solution for subcutaneous injection", "armGroupLabels": ["QGE031 every 4 weeks (q4w)"]}]}, "outcomesModule": {"primaryOutcomes": [{"measure": "Numbers of Participants With Non-serious Adverse Events (AEs), Serious AEs and Deaths as a Measure of Safety and Tolerability", "description": "Safety was monitored throughout the study.", "timeFrame": "52 weeks"}]}, "eligibilityModule": {"eligibilityCriteria": "Key Inclusion Criteria:\n\n* forced Expiratory Volume in one second ( FEV1) \\>= 40% predicted\n* patients who completed CQGE031B2201 study\n\nKey Exclusion Criteria:\n\n* life-threatening asthma attack, intubation, respiratory arrest during or after completion of CQGE031B2201 study\n* new malignancy\n* ongoing SAE from CQGE031B2201 that was assessed as related to study drug\n* patient experienced platelets drop to \\< 75,000/uL\n* patient experienced one unexpected grade 4 or two unexpected grade 3 hypersensitivity reactions\n* patient is pregnant", "healthyVolunteers": false, "sex": "ALL", "minimumAge": "18 Years", "maximumAge": "76 Years", "stdAges": ["ADULT", "OLDER_ADULT"]}, "contactsLocationsModule": {"overallOfficials": [{"name": "Novartis Pharmaceuticals", "affiliation": "Novartis Pharmaceuticals", "role": "STUDY_DIRECTOR"}], "locations": [{"facility": "Novartis Investigative Site", "city": "Evansville", "state": "Indiana", "zip": "47713", "country": "United States", "geoPoint": {"lat": 37.97476, "lon": -87.55585}}, {"facility": "Novartis Investigative Site", "city": "Owensboro", "state": "Kentucky", "zip": "42301", "country": "United States", "geoPoint": {"lat": 37.77422, "lon": -87.11333}}, {"facility": "Novartis Investigative Site", "city": "Waldorf", "state": "Maryland", "zip": "20602", "country": "United States", "geoPoint": {"lat": 38.62456, "lon": -76.93914}}, {"facility": "Novartis Investigative Site", "city": "Minneapolis", "state": "Minnesota", "zip": "55402", "country": "United States", "geoPoint": {"lat": 44.97997, "lon": -93.26384}}, {"facility": "Novartis Investigative Site", "city": "Fairfax", "state": "Virginia", "zip": "22030", "country": "United States", "geoPoint": {"lat": 38.84622, "lon": -77.30637}}, {"facility": "Novartis Investigative Site", "city": "Caba", "state": "Buenos Aires", "zip": "C1122AAK", "country": "Argentina", "geoPoint": {"lat": -34.61315, "lon": -58.37723}}, {"facility": "Novartis Investigative Site", "city": "Caba", "state": "Buenos Aires", "zip": "C1426ABP", "country": "Argentina", "geoPoint": {"lat": -34.61315, "lon": -58.37723}}, {"facility": "Novartis Investigative Site", "city": "Mar del Plata", "state": "Buenos Aires", "zip": "7600", "country": "Argentina", "geoPoint": {"lat": -38.00228, "lon": -57.55754}}, {"facility": "Novartis Investigative Site", "city": "Caba", "state": "Capital Federal", "zip": "C1430CKE", "country": "Argentina", "geoPoint": {"lat": -34.61315, "lon": -58.37723}}, {"facility": "Novartis Investigative Site", "city": "Santa Fe", "state": "Rosario", "zip": "S2000DBS", "country": "Argentina", "geoPoint": {"lat": -31.63333, "lon": -60.7}}, {"facility": "Novartis Investigative Site", "city": "Rosario", "state": "Santa Fe", "zip": "S2000AII", "country": "Argentina", "geoPoint": {"lat": -32.94682, "lon": -60.63932}}, {"facility": "Novartis Investigative Site", "city": "San Miguel de Tucuman", "state": "Tucuman", "zip": "4000", "country": "Argentina", "geoPoint": {"lat": -26.82414, "lon": -65.2226}}, {"facility": "Novartis Investigative Site", "city": "Buenos Aires", "zip": "C1125ABE", "country": "Argentina", "geoPoint": {"lat": -34.61315, "lon": -58.37723}}, {"facility": "Novartis Investigative Site", "city": "Mendoza", "zip": "M5500CBA", "country": "Argentina", "geoPoint": {"lat": -32.89084, "lon": -68.82717}}, {"facility": "Novartis Investigative Site", "city": "Mendoza", "zip": "M5500FIK", "country": "Argentina", "geoPoint": {"lat": -32.89084, "lon": -68.82717}}, {"facility": "Novartis Investigative Site", "city": "Santa Fe", "zip": "S3000FIL", "country": "Argentina", "geoPoint": {"lat": -31.63333, "lon": -60.7}}, {"facility": "Novartis Investigative Site", "city": "Ottawa", "state": "Ontario", "zip": "K1Y 4G2", "country": "Canada", "geoPoint": {"lat": 45.41117, "lon": -75.69812}}, {"facility": "Novartis Investigative Site", "city": "Montreal", "state": "Quebec", "zip": "H3G 1L5", "country": "Canada", "geoPoint": {"lat": 45.50884, "lon": -73.58781}}, {"facility": "Novartis Investigative Site", "city": "Quebec", "zip": "G1V 4W2", "country": "Canada", "geoPoint": {"lat": 46.81228, "lon": -71.21454}}, {"facility": "Novartis Investigative Site", "city": "Trutnov", "state": "Czech Republic", "zip": "541 01", "country": "Czechia", "geoPoint": {"lat": 50.56101, "lon": 15.9127}}, {"facility": "Novartis Investigative Site", "city": "Teplice", "state": "CZE", "zip": "415 01", "country": "Czechia", "geoPoint": {"lat": 50.6404, "lon": 13.82451}}, {"facility": "Novartis Investigative Site", "city": "Breclav", "zip": "690 02", "country": "Czechia", "geoPoint": {"lat": 48.75897, "lon": 16.88203}}, {"facility": "Novartis Investigative Site", "city": "Brno", "zip": "615 00", "country": "Czechia", "geoPoint": {"lat": 49.19522, "lon": 16.60796}}, {"facility": "Novartis Investigative Site", "city": "Tabor", "zip": "390 01", "country": "Czechia", "geoPoint": {"lat": 49.41441, "lon": 14.6578}}, {"facility": "Novartis Investigative Site", "city": "Tampere", "zip": "33520", "country": "Finland", "geoPoint": {"lat": 61.49911, "lon": 23.78712}}, {"facility": "Novartis Investigative Site", "city": "Turku", "zip": "20521", "country": "Finland", "geoPoint": {"lat": 60.45148, "lon": 22.26869}}, {"facility": "Novartis Investigative Site", "city": "Le Kremlin", "zip": "94275", "country": "France"}, {"facility": "Novartis Investigative Site", "city": "Montpellier", "zip": "34059", "country": "France", "geoPoint": {"lat": 43.61092, "lon": 3.87723}}, {"facility": "Novartis Investigative Site", "city": "Frankfurt", "zip": "60596", "country": "Germany", "geoPoint": {"lat": 50.11552, "lon": 8.68417}}, {"facility": "Novartis Investigative Site", "city": "Hamburg", "zip": "20354", "country": "Germany", "geoPoint": {"lat": 53.57532, "lon": 10.01534}}, {"facility": "Novartis Investigative Site", "city": "Leipzig", "zip": "04103", "country": "Germany", "geoPoint": {"lat": 51.33962, "lon": 12.37129}}, {"facility": "Novartis Investigative Site", "city": "Leipzig", "zip": "04275", "country": "Germany", "geoPoint": {"lat": 51.33962, "lon": 12.37129}}, {"facility": "Novartis Investigative Site", "city": "Mainz", "zip": "55131", "country": "Germany", "geoPoint": {"lat": 49.98419, "lon": 8.2791}}, {"facility": "Novartis Investigative Site", "city": "Rudersdorf", "zip": "15562", "country": "Germany", "geoPoint": {"lat": 51.1, "lon": 11.45}}, {"facility": "Novartis Investigative Site", "city": "Budapest", "zip": "1121", "country": "Hungary", "geoPoint": {"lat": 47.49801, "lon": 19.03991}}, {"facility": "Novartis Investigative Site", "city": "Pecs", "zip": "7635", "country": "Hungary", "geoPoint": {"lat": 46.08333, "lon": 18.23333}}, {"facility": "Novartis Investigative Site", "city": "Torokbalint", "zip": "2045", "country": "Hungary", "geoPoint": {"lat": 47.42931, "lon": 18.91356}}, {"facility": "Novartis Investigative Site", "city": "Jerusalem", "zip": "91031", "country": "Israel", "geoPoint": {"lat": 31.76904, "lon": 35.21633}}, {"facility": "Novartis Investigative Site", "city": "Jerusalem", "zip": "9112001", "country": "Israel", "geoPoint": {"lat": 31.76904, "lon": 35.21633}}, {"facility": "Novartis Investigative Site", "city": "Kfar Saba", "zip": "4428164", "country": "Israel", "geoPoint": {"lat": 32.175, "lon": 34.90694}}, {"facility": "Novartis Investigative Site", "city": "Petach Tikva", "zip": "49100", "country": "Israel", "geoPoint": {"lat": 32.08707, "lon": 34.88747}}, {"facility": "Novartis Investigative Site", "city": "Rehovot", "zip": "7610001", "country": "Israel", "geoPoint": {"lat": 31.89421, "lon": 34.81199}}, {"facility": "Novartis Investigative Site", "city": "Messina", "state": "ME", "zip": "98125", "country": "Italy", "geoPoint": {"lat": 38.19394, "lon": 15.55256}}, {"facility": "Novartis Investigative Site", "city": "Milano", "state": "MI", "zip": "20123", "country": "Italy", "geoPoint": {"lat": 45.46427, "lon": 9.18951}}, {"facility": "Novartis Investigative Site", "city": "Padova", "state": "PD", "zip": "35128", "country": "Italy", "geoPoint": {"lat": 45.40797, "lon": 11.88586}}, {"facility": "Novartis Investigative Site", "city": "Pisa", "state": "PI", "zip": "56124", "country": "Italy", "geoPoint": {"lat": 43.70853, "lon": 10.4036}}, {"facility": "Novartis Investigative Site", "city": "Verona", "state": "VR", "zip": "37126", "country": "Italy", "geoPoint": {"lat": 45.4299, "lon": 10.98444}}, {"facility": "Novartis Investigative Site", "city": "Cheongju-si", "state": "Chungcheongbuk-do", "zip": "28644", "country": "Korea, Republic of", "geoPoint": {"lat": 36.63722, "lon": 127.48972}}, {"facility": "Novartis Investigative Site", "city": "Bucheon-Si", "state": "Gyeonggi-Do", "zip": "14584", "country": "Korea, Republic of", "geoPoint": {"lat": 37.49889, "lon": 126.78306}}, {"facility": "Novartis Investigative Site", "city": "Suwon", "state": "Gyeonggi-do", "zip": "16499", "country": "Korea, Republic of", "geoPoint": {"lat": 37.29111, "lon": 127.00889}}, {"facility": "Novartis Investigative Site", "city": "Seoul", "state": "Korea", "zip": "08308", "country": "Korea, Republic of", "geoPoint": {"lat": 37.566, "lon": 126.9784}}, {"facility": "Novartis Investigative Site", "city": "Gwangju", "zip": "501-757", "country": "Korea, Republic of", "geoPoint": {"lat": 35.15472, "lon": 126.91556}}, {"facility": "Novartis Investigative Site", "city": "Seoul", "zip": "120-752", "country": "Korea, Republic of", "geoPoint": {"lat": 37.566, "lon": 126.9784}}, {"facility": "Novartis Investigative Site", "city": "Seoul", "zip": "156-755", "country": "Korea, Republic of", "geoPoint": {"lat": 37.566, "lon": 126.9784}}, {"facility": "Novartis Investigative Site", "city": "Guadalajara", "state": "Jalisco", "zip": "44130", "country": "Mexico", "geoPoint": {"lat": 20.66682, "lon": -103.39182}}, {"facility": "Novartis Investigative Site", "city": "Bialystok", "zip": "15-276", "country": "Poland", "geoPoint": {"lat": 53.13333, "lon": 23.16433}}, {"facility": "Novartis Investigative Site", "city": "Lodz", "zip": "90-153", "country": "Poland", "geoPoint": {"lat": 51.75, "lon": 19.46667}}, {"facility": "Novartis Investigative Site", "city": "Coimbra", "zip": "3041-853", "country": "Portugal", "geoPoint": {"lat": 40.20564, "lon": -8.41955}}, {"facility": "Novartis Investigative Site", "city": "Lisboa", "zip": "1749-035", "country": "Portugal", "geoPoint": {"lat": 38.71667, "lon": -9.13333}}, {"facility": "Novartis Investigative Site", "city": "Porto", "zip": "4100-180", "country": "Portugal", "geoPoint": {"lat": 41.14961, "lon": -8.61099}}, {"facility": "Novartis Investigative Site", "city": "Bucharest", "state": "ROM", "zip": "12071", "country": "Romania", "geoPoint": {"lat": 44.43225, "lon": 26.10626}}, {"facility": "Novartis Investigative Site", "city": "Brasov", "zip": "500112", "country": "Romania", "geoPoint": {"lat": 45.64861, "lon": 25.60613}}, {"facility": "Novartis Investigative Site", "city": "Brasov", "zip": "500281", "country": "Romania", "geoPoint": {"lat": 45.64861, "lon": 25.60613}}, {"facility": "Novartis Investigative Site", "city": "Bucharest", "zip": "030317", "country": "Romania", "geoPoint": {"lat": 44.43225, "lon": 26.10626}}, {"facility": "Novartis Investigative Site", "city": "Cluj-Napoca", "zip": "400371", "country": "Romania", "geoPoint": {"lat": 46.76667, "lon": 23.6}}, {"facility": "Novartis Investigative Site", "city": "Barnaul", "zip": "656045", "country": "Russian Federation", "geoPoint": {"lat": 53.36056, "lon": 83.76361}}, {"facility": "Novartis Investigative Site", "city": "Nizhny Novgorod", "zip": "603018", "country": "Russian Federation", "geoPoint": {"lat": 56.32867, "lon": 44.00205}}, {"facility": "Novartis Investigative Site", "city": "Ryazan", "zip": "390026", "country": "Russian Federation", "geoPoint": {"lat": 54.6269, "lon": 39.6916}}, {"facility": "Novartis Investigative Site", "city": "Saint Petersburg", "zip": "194354", "country": "Russian Federation", "geoPoint": {"lat": 59.93863, "lon": 30.31413}}, {"facility": "Novartis Investigative Site", "city": "Saint Petersburg", "zip": "197022", "country": "Russian Federation", "geoPoint": {"lat": 59.93863, "lon": 30.31413}}, {"facility": "Novartis Investigative Site", "city": "Yaroslavl", "zip": "150003", "country": "Russian Federation", "geoPoint": {"lat": 57.62987, "lon": 39.87368}}, {"facility": "Novartis Investigative Site", "city": "Bratislava", "state": "Slovak Republic", "zip": "831 03", "country": "Slovakia", "geoPoint": {"lat": 48.14816, "lon": 17.10674}}, {"facility": "Novartis Investigative Site", "city": "Nitra", "state": "Slovak Republic", "zip": "949 01", "country": "Slovakia", "geoPoint": {"lat": 48.30763, "lon": 18.08453}}, {"facility": "Novartis Investigative Site", "city": "Bratislava", "zip": "826 06", "country": "Slovakia", "geoPoint": {"lat": 48.14816, "lon": 17.10674}}, {"facility": "Novartis Investigative Site", "city": "Kosice", "zip": "04001", "country": "Slovakia", "geoPoint": {"lat": 48.71395, "lon": 21.25808}}, {"facility": "Novartis Investigative Site", "city": "Prievidza", "zip": "97101", "country": "Slovakia", "geoPoint": {"lat": 48.77446, "lon": 18.6275}}, {"facility": "Novartis Investigative Site", "city": "Ruzomberok", "zip": "034 26", "country": "Slovakia", "geoPoint": {"lat": 49.0748, "lon": 19.30751}}, {"facility": "Novartis Investigative Site", "city": "Berea", "state": "Durban", "zip": "4001", "country": "South Africa", "geoPoint": {"lat": -29.85185, "lon": 30.99337}}, {"facility": "Novartis Investigative Site", "city": "Istanbul", "zip": "34098", "country": "Turkey", "geoPoint": {"lat": 41.01384, "lon": 28.94966}}, {"facility": "Novartis Investigative Site", "city": "Istanbul", "zip": "34854", "country": "Turkey", "geoPoint": {"lat": 41.01384, "lon": 28.94966}}, {"facility": "Novartis Investigative Site", "city": "Izmir", "zip": "35040", "country": "Turkey", "geoPoint": {"lat": 38.41273, "lon": 27.13838}}, {"facility": "Novartis Investigative Site", "city": "Mersin", "zip": "33079", "country": "Turkey", "geoPoint": {"lat": 36.79526, "lon": 34.61792}}, {"facility": "Novartis Investigative Site", "city": "Bradford", "state": "West Yorkshire", "zip": "BD9 6RJ", "country": "United Kingdom", "geoPoint": {"lat": 53.79391, "lon": -1.75206}}, {"facility": "Novartis Investigative Site", "city": "Southampton", "zip": "SO16 6YD", "country": "United Kingdom", "geoPoint": {"lat": 50.90395, "lon": -1.40428}}]}}, "resultsSection": {"participantFlowModule": {"preAssignmentDetails": "This was an open-label, single arm study for participants who completed the core study CQGE031B2201 (NCT01716754).", "groups": [{"id": "FG000", "title": "QGE031 Every 4 Weeks (q4w)", "description": "QGE031 240 mg subcutaneously q4w"}], "periods": [{"title": "Overall Study", "milestones": [{"type": "STARTED", "achievements": [{"groupId": "FG000", "numSubjects": "270"}]}, {"type": "COMPLETED", "achievements": [{"groupId": "FG000", "numSubjects": "94"}]}, {"type": "NOT COMPLETED", "achievements": [{"groupId": "FG000", "numSubjects": "176"}]}], "dropWithdraws": [{"type": "Technical problems", "reasons": [{"groupId": "FG000", "numSubjects": "1"}]}, {"type": "Pregnancy", "reasons": [{"groupId": "FG000", "numSubjects": "1"}]}, {"type": "Physician Decision", "reasons": [{"groupId": "FG000", "numSubjects": "1"}]}, {"type": "Lost to Follow-up", "reasons": [{"groupId": "FG000", "numSubjects": "1"}]}, {"type": "Lack of Efficacy", "reasons": [{"groupId": "FG000", "numSubjects": "1"}]}, {"type": "Death", "reasons": [{"groupId": "FG000", "numSubjects": "1"}]}, {"type": "Adverse Event", "reasons": [{"groupId": "FG000", "numSubjects": "5"}]}, {"type": "Withdrawal by Subject", "reasons": [{"groupId": "FG000", "numSubjects": "6"}]}, {"type": "Study terminated by Sponsor", "reasons": [{"groupId": "FG000", "numSubjects": "159"}]}]}]}, "baselineCharacteristicsModule": {"groups": [{"id": "BG000", "title": "QGE031 Every 4 Weeks (q4w)", "description": "QGE031 240 mg subcutaneously q4w"}], "denoms": [{"units": "Participants", "counts": [{"groupId": "BG000", "value": "270"}]}], "measures": [{"title": "Age, Continuous", "paramType": "MEAN", "dispersionType": "STANDARD_DEVIATION", "unitOfMeasure": "Years", "classes": [{"categories": [{"measurements": [{"groupId": "BG000", "value": "48.2", "spread": "13.17"}]}]}]}, {"title": "Sex: Female, Male", "paramType": "COUNT_OF_PARTICIPANTS", "unitOfMeasure": "Participants", "classes": [{"categories": [{"title": "Female", "measurements": [{"groupId": "BG000", "value": "168"}]}, {"title": "Male", "measurements": [{"groupId": "BG000", "value": "102"}]}]}]}]}, "outcomeMeasuresModule": {"outcomeMeasures": [{"type": "PRIMARY", "title": "Numbers of Participants With Non-serious Adverse Events (AEs), Serious AEs and Deaths as a Measure of Safety and Tolerability", "description": "Safety was monitored throughout the study.", "populationDescription": "The safety set, which included all participants, was analyzed.", "reportingStatus": "POSTED", "paramType": "COUNT_OF_PARTICIPANTS", "unitOfMeasure": "Participants", "timeFrame": "52 weeks", "groups": [{"id": "OG000", "title": "QGE031 Every 4 Weeks (q4w)", "description": "QGE031 240 mg subcutaneously q4w"}], "denoms": [{"units": "Participants", "counts": [{"groupId": "OG000", "value": "270"}]}], "classes": [{"title": "Non-serious AEs", "categories": [{"measurements": [{"groupId": "OG000", "value": "176"}]}]}, {"title": "Serious AEs", "categories": [{"measurements": [{"groupId": "OG000", "value": "19"}]}]}, {"title": "Deaths", "categories": [{"measurements": [{"groupId": "OG000", "value": "1"}]}]}]}]}, "adverseEventsModule": {"frequencyThreshold": "5", "eventGroups": [{"id": "EG000", "title": "QGE031 Every 4 Weeks (q4w)", "description": "QGE031 240 mg subcutaneously q4w", "seriousNumAffected": 19, "seriousNumAtRisk": 270, "otherNumAffected": 130, "otherNumAtRisk": 270}], "seriousEvents": [{"term": "Myocardial infarction", "organSystem": "Cardiac disorders", "sourceVocabulary": "MedDRA 19.0", "assessmentType": "SYSTEMATIC_ASSESSMENT", "stats": [{"groupId": "EG000", "numAffected": 1, "numAtRisk": 270}]}, {"term": "Vertigo", "organSystem": "Ear and labyrinth disorders", "sourceVocabulary": "MedDRA 19.0", "assessmentType": "SYSTEMATIC_ASSESSMENT", "stats": [{"groupId": "EG000", "numAffected": 1, "numAtRisk": 270}]}, {"term": "Goitre", "organSystem": "Endocrine disorders", "sourceVocabulary": "MedDRA 19.0", "assessmentType": "SYSTEMATIC_ASSESSMENT", "stats": [{"groupId": "EG000", "numAffected": 1, "numAtRisk": 270}]}, {"term": "Cholecystitis acute", "organSystem": "Hepatobiliary disorders", "sourceVocabulary": "MedDRA 19.0", "assessmentType": "SYSTEMATIC_ASSESSMENT", "stats": [{"groupId": "EG000", "numAffected": 1, "numAtRisk": 270}]}, {"term": "Anaphylactic reaction", "organSystem": "Immune system disorders", "sourceVocabulary": "MedDRA 19.0", "assessmentType": "SYSTEMATIC_ASSESSMENT", "stats": [{"groupId": "EG000", "numAffected": 1, "numAtRisk": 270}]}, {"term": "Drug hypersensitivity", "organSystem": "Immune system disorders", "sourceVocabulary": "MedDRA 19.0", "assessmentType": "SYSTEMATIC_ASSESSMENT", "stats": [{"groupId": "EG000", "numAffected": 1, "numAtRisk": 270}]}, {"term": "Diverticulitis", "organSystem": "Infections and infestations", "sourceVocabulary": "MedDRA 19.0", "assessmentType": "SYSTEMATIC_ASSESSMENT", "stats": [{"groupId": "EG000", "numAffected": 1, "numAtRisk": 270}]}, {"term": "Arthritis", "organSystem": "Musculoskeletal and connective tissue disorders", "sourceVocabulary": "MedDRA 19.0", "assessmentType": "SYSTEMATIC_ASSESSMENT", "stats": [{"groupId": "EG000", "numAffected": 1, "numAtRisk": 270}]}, {"term": "Osteonecrosis", "organSystem": "Musculoskeletal and connective tissue disorders", "sourceVocabulary": "MedDRA 19.0", "assessmentType": "SYSTEMATIC_ASSESSMENT", "stats": [{"groupId": "EG000", "numAffected": 1, "numAtRisk": 270}]}, {"term": "Benign breast neoplasm", "organSystem": "Neoplasms benign, malignant and unspecified (incl cysts and polyps)", "sourceVocabulary": "MedDRA 19.0", "assessmentType": "SYSTEMATIC_ASSESSMENT", "stats": [{"groupId": "EG000", "numAffected": 1, "numAtRisk": 270}]}, {"term": "Renal neoplasm", "organSystem": "Neoplasms benign, malignant and unspecified (incl cysts and polyps)", "sourceVocabulary": "MedDRA 19.0", "assessmentType": "SYSTEMATIC_ASSESSMENT", "stats": [{"groupId": "EG000", "numAffected": 1, "numAtRisk": 270}]}, {"term": "Cerebral haemorrhage", "organSystem": "Nervous system disorders", "sourceVocabulary": "MedDRA 19.0", "assessmentType": "SYSTEMATIC_ASSESSMENT", "stats": [{"groupId": "EG000", "numAffected": 1, "numAtRisk": 270}]}, {"term": "Cerebrovascular accident", "organSystem": "Nervous system disorders", "sourceVocabulary": "MedDRA 19.0", "assessmentType": "SYSTEMATIC_ASSESSMENT", "stats": [{"groupId": "EG000", "numAffected": 2, "numAtRisk": 270}]}, {"term": "Vertebral artery thrombosis", "organSystem": "Nervous system disorders", "sourceVocabulary": "MedDRA 19.0", "assessmentType": "SYSTEMATIC_ASSESSMENT", "stats": [{"groupId": "EG000", "numAffected": 1, "numAtRisk": 270}]}, {"term": "Asthma", "organSystem": "Respiratory, thoracic and mediastinal disorders", "sourceVocabulary": "MedDRA 19.0", "assessmentType": "SYSTEMATIC_ASSESSMENT", "stats": [{"groupId": "EG000", "numAffected": 5, "numAtRisk": 270}]}, {"term": "Nasal septum deviation", "organSystem": "Respiratory, thoracic and mediastinal disorders", "sourceVocabulary": "MedDRA 19.0", "assessmentType": "SYSTEMATIC_ASSESSMENT", "stats": [{"groupId": "EG000", "numAffected": 1, "numAtRisk": 270}]}, {"term": "Varicose vein", "organSystem": "Vascular disorders", "sourceVocabulary": "MedDRA 19.0", "assessmentType": "SYSTEMATIC_ASSESSMENT", "stats": [{"groupId": "EG000", "numAffected": 1, "numAtRisk": 270}]}], "otherEvents": [{"term": "Injection site reaction", "organSystem": "General disorders", "sourceVocabulary": "MedDRA 19.0", "assessmentType": "SYSTEMATIC_ASSESSMENT", "stats": [{"groupId": "EG000", "numAffected": 45, "numAtRisk": 270}]}, {"term": "Bronchitis", "organSystem": "Infections and infestations", "sourceVocabulary": "MedDRA 19.0", "assessmentType": "SYSTEMATIC_ASSESSMENT", "stats": [{"groupId": "EG000", "numAffected": 20, "numAtRisk": 270}]}, {"term": "Nasopharyngitis", "organSystem": "Infections and infestations", "sourceVocabulary": "MedDRA 19.0", "assessmentType": "SYSTEMATIC_ASSESSMENT", "stats": [{"groupId": "EG000", "numAffected": 33, "numAtRisk": 270}]}, {"term": "Upper respiratory tract infection", "organSystem": "Infections and infestations", "sourceVocabulary": "MedDRA 19.0", "assessmentType": "SYSTEMATIC_ASSESSMENT", "stats": [{"groupId": "EG000", "numAffected": 17, "numAtRisk": 270}]}, {"term": "Asthma", "organSystem": "Respiratory, thoracic and mediastinal disorders", "sourceVocabulary": "MedDRA 19.0", "assessmentType": "SYSTEMATIC_ASSESSMENT", "stats": [{"groupId": "EG000", "numAffected": 80, "numAtRisk": 270}]}]}, "moreInfoModule": {"certainAgreement": {"piSponsorEmployee": false, "restrictionType": "OTHER", "restrictiveAgreement": true, "otherDetails": "The terms and conditions of Novartis' agreements with its investigators may vary. However, Novartis does not prohibit any investigator from publishing. Any publications from a single-site are postponed until the publication of the pooled data (i.e., data from all sites) in the clinical trial or disclosure of trial results in their entirety."}, "pointOfContact": {"title": "Study Director", "organization": "Novartis Pharmaceuticals", "phone": "862-778-8300"}}}, "derivedSection": {"miscInfoModule": {"versionHolder": "2024-06-24", "removedCountries": ["Czech Republic", "Singapore"]}, "conditionBrowseModule": {"meshes": [{"id": "D000001249", "term": "Asthma"}], "ancestors": [{"id": "D000001982", "term": "Bronchial Diseases"}, {"id": "D000012140", "term": "Respiratory Tract Diseases"}, {"id": "D000008173", "term": "Lung Diseases, Obstructive"}, {"id": "D000008171", "term": "Lung Diseases"}, {"id": "D000012130", "term": "Respiratory Hypersensitivity"}, {"id": "D000006969", "term": "Hypersensitivity, Immediate"}, {"id": "D000006967", "term": "Hypersensitivity"}, {"id": "D000007154", "term": "Immune System Diseases"}], "browseLeaves": [{"id": "M4556", "name": "Asthma", "asFound": "Asthma", "relevance": "HIGH"}, {"id": "M5258", "name": "Bronchial Diseases", "relevance": "LOW"}, {"id": "M14977", "name": "Respiratory Tract Diseases", "relevance": "LOW"}, {"id": "M11168", "name": "Lung Diseases", "relevance": "LOW"}, {"id": "M11170", "name": "Lung Diseases, Obstructive", "relevance": "LOW"}, {"id": "M10018", "name": "Hypersensitivity", "relevance": "LOW"}, {"id": "M14967", "name": "Respiratory Hypersensitivity", "relevance": "LOW"}, {"id": "M10020", "name": "Hypersensitivity, Immediate", "relevance": "LOW"}, {"id": "M10200", "name": "Immune System Diseases", "relevance": "LOW"}], "browseBranches": [{"abbrev": "BC08", "name": "Respiratory Tract (Lung and Bronchial) Diseases"}, {"abbrev": "BC20", "name": "Immune System Diseases"}, {"abbrev": "All", "name": "All Conditions"}]}, "interventionBrowseModule": {"browseLeaves": [{"id": "M21860", "name": "Pharmaceutical Solutions", "relevance": "LOW"}], "browseBranches": [{"abbrev": "PhSol", "name": "Pharmaceutical Solutions"}, {"abbrev": "All", "name": "All Drugs and Chemicals"}]}}, "hasResults": true}