{"protocolSection": {"identificationModule": {"nctId": "NCT03697980", "orgStudyIdInfo": {"id": "Apogee"}, "organization": {"fullName": "Medtronic Cardiac Rhythm and Heart Failure", "class": "INDUSTRY"}, "briefTitle": "Apogee, A HeartWare HVAD Destination Product Surveillance Registry (PSR) Platform", "officialTitle": "Apogee, A HeartWare HVAD Destination Product Surveillance Registry (PSR) Platform"}, "statusModule": {"statusVerifiedDate": "2023-11", "overallStatus": "COMPLETED", "expandedAccessInfo": {"hasExpandedAccess": false}, "startDateStruct": {"date": "2019-01-17", "type": "ACTUAL"}, "primaryCompletionDateStruct": {"date": "2022-02-10", "type": "ACTUAL"}, "completionDateStruct": {"date": "2022-02-10", "type": "ACTUAL"}, "studyFirstSubmitDate": "2018-10-04", "studyFirstSubmitQcDate": "2018-10-04", "studyFirstPostDateStruct": {"date": "2018-10-05", "type": "ACTUAL"}, "resultsFirstSubmitDate": "2023-02-06", "resultsFirstSubmitQcDate": "2023-11-30", "resultsFirstPostDateStruct": {"date": "2023-12-04", "type": "ACTUAL"}, "lastUpdateSubmitDate": "2023-11-30", "lastUpdatePostDateStruct": {"date": "2023-12-04", "type": "ACTUAL"}}, "sponsorCollaboratorsModule": {"responsibleParty": {"type": "SPONSOR"}, "leadSponsor": {"name": "Medtronic Cardiac Rhythm and Heart Failure", "class": "INDUSTRY"}}, "oversightModule": {"oversightHasDmc": false, "isFdaRegulatedDrug": false, "isFdaRegulatedDevice": true, "isUsExport": true}, "descriptionModule": {"briefSummary": "Medtronic is sponsoring the Apogee study to further enhance scientific understanding of the implant procedure, optimized blood pressure management, and anticoagulation/ antiplatelet therapy in patients receiving a Medtronic HeartWare\u2122 Ventricular Assist Device (HVAD\u2122) for destination therapy.\n\nThe Apogee study is conducted within Medtronic's Product Surveillance Platform.", "detailedDescription": "The Apogee study is a prospective, observational, post-market, on-label, multi-site study in Destination Therapy patients. Patients participating in the Medtronic Destination Therapy (DT) Post Approval Study (PAS) (NCT03681210) are eligible for participation in Apogee. Patients enrolled in Apogee will be followed under the Apogee study for one-year post-implant. After participation in Apogee ends, patients will remain enrolled in DT PAS and will continue to be followed as outlined in the DT PAS protocol. The total estimated study duration is 33 months."}, "conditionsModule": {"conditions": ["Chronic Heart Failure"]}, "designModule": {"studyType": "OBSERVATIONAL", "patientRegistry": true, "targetDuration": "12 Months", "designInfo": {"observationalModel": "COHORT", "timePerspective": "PROSPECTIVE"}, "enrollmentInfo": {"count": 136, "type": "ACTUAL"}}, "armsInterventionsModule": {"armGroups": [{"label": "HVAD Left Ventricular Assist Device", "description": "Device: HeartWare Ventricular Assist Device\n\nOther Names:\n\nHVAD The HVAD is an implantable centrifugal rotary blood pump that is implanted in the pericardial space and is designed to provide up to 10 L/min of blood flow from the left ventricular to the aorta. The HVAD System is comprised of three major components: the HVAD (pump) with inflow and outflow conduits, a Controller (microprocessor unit that controls the operation of the HVAD), and power sources (AC and DC power adapters that provide power to the Controller and implanted HVAD).", "interventionNames": ["Device: HeartWare Ventricular Assist Device"]}], "interventions": [{"type": "DEVICE", "name": "HeartWare Ventricular Assist Device", "description": "The HVAD is an implantable centrifugal rotary blood pump that is implanted in the pericardial space and is designed to provide up to 10 L/min of blood flow from the left ventricular to the aorta. The HVAD System is comprised of three major components: the HVAD (pump) with inflow and outflow conduits, a Controller (microprocessor unit that controls the operation of the HVAD), and power sources (AC and DC power adapters that provide power to the Controller and implanted HVAD).", "armGroupLabels": ["HVAD Left Ventricular Assist Device"], "otherNames": ["HVAD"]}]}, "outcomesModule": {"primaryOutcomes": [{"measure": "Rate of Major Adverse Events", "description": "Freedom from event is the probability (expressed as a percent of 100) the participant did not have a major adverse event during 12 months post implant via the Kaplan-Meier method. Participants that did not have a major adverse event were censored at the time of last follow-up in Apogee or their end of study at 12 months post implant, whichever occurred first.\n\nMajor adverse events are defined to be occurrence of infection, bleeding, device malfunction, CT confirmed stroke, or death. Infection, bleeding, device malfunction and CT confirmed stroke were categorized via Intermacs Version 5.0.\n\nEvents occurring during the implant procedure were excluded.", "timeFrame": "Implant to 12 months"}]}, "eligibilityModule": {"eligibilityCriteria": "Inclusion Criteria:\n\n* Subjects consented to participate in DT PAS are eligible for participation in Apogee.\n\nExclusion Criteria:\n\n* There are no exclusion criteria unique to Apogee.", "healthyVolunteers": false, "sex": "ALL", "minimumAge": "18 Years", "stdAges": ["ADULT", "OLDER_ADULT"], "studyPopulation": "Patients enrolled in DT PAS (NCT03681210) are eligible for enrollment into Apogee and must be consented on the separate Apogee consent. It is expected that the Apogee cohort will be comprised of approximately 100 patients.", "samplingMethod": "NON_PROBABILITY_SAMPLE"}, "contactsLocationsModule": {"locations": [{"facility": "Saint Vincent Heart Clinic Arkansas", "city": "Little Rock", "state": "Arkansas", "zip": "72205", "country": "United States", "geoPoint": {"lat": 34.74648, "lon": -92.28959}}, {"facility": "University of California San Diego", "city": "San Diego", "state": "California", "zip": "92103", "country": "United States", "geoPoint": {"lat": 32.71533, "lon": -117.15726}}, {"facility": "University of California San Francisco Medical Center", "city": "San Francisco", "state": "California", "zip": "94143", "country": "United States", "geoPoint": {"lat": 37.77493, "lon": -122.41942}}, {"facility": "Stanford University Hospital", "city": "Stanford", "state": "California", "zip": "94305-5330", "country": "United States", "geoPoint": {"lat": 37.42411, "lon": -122.16608}}, {"facility": "University of Colorado", "city": "Aurora", "state": "Colorado", "zip": "80045", "country": "United States", "geoPoint": {"lat": 39.72943, "lon": -104.83192}}, {"facility": "AdventHealth", "city": "Orlando", "state": "Florida", "zip": "32804", "country": "United States", "geoPoint": {"lat": 28.53834, "lon": -81.37924}}, {"facility": "Northwestern University", "city": "Chicago", "state": "Illinois", "zip": "60611", "country": "United States", "geoPoint": {"lat": 41.85003, "lon": -87.65005}}, {"facility": "Cardiac Surgery Clinical Research Center", "city": "Oak Lawn", "state": "Illinois", "zip": "60453", "country": "United States", "geoPoint": {"lat": 41.71087, "lon": -87.75811}}, {"facility": "The University of Kansas Medical Center", "city": "Kansas City", "state": "Kansas", "zip": "66160", "country": "United States", "geoPoint": {"lat": 39.11417, "lon": -94.62746}}, {"facility": "University of Louisville", "city": "Louisville", "state": "Kentucky", "zip": "40202", "country": "United States", "geoPoint": {"lat": 38.25424, "lon": -85.75941}}, {"facility": "University of Maryland Medical Center", "city": "Baltimore", "state": "Maryland", "zip": "21201", "country": "United States", "geoPoint": {"lat": 39.29038, "lon": -76.61219}}, {"facility": "The Johns Hopkins Hospital", "city": "Baltimore", "state": "Maryland", "zip": "21287", "country": "United States", "geoPoint": {"lat": 39.29038, "lon": -76.61219}}, {"facility": "Tufts Medical Center", "city": "Boston", "state": "Massachusetts", "zip": "02111", "country": "United States", "geoPoint": {"lat": 42.35843, "lon": -71.05977}}, {"facility": "Massachusetts General Hospital", "city": "Boston", "state": "Massachusetts", "zip": "02114", "country": "United States", "geoPoint": {"lat": 42.35843, "lon": -71.05977}}, {"facility": "Henry Ford Health System", "city": "Detroit", "state": "Michigan", "zip": "48202", "country": "United States", "geoPoint": {"lat": 42.33143, "lon": -83.04575}}, {"facility": "Mayo Clinic Rochester", "city": "Rochester", "state": "Minnesota", "zip": "55905", "country": "United States", "geoPoint": {"lat": 44.02163, "lon": -92.4699}}, {"facility": "Washington University School of Medicine", "city": "Saint Louis", "state": "Missouri", "zip": "63110", "country": "United States", "geoPoint": {"lat": 38.62727, "lon": -90.19789}}, {"facility": "NYU Langone Medical Center", "city": "New York", "state": "New York", "zip": "10016", "country": "United States", "geoPoint": {"lat": 40.71427, "lon": -74.00597}}, {"facility": "Columbia University", "city": "New York", "state": "New York", "zip": "10032", "country": "United States", "geoPoint": {"lat": 40.71427, "lon": -74.00597}}, {"facility": "The Lindner Christ Hospital", "city": "Cincinnati", "state": "Ohio", "zip": "45219", "country": "United States", "geoPoint": {"lat": 39.12713, "lon": -84.51435}}, {"facility": "The Ohio State University Wexner Medical Center", "city": "Columbus", "state": "Ohio", "zip": "43210-1240", "country": "United States", "geoPoint": {"lat": 39.96118, "lon": -82.99879}}, {"facility": "Oklahoma Heart Institute", "city": "Tulsa", "state": "Oklahoma", "zip": "74104", "country": "United States", "geoPoint": {"lat": 36.15398, "lon": -95.99277}}, {"facility": "Providence St. Vincent Medical Center", "city": "Portland", "state": "Oregon", "zip": "97225", "country": "United States", "geoPoint": {"lat": 45.52345, "lon": -122.67621}}, {"facility": "University of Pittsburgh Medical Center UPMC Presbyterian", "city": "Pittsburgh", "state": "Pennsylvania", "zip": "15213", "country": "United States", "geoPoint": {"lat": 40.44062, "lon": -79.99589}}, {"facility": "Vanderbilt University Medical Center", "city": "Nashville", "state": "Tennessee", "zip": "37232", "country": "United States", "geoPoint": {"lat": 36.16589, "lon": -86.78444}}, {"facility": "University of Texas Southwestern Medical Center", "city": "Dallas", "state": "Texas", "zip": "75390", "country": "United States", "geoPoint": {"lat": 32.78306, "lon": -96.80667}}, {"facility": "Baylor College of Medicine", "city": "Houston", "state": "Texas", "zip": "77030", "country": "United States", "geoPoint": {"lat": 29.76328, "lon": -95.36327}}, {"facility": "Houston Methodist Hospital", "city": "Houston", "state": "Texas", "zip": "77030", "country": "United States", "geoPoint": {"lat": 29.76328, "lon": -95.36327}}, {"facility": "University of Texas Health Sciences Center", "city": "Houston", "state": "Texas", "zip": "77030", "country": "United States", "geoPoint": {"lat": 29.76328, "lon": -95.36327}}, {"facility": "University of Utah", "city": "Salt Lake City", "state": "Utah", "zip": "84132", "country": "United States", "geoPoint": {"lat": 40.76078, "lon": -111.89105}}, {"facility": "Sentara Norfolk General Hospital", "city": "Norfolk", "state": "Virginia", "zip": "23507", "country": "United States", "geoPoint": {"lat": 36.84681, "lon": -76.28522}}, {"facility": "Virginia Commonwalth University Health System", "city": "Richmond", "state": "Virginia", "zip": "23298", "country": "United States", "geoPoint": {"lat": 37.55376, "lon": -77.46026}}, {"facility": "University of Washington Medical Center", "city": "Seattle", "state": "Washington", "zip": "98195", "country": "United States", "geoPoint": {"lat": 47.60621, "lon": -122.33207}}]}, "ipdSharingStatementModule": {"ipdSharing": "NO"}}, "resultsSection": {"participantFlowModule": {"preAssignmentDetails": "Participants were considered enrolled upon signing informed consent. 12 enrolled participants weren't implanted due to death or screen failure prior to implant.", "groups": [{"id": "FG000", "title": "HVAD", "description": "HeartWare Ventricular Assist Device: The HVAD is an implantable centrifugal rotary blood pump that is implanted in the pericardial space and is designed to provide up to 10 L/min of blood flow from the left ventricular to the aorta. The HVAD System is comprised of three major components: the HVAD (pump) with inflow and outflow conduits, a Controller (microprocessor unit that controls the operation of the HVAD), and power sources (AC and DC power adapters that provide power to the Controller and implanted HVAD)."}], "periods": [{"title": "Overall Study", "milestones": [{"type": "STARTED", "achievements": [{"groupId": "FG000", "numSubjects": "124"}]}, {"type": "COMPLETED", "achievements": [{"groupId": "FG000", "numSubjects": "119"}]}, {"type": "NOT COMPLETED", "achievements": [{"groupId": "FG000", "numSubjects": "5"}]}]}]}, "baselineCharacteristicsModule": {"populationDescription": "All implanted participants are included", "groups": [{"id": "BG000", "title": "HVAD", "description": "HeartWare Ventricular Assist Device: The HVAD is an implantable centrifugal rotary blood pump that is implanted in the pericardial space and is designed to provide up to 10 L/min of blood flow from the left ventricular to the aorta. The HVAD System is comprised of three major components: the HVAD (pump) with inflow and outflow conduits, a Controller (microprocessor unit that controls the operation of the HVAD), and power sources (AC and DC power adapters that provide power to the Controller and implanted HVAD)."}], "denoms": [{"units": "Participants", "counts": [{"groupId": "BG000", "value": "124"}]}], "measures": [{"title": "Age, Continuous", "paramType": "MEAN", "dispersionType": "STANDARD_DEVIATION", "unitOfMeasure": "years", "classes": [{"categories": [{"measurements": [{"groupId": "BG000", "value": "57.7", "spread": "12.3"}]}]}]}, {"title": "Sex: Female, Male", "paramType": "COUNT_OF_PARTICIPANTS", "unitOfMeasure": "Participants", "classes": [{"categories": [{"title": "Female", "measurements": [{"groupId": "BG000", "value": "27"}]}, {"title": "Male", "measurements": [{"groupId": "BG000", "value": "97"}]}]}]}, {"title": "Ethnicity (NIH/OMB)", "paramType": "COUNT_OF_PARTICIPANTS", "unitOfMeasure": "Participants", "classes": [{"categories": [{"title": "Hispanic or Latino", "measurements": [{"groupId": "BG000", "value": "14"}]}, {"title": "Not Hispanic or Latino", "measurements": [{"groupId": "BG000", "value": "103"}]}, {"title": "Unknown or Not Reported", "measurements": [{"groupId": "BG000", "value": "7"}]}]}]}, {"title": "Race/Ethnicity, Customized", "paramType": "COUNT_OF_PARTICIPANTS", "unitOfMeasure": "Participants", "classes": [{"title": "Race", "categories": [{"title": "American Indian or Alaska Native", "measurements": [{"groupId": "BG000", "value": "1"}]}, {"title": "Asian", "measurements": [{"groupId": "BG000", "value": "3"}]}, {"title": "Black or African American", "measurements": [{"groupId": "BG000", "value": "36"}]}, {"title": "Native Hawaiian or Other Pacific Islander", "measurements": [{"groupId": "BG000", "value": "2"}]}, {"title": "White", "measurements": [{"groupId": "BG000", "value": "73"}]}, {"title": "Other", "measurements": [{"groupId": "BG000", "value": "9"}]}]}]}, {"title": "Region of Enrollment", "paramType": "NUMBER", "unitOfMeasure": "participants", "classes": [{"title": "United States", "categories": [{"measurements": [{"groupId": "BG000", "value": "124"}]}]}]}, {"title": "Device Strategy at Time of Implant", "paramType": "COUNT_OF_PARTICIPANTS", "unitOfMeasure": "Participants", "classes": [{"categories": [{"title": "Bridge to Transplant", "measurements": [{"groupId": "BG000", "value": "0"}]}, {"title": "Destination Therapy", "measurements": [{"groupId": "BG000", "value": "124"}]}]}]}]}, "outcomeMeasuresModule": {"outcomeMeasures": [{"type": "PRIMARY", "title": "Rate of Major Adverse Events", "description": "Freedom from event is the probability (expressed as a percent of 100) the participant did not have a major adverse event during 12 months post implant via the Kaplan-Meier method. Participants that did not have a major adverse event were censored at the time of last follow-up in Apogee or their end of study at 12 months post implant, whichever occurred first.\n\nMajor adverse events are defined to be occurrence of infection, bleeding, device malfunction, CT confirmed stroke, or death. Infection, bleeding, device malfunction and CT confirmed stroke were categorized via Intermacs Version 5.0.\n\nEvents occurring during the implant procedure were excluded.", "populationDescription": "All implanted participants are included.", "reportingStatus": "POSTED", "paramType": "NUMBER", "dispersionType": "95% Confidence Interval", "unitOfMeasure": "% probability of freedom from major AE", "timeFrame": "Implant to 12 months", "groups": [{"id": "OG000", "title": "HVAD", "description": "HeartWare Ventricular Assist Device: The HVAD is an implantable centrifugal rotary blood pump that is implanted in the pericardial space and is designed to provide up to 10 L/min of blood flow from the left ventricular to the aorta. The HVAD System is comprised of three major components: the HVAD (pump) with inflow and outflow conduits, a Controller (microprocessor unit that controls the operation of the HVAD), and power sources (AC and DC power adapters that provide power to the Controller and implanted HVAD)."}], "denoms": [{"units": "Participants", "counts": [{"groupId": "OG000", "value": "124"}]}], "classes": [{"categories": [{"measurements": [{"groupId": "OG000", "value": "18.2", "lowerLimit": "11.8", "upperLimit": "25.8"}]}]}]}]}, "adverseEventsModule": {"frequencyThreshold": "5", "timeFrame": "The adverse events are summarized from the date of implant through 12 months while on the HVAD device. Only participants who are implanted with the device are included. All-cause mortality includes all participants who signed consent, regardless if they were implanted.", "description": "The Intermacs adverse event definitions are geared towards participants who have a mechanical circulatory support device.", "eventGroups": [{"id": "EG000", "title": "HVAD", "description": "HeartWare Ventricular Assist Device: The HVAD is an implantable centrifugal rotary blood pump that is implanted in the pericardial space and is designed to provide up to 10 L/min of blood flow from the left ventricular to the aorta. The HVAD System is comprised of three major components: the HVAD (pump) with inflow and outflow conduits, a Controller (microprocessor unit that controls the operation of the HVAD), and power sources (AC and DC power adapters that provide power to the Controller and implanted HVAD).", "deathsNumAffected": 27, "deathsNumAtRisk": 136, "seriousNumAffected": 109, "seriousNumAtRisk": 124, "otherNumAffected": 24, "otherNumAtRisk": 124}], "seriousEvents": [{"term": "Major Bleeding", "organSystem": "Blood and lymphatic system disorders", "sourceVocabulary": "Intermacs Ver. 5.0", "assessmentType": "SYSTEMATIC_ASSESSMENT", "stats": [{"groupId": "EG000", "numEvents": 96, "numAffected": 54, "numAtRisk": 124}]}, {"term": "Cardiac Arrhythmia", "organSystem": "Cardiac disorders", "sourceVocabulary": "Intermacs Ver. 5.0", "assessmentType": "SYSTEMATIC_ASSESSMENT", "stats": [{"groupId": "EG000", "numEvents": 53, "numAffected": 40, "numAtRisk": 124}]}, {"term": "Device Malfunction/Failure", "organSystem": "Product Issues", "sourceVocabulary": "Intermacs Ver. 5.0", "assessmentType": "SYSTEMATIC_ASSESSMENT", "stats": [{"groupId": "EG000", "numEvents": 13, "numAffected": 12, "numAtRisk": 124}]}, {"term": "Hemolysis", "organSystem": "Blood and lymphatic system disorders", "sourceVocabulary": "Intermacs Ver. 5.0", "assessmentType": "SYSTEMATIC_ASSESSMENT", "stats": [{"groupId": "EG000", "numEvents": 1, "numAffected": 1, "numAtRisk": 124}]}, {"term": "Hepatic Dysfunction", "organSystem": "Hepatobiliary disorders", "sourceVocabulary": "Intermacs Ver. 5.0", "assessmentType": "SYSTEMATIC_ASSESSMENT", "stats": [{"groupId": "EG000", "numEvents": 6, "numAffected": 6, "numAtRisk": 124}]}, {"term": "Hypertension", "organSystem": "Cardiac disorders", "sourceVocabulary": "Intermacs Ver. 5.0", "assessmentType": "SYSTEMATIC_ASSESSMENT", "stats": [{"groupId": "EG000", "numEvents": 4, "numAffected": 3, "numAtRisk": 124}]}, {"term": "Infection", "organSystem": "Infections and infestations", "sourceVocabulary": "Intermacs Ver. 5.0", "assessmentType": "SYSTEMATIC_ASSESSMENT", "stats": [{"groupId": "EG000", "numEvents": 95, "numAffected": 59, "numAtRisk": 124}]}, {"term": "Myocardial Infarction", "organSystem": "Cardiac disorders", "sourceVocabulary": "Intermacs Ver. 5.0", "assessmentType": "SYSTEMATIC_ASSESSMENT", "stats": [{"groupId": "EG000", "numEvents": 0, "numAffected": 0, "numAtRisk": 124}]}, {"term": "Neurological Dysfunction", "organSystem": "Nervous system disorders", "sourceVocabulary": "Intermacs Ver. 5.0", "assessmentType": "SYSTEMATIC_ASSESSMENT", "stats": [{"groupId": "EG000", "numEvents": 40, "numAffected": 30, "numAtRisk": 124}]}, {"term": "Pericardial Fluid Collection", "organSystem": "Cardiac disorders", "sourceVocabulary": "Intermacs Ver. 5.0", "assessmentType": "SYSTEMATIC_ASSESSMENT", "stats": [{"groupId": "EG000", "numEvents": 3, "numAffected": 3, "numAtRisk": 124}]}, {"term": "Psychiatric Episode", "organSystem": "Psychiatric disorders", "sourceVocabulary": "Intermacs Ver. 5.0", "assessmentType": "SYSTEMATIC_ASSESSMENT", "stats": [{"groupId": "EG000", "numEvents": 14, "numAffected": 11, "numAtRisk": 124}]}, {"term": "Renal Dysfunction", "organSystem": "Renal and urinary disorders", "sourceVocabulary": "Intermacs Ver. 5.0", "assessmentType": "SYSTEMATIC_ASSESSMENT", "stats": [{"groupId": "EG000", "numEvents": 28, "numAffected": 25, "numAtRisk": 124}]}, {"term": "Respiratory Failure", "organSystem": "Respiratory, thoracic and mediastinal disorders", "sourceVocabulary": "Intermacs Ver. 5.0", "assessmentType": "SYSTEMATIC_ASSESSMENT", "stats": [{"groupId": "EG000", "numEvents": 29, "numAffected": 20, "numAtRisk": 124}]}, {"term": "Right Heart Failure", "organSystem": "Cardiac disorders", "sourceVocabulary": "Intermacs Ver. 5.0", "assessmentType": "SYSTEMATIC_ASSESSMENT", "stats": [{"groupId": "EG000", "numEvents": 35, "numAffected": 33, "numAtRisk": 124}]}, {"term": "Arterial Non-CNS Thromboembolism", "organSystem": "Vascular disorders", "sourceVocabulary": "Intermacs Ver. 5.0", "assessmentType": "SYSTEMATIC_ASSESSMENT", "stats": [{"groupId": "EG000", "numEvents": 2, "numAffected": 2, "numAtRisk": 124}]}, {"term": "Venous Thromboembolism", "organSystem": "Vascular disorders", "sourceVocabulary": "Intermacs Ver. 5.0", "assessmentType": "SYSTEMATIC_ASSESSMENT", "stats": [{"groupId": "EG000", "numEvents": 7, "numAffected": 7, "numAtRisk": 124}]}, {"term": "Wound Dehiscence", "organSystem": "Skin and subcutaneous tissue disorders", "sourceVocabulary": "Intermacs Ver. 5.0", "assessmentType": "SYSTEMATIC_ASSESSMENT", "stats": [{"groupId": "EG000", "numEvents": 0, "numAffected": 0, "numAtRisk": 124}]}, {"term": "Other Intermacs", "organSystem": "General disorders", "sourceVocabulary": "Intermacs Ver. 5.0", "assessmentType": "SYSTEMATIC_ASSESSMENT", "stats": [{"groupId": "EG000", "numEvents": 155, "numAffected": 62, "numAtRisk": 124}]}], "otherEvents": [{"term": "Infection", "organSystem": "Infections and infestations", "sourceVocabulary": "Intermacs Ver. 5.0", "assessmentType": "SYSTEMATIC_ASSESSMENT", "stats": [{"groupId": "EG000", "numEvents": 13, "numAffected": 12, "numAtRisk": 124}]}, {"term": "Other Intermacs", "organSystem": "General disorders", "sourceVocabulary": "Intermacs Ver. 5.0", "assessmentType": "SYSTEMATIC_ASSESSMENT", "stats": [{"groupId": "EG000", "numEvents": 22, "numAffected": 16, "numAtRisk": 124}]}]}, "moreInfoModule": {"certainAgreement": {"piSponsorEmployee": false, "restrictiveAgreement": false}, "pointOfContact": {"title": "CRM/MCS Clinical Team", "organization": "Medtronic Cardiac Rhythm and Heart Failure", "email": "MedtronicCRMtrials@medtronic.com", "phone": "800-328-2518"}}}, "documentSection": {"largeDocumentModule": {"largeDocs": [{"typeAbbrev": "Prot", "hasProtocol": true, "hasSap": false, "hasIcf": false, "label": "Study Protocol", "date": "2020-12-01", "uploadDate": "2023-01-31T13:29", "filename": "Prot_000.pdf", "size": 835628}, {"typeAbbrev": "SAP", "hasProtocol": false, "hasSap": true, "hasIcf": false, "label": "Statistical Analysis Plan", "date": "2022-04-28", "uploadDate": "2023-01-31T13:34", "filename": "SAP_001.pdf", "size": 681440}]}}, "derivedSection": {"miscInfoModule": {"versionHolder": "2024-06-24"}, "conditionBrowseModule": {"meshes": [{"id": "D000006333", "term": "Heart Failure"}], "ancestors": [{"id": "D000006331", "term": "Heart Diseases"}, {"id": "D000002318", "term": "Cardiovascular Diseases"}], "browseLeaves": [{"id": "M9421", "name": "Heart Failure", "asFound": "Heart Failure", "relevance": "HIGH"}, {"id": "M9419", "name": "Heart Diseases", "relevance": "LOW"}, {"id": "T1303", "name": "Chronic Graft Versus Host Disease", "relevance": "LOW"}], "browseBranches": [{"abbrev": "BC14", "name": "Heart and Blood Diseases"}, {"abbrev": "All", "name": "All Conditions"}, {"abbrev": "Rare", "name": "Rare Diseases"}]}}, "hasResults": true}