{"protocolSection": {"identificationModule": {"nctId": "NCT03547583", "orgStudyIdInfo": {"id": "19334"}, "secondaryIdInfos": [{"id": "2018-000298-65", "type": "EUDRACT_NUMBER"}], "organization": {"fullName": "Bayer", "class": "INDUSTRY"}, "briefTitle": "Patient-reported Outcomes in Vericiguat-treated Patients With HFpEF", "officialTitle": "A Randomized Parallel-group, Placebo-controlled, Double-blind, Multi-center Trial to Evaluate the Efficacy and Safety of the Oral sGC stImulator Vericiguat to Improve Physical Functioning in Activities of Daily Living in Patients With Heart Failure and Preserved Ejection Fraction (VITALITY-HFpEF)", "acronym": "VITALITY-HFpEF"}, "statusModule": {"statusVerifiedDate": "2020-11", "overallStatus": "COMPLETED", "expandedAccessInfo": {"hasExpandedAccess": false}, "startDateStruct": {"date": "2018-06-15", "type": "ACTUAL"}, "primaryCompletionDateStruct": {"date": "2019-10-15", "type": "ACTUAL"}, "completionDateStruct": {"date": "2019-11-04", "type": "ACTUAL"}, "studyFirstSubmitDate": "2018-05-24", "studyFirstSubmitQcDate": "2018-05-24", "studyFirstPostDateStruct": {"date": "2018-06-06", "type": "ACTUAL"}, "resultsFirstSubmitDate": "2020-09-29", "resultsFirstSubmitQcDate": "2020-11-11", "resultsFirstPostDateStruct": {"date": "2020-12-03", "type": "ACTUAL"}, "lastUpdateSubmitDate": "2020-12-15", "lastUpdatePostDateStruct": {"date": "2021-01-06", "type": "ACTUAL"}}, "sponsorCollaboratorsModule": {"responsibleParty": {"type": "SPONSOR"}, "leadSponsor": {"name": "Bayer", "class": "INDUSTRY"}, "collaborators": [{"name": "Merck Sharp & Dohme LLC", "class": "INDUSTRY"}, {"name": "Canadian VIGOUR Centre", "class": "OTHER"}, {"name": "Duke Clinical Research Institute", "class": "OTHER"}]}, "oversightModule": {"oversightHasDmc": true, "isFdaRegulatedDrug": true, "isFdaRegulatedDevice": false}, "descriptionModule": {"briefSummary": "The primary hypothesis in this trial is that the treatment with vericiguat 10 mg or 15 mg in patients with HFpEF improves the KCCQ PLS (Kansas City Cardiomyopathy Questionnaire Physical limitation score) compared to placebo after 24 weeks of treatment."}, "conditionsModule": {"conditions": ["Chronic Heart Failure With Preserved Ejection Fraction"]}, "designModule": {"studyType": "INTERVENTIONAL", "phases": ["PHASE2"], "designInfo": {"allocation": "RANDOMIZED", "interventionModel": "PARALLEL", "primaryPurpose": "TREATMENT", "maskingInfo": {"masking": "QUADRUPLE", "whoMasked": ["PARTICIPANT", "CARE_PROVIDER", "INVESTIGATOR", "OUTCOMES_ASSESSOR"]}}, "enrollmentInfo": {"count": 789, "type": "ACTUAL"}}, "armsInterventionsModule": {"armGroups": [{"label": "Vericiguat up to 10 mg", "type": "EXPERIMENTAL", "description": "Subjects will receive vericiguat (BAY1021189) for 24 weeks, starting at 2.5 mg once daily at randomization and up-titrated to 5 mg at week 2, to 10 mg at week 4, with sham titration at week 6.", "interventionNames": ["Drug: Vericiguat (BAY1021189) 2.5 mg, 5 mg or 10 mg IR tablets"]}, {"label": "Vericiguat up to 15 mg", "type": "EXPERIMENTAL", "description": "Subjects will receive vericiguat (BAY1021189) for 24 weeks, starting at 2.5 mg once daily at randomization and up-titrated to 5 mg at week 2, to 10 mg at week 4, and to 15 mg at week 6.", "interventionNames": ["Drug: Vericiguat (BAY1021189) 2.5 mg, 5 mg or 10 mg IR tablets"]}, {"label": "Placebo", "type": "PLACEBO_COMPARATOR", "description": "Subject will receive placebo for 24 weeks, once daily, starting sham up-titration at weeks 2, 4, and 6.", "interventionNames": ["Drug: Placebo"]}], "interventions": [{"type": "DRUG", "name": "Vericiguat (BAY1021189) 2.5 mg, 5 mg or 10 mg IR tablets", "description": "Oral use. Vericiguat, which will be started at 2.5 mg at randomization and up-titrated to 5 mg at week 2, and to 10 mg at week 4, with sham titration or up-titration to 15 mg at week 6.", "armGroupLabels": ["Vericiguat up to 10 mg", "Vericiguat up to 15 mg"]}, {"type": "DRUG", "name": "Placebo", "description": "Placebo and sham up-titration at weeks 2, 4, and 6", "armGroupLabels": ["Placebo"]}]}, "outcomesModule": {"primaryOutcomes": [{"measure": "Change in KCCQ Physical Limitation Score From Baseline to Week 24", "description": "The City Cardiomyopathy Questionnaire (KCCQ) measures the impact of patients' heart failure, or its treatment, on 6 domains; Physical Limitation, Symptom (with subscores for frequency and burden), Quality of Life, Social Limitations, Symptom Stability and Self-Efficacy. Scores are calculated by summing domain responses and then transforming scores to a 0-100 unit scale with higher scores indicating better health status.", "timeFrame": "From baseline to Week 24"}], "secondaryOutcomes": [{"measure": "Change in the Six-minute Walk Test (6MWT) From Baseline to Week 24", "description": "6MWT was conducted to test the physical limitations of the patient by assessing the patient's exercise capacity. The distance walked by the patient in 6 minutes was measured.", "timeFrame": "From baseline to Week 24"}], "otherOutcomes": [{"measure": "Number of Participants With Treatment Emergent Adverse Events", "description": "An AE is any untoward medical occurrence (i.e. any unfavorable and unintended sign \\[including abnormal laboratory findings\\], symptom or disease) in a patient or clinical investigation patient after providing written informed consent for participation in the study. Adverse events are considered to be treatment-emergent if they have started or worsened after first application of study medication up to 5 calendar days after end of treatment with study medication.", "timeFrame": "From first application of study drug up to 5 calendar days after end of treatment with study drug"}]}, "eligibilityModule": {"eligibilityCriteria": "Inclusion Criteria:\n\n* Previous diagnosis of chronic heart failure (HF)\n* HF decompensation within 6 months prior to randomization, defined as hospitalization for HF or intravenous (IV) diuretic treatment for HF without hospitalization.\n* N-terminal pro brain natriuretic peptide (NT-proBNP) \u2265300 or brain natriuretic peptide (BNP) \u2265100 pg/mL in sinus rhythm, or NT-proBNP\n\n  \u2265600 or BNP \u2265200 pg/mL in atrial fibrillation within 30 days prior to randomization\n* Diagnostic criteria of HFpEF by echocardiography assessed within 12 months prior to randomization (most recent measurement must be used to determine eligibility with no interim event signaling potential deterioration in ejection fraction)\n\n  * Left ventricular ejection fraction (LVEF) \u226545% and\n  * Structural changes indicated by at least one of the following parameters:\n\n    * Left ventricle (LV) hypertrophy (any of the following: intraventricular septal or posterior wall thickness \u22651.1 cm, and/or LV mass index \u2265115 g/m\\*2 in male and \u226595 g/m\\*2 in female), or\n    * Left atrium (LA) enlargement (any of the following: left atrial volume (LAV) index \u226529 ml/m\\*2, or LAV \\>58 mL in male and \\>52 mL in female patients, or LA area \\>20 cm\\*2, or LA diameter \\>40 mm in male and \\>38 mm in female patients)\n* NYHA class II or III at randomization\n\nExclusion Criteria:\n\n* Clinical instability at randomization, defined by\n\n  * Any IV treatment within 24h prior to randomization, and/or\n  * SBP \u2265160 mmHg\n  * SBP \\<110 mmHg and/or DBP \\<40 mmHg and/or symptomatic hypotension\n  * Resting heart rate (HR) \\<50 or \u2265100 beats per minute (bpm)\n* Use of IV inotropes at any time between qualifying HF event and randomization\n* Previous diagnosis of reduced ejection fraction (EF) (EF \\<40%)\n* Hypertrophic obstructive cardiomyopathy, acute myocarditis, amyloidosis, sarcoidosis, or pericardial disease\n* Primary valvular heart disease requiring surgery or intervention, or within 3 months after valvular surgery or intervention, or active endocarditis\n* Acute coronary syndrome, including unstable angina, Non ST-elevation myocardial infarction or ST-elevation myocardial infarction, or Coronary artery bypass grafting (CABG) within 60 days prior to randomization, or indication for Percutaneous coronary intervention or CABG at the time of randomization\n* Symptomatic carotid stenosis, or transient ischemic attack or stroke within 60 days prior to randomization\n* Complex congenital heart disease\n* Non-cardiac comorbidity (any of the following)\n\n  * Estimated glomerular filtration rate (eGFR) \\<30 ml/min/1.73 m\\*2 calculated by Modification of Diet in Renal Disease formula\n  * Hepatic insufficiency classified as Child-Pugh B or C\n  * Morbid obesity with a body mass index \\>45 kg/m\\*2\n  * Malignancy or other non-cardiac condition limiting life expectancy to \\<1 year, per physician judgment\n  * Requires continuous home oxygen for severe pulmonary disease or has interstitial lung disease\n  * Patients with allergies, intolerance or hypersensitivity to investigational drug or any of the excipients\n* Concurrent or anticipated use of nitrates or NO donors, phosphodiesterase type V (PDE5) inhibitors, or a Soluble guanylate cyclase (sGC) stimulator", "healthyVolunteers": false, "sex": "ALL", "minimumAge": "45 Years", "stdAges": ["ADULT", "OLDER_ADULT"]}, "contactsLocationsModule": {"locations": [{"facility": "WestSide Medical", "city": "Beverly Hills", "state": "California", "zip": "90211", "country": "United States", "geoPoint": {"lat": 34.07362, "lon": -118.40036}}, {"facility": "Capitol Interventional Cardiology", "city": "Carmichael", "state": "California", "zip": "95608", "country": "United States", "geoPoint": {"lat": 38.61713, "lon": -121.32828}}, {"facility": "Interventional Cardiology Medical Group", "city": "West Hills", "state": "California", "zip": "91307", "country": "United States", "geoPoint": {"lat": 34.19731, "lon": -118.64398}}, {"facility": "Penrose-St. Francis Health Services", "city": "Colorado Springs", "state": "Colorado", "zip": "80923", "country": "United States", "geoPoint": {"lat": 38.83388, "lon": -104.82136}}, {"facility": "Cardiology Associates of Fairfield County, PC", "city": "Trumbull", "state": "Connecticut", "zip": "06611", "country": "United States", "geoPoint": {"lat": 41.24287, "lon": -73.20067}}, {"facility": "Cardiology Associates Of South Florida PA", "city": "Boynton Beach", "state": "Florida", "zip": "33472", "country": "United States", "geoPoint": {"lat": 26.52535, "lon": -80.06643}}, {"facility": "Cardiovascular and Vein Center of Florida", "city": "Bradenton", "state": "Florida", "zip": "34209", "country": "United States", "geoPoint": {"lat": 27.49893, "lon": -82.57482}}, {"facility": "Cardiology Associates Research Company", "city": "Daytona Beach", "state": "Florida", "zip": "32117", "country": "United States", "geoPoint": {"lat": 29.21081, "lon": -81.02283}}, {"facility": "LifeSpring Research Foundation, LLC", "city": "Miami", "state": "Florida", "zip": "33130", "country": "United States", "geoPoint": {"lat": 25.77427, "lon": -80.19366}}, {"facility": "Southwest Florida Research", "city": "Naples", "state": "Florida", "zip": "34102", "country": "United States", "geoPoint": {"lat": 26.14234, "lon": -81.79596}}, {"facility": "East Coast Institute for Research, LLC", "city": "Saint Augustine", "state": "Florida", "zip": "32086", "country": "United States", "geoPoint": {"lat": 29.89469, "lon": -81.31452}}, {"facility": "Cardiology Partners", "city": "Wellington", "state": "Florida", "zip": "33449", "country": "United States", "geoPoint": {"lat": 26.65868, "lon": -80.24144}}, {"facility": "Fox Valley Clinical Research Center, LLC", "city": "Aurora", "state": "Illinois", "zip": "60506", "country": "United States", "geoPoint": {"lat": 41.76058, "lon": -88.32007}}, {"facility": "Advocate Condell Medical Center", "city": "Libertyville", "state": "Illinois", "zip": "60048", "country": "United States", "geoPoint": {"lat": 42.28308, "lon": -87.95313}}, {"facility": "Reid Health", "city": "Richmond", "state": "Indiana", "zip": "47374", "country": "United States", "geoPoint": {"lat": 39.82894, "lon": -84.89024}}, {"facility": "Research Integrity, LLC", "city": "Owensboro", "state": "Kentucky", "zip": "42303", "country": "United States", "geoPoint": {"lat": 37.77422, "lon": -87.11333}}, {"facility": "Heart Clinic of Hammond", "city": "Hammond", "state": "Louisiana", "zip": "70403", "country": "United States", "geoPoint": {"lat": 30.50463, "lon": -90.46293}}, {"facility": "Anne Arundel Health System", "city": "Annapolis", "state": "Maryland", "zip": "21401", "country": "United States", "geoPoint": {"lat": 38.97845, "lon": -76.49218}}, {"facility": "Henry Ford Health System", "city": "Detroit", "state": "Michigan", "zip": "48202", "country": "United States", "geoPoint": {"lat": 42.33143, "lon": -83.04575}}, {"facility": "Riser Medical Associates", "city": "Picayune", "state": "Mississippi", "zip": "39466", "country": "United States", "geoPoint": {"lat": 30.52556, "lon": -89.67788}}, {"facility": "St. Louis Heart & Vascular, PC", "city": "Saint Louis", "state": "Missouri", "zip": "63136", "country": "United States", "geoPoint": {"lat": 38.62727, "lon": -90.19789}}, {"facility": "Glacier View Research Institute", "city": "Kalispell", "state": "Montana", "zip": "59901", "country": "United States", "geoPoint": {"lat": 48.19579, "lon": -114.31291}}, {"facility": "Bryan Heart", "city": "Lincoln", "state": "Nebraska", "zip": "68506", "country": "United States", "geoPoint": {"lat": 40.8, "lon": -96.66696}}, {"facility": "Wake Forest Baptist Health", "city": "Winston-Salem", "state": "North Carolina", "zip": "27157", "country": "United States", "geoPoint": {"lat": 36.09986, "lon": -80.24422}}, {"facility": "Capital Area Research, LLC", "city": "Camp Hill", "state": "Pennsylvania", "zip": "17011", "country": "United States", "geoPoint": {"lat": 40.23981, "lon": -76.91997}}, {"facility": "Carolina Heart Specialists", "city": "Lancaster", "state": "South Carolina", "zip": "29720", "country": "United States", "geoPoint": {"lat": 34.72043, "lon": -80.7709}}, {"facility": "Stern Cardiovascular Center", "city": "Germantown", "state": "Tennessee", "zip": "38138", "country": "United States", "geoPoint": {"lat": 35.08676, "lon": -89.81009}}, {"facility": "Clinical Advancement Center, PLLC", "city": "San Antonio", "state": "Texas", "zip": "78212-4740", "country": "United States", "geoPoint": {"lat": 29.42412, "lon": -98.49363}}, {"facility": "Corporation Lane Research Center", "city": "Virginia Beach", "state": "Virginia", "zip": "23462", "country": "United States", "geoPoint": {"lat": 36.85293, "lon": -75.97799}}, {"facility": "Cl\u00ednica DIM", "city": "Ramos Mej\u00eda", "state": "Buenos Aires", "zip": "B1740ETD", "country": "Argentina", "geoPoint": {"lat": -34.6551, "lon": -58.55318}}, {"facility": "Instituto de Investigaciones Cl\u00ednicas San Nicol\u00e1s", "city": "San Nicol\u00e1s", "state": "Buenos Aires", "zip": "B2900DMH", "country": "Argentina"}, {"facility": "Centro de Investigaciones Cl\u00ednicas", "city": "Buenos Aires", "state": "Ciudad Auton. De Buenos Aires", "zip": "C1425DES", "country": "Argentina", "geoPoint": {"lat": -34.61315, "lon": -58.37723}}, {"facility": "Centro de Medicina Integral e Investigacion Cl\u00ednica", "city": "Caba", "state": "Ciudad Auton. De Buenos Aires", "zip": "C1426EGR", "country": "Argentina", "geoPoint": {"lat": -34.61315, "lon": -58.37723}}, {"facility": "Centro de Especialidades M\u00e9dicas", "city": "Villa Luro", "state": "Ciudad Auton. De Buenos Aires", "zip": "C1440CFD", "country": "Argentina", "geoPoint": {"lat": -34.63814, "lon": -58.50273}}, {"facility": "Sanatorio Parque S.A.", "city": "Rosario", "state": "Santa Fe", "zip": "S2000DSV", "country": "Argentina", "geoPoint": {"lat": -32.94682, "lon": -60.63932}}, {"facility": "Inst. de Cardiolog\u00eda de Corrientes Juana Francisca Cabral", "city": "Corrientes", "zip": "3400", "country": "Argentina", "geoPoint": {"lat": -27.4806, "lon": -58.8341}}, {"facility": "Centro de Investigaciones Clinicas del Litoral", "city": "Santa Fe", "zip": "S3000FWO", "country": "Argentina", "geoPoint": {"lat": -31.63333, "lon": -60.7}}, {"facility": "Universit\u00e4tsklinikum St. P\u00f6lten", "city": "St. P\u00f6lten", "state": "Nieder\u00f6sterreich", "zip": "3100", "country": "Austria", "geoPoint": {"lat": 48.2, "lon": 15.63333}}, {"facility": "Krankenhaus St. Josef Braunau", "city": "Braunau", "state": "Ober\u00f6sterreich", "zip": "5280", "country": "Austria"}, {"facility": "Ordensklinikum Linz GmbH Elisabethinen", "city": "Linz", "state": "Ober\u00f6sterreich", "zip": "4020", "country": "Austria", "geoPoint": {"lat": 48.30639, "lon": 14.28611}}, {"facility": "Medizinische Universit\u00e4t Graz", "city": "Graz", "state": "Steiermark", "zip": "8036", "country": "Austria", "geoPoint": {"lat": 47.06667, "lon": 15.45}}, {"facility": "Zentrum f. klinische Studien Dr. Hanusch GmbH", "city": "Wien", "zip": "1060", "country": "Austria", "geoPoint": {"lat": 48.20849, "lon": 16.37208}}, {"facility": "Universit\u00e4tsklinikum AKH Wien", "city": "Wien", "zip": "1090", "country": "Austria", "geoPoint": {"lat": 48.20849, "lon": 16.37208}}, {"facility": "Klinik Floridsdorf - Krankenhaus Nord", "city": "Wien", "zip": "1210", "country": "Austria", "geoPoint": {"lat": 48.20849, "lon": 16.37208}}, {"facility": "Algemeen Stedelijk Ziekenhuis Campus Aalst", "city": "Aalst", "zip": "9300", "country": "Belgium", "geoPoint": {"lat": 50.93604, "lon": 4.0355}}, {"facility": "AZ St-Jan Brugge Oostende AV", "city": "Brugge", "zip": "8000", "country": "Belgium", "geoPoint": {"lat": 51.20892, "lon": 3.22424}}, {"facility": "UZ Antwerpen", "city": "Edegem", "zip": "2650", "country": "Belgium", "geoPoint": {"lat": 51.15662, "lon": 4.44504}}, {"facility": "H. Hartziekenhuis Mol", "city": "MOL", "zip": "2400", "country": "Belgium", "geoPoint": {"lat": 51.19188, "lon": 5.11662}}, {"facility": "AZ Delta", "city": "Roeselare", "zip": "8800", "country": "Belgium", "geoPoint": {"lat": 50.94653, "lon": 3.12269}}, {"facility": "Multiprofile Hospital for Active Treatment Pazardzhik", "city": "Pazardzhik", "zip": "4400", "country": "Bulgaria", "geoPoint": {"lat": 42.2, "lon": 24.33333}}, {"facility": "Spec Hosp for Active Treatm in Cardiology Sv Georgi Pernik", "city": "Pernik", "zip": "2300", "country": "Bulgaria", "geoPoint": {"lat": 42.6, "lon": 23.03333}}, {"facility": "Specialized Hospital for Actrive Treatm of Card - Pleven", "city": "Pleven", "zip": "5800", "country": "Bulgaria", "geoPoint": {"lat": 43.41667, "lon": 24.61667}}, {"facility": "Multiprofile Hospital for Active Treatment Medline Clinic", "city": "Plovdiv", "zip": "4000", "country": "Bulgaria", "geoPoint": {"lat": 42.15, "lon": 24.75}}, {"facility": "MHAT Dr. Bratan Shukerov AD", "city": "Smolyan", "zip": "4700", "country": "Bulgaria", "geoPoint": {"lat": 41.58528, "lon": 24.69194}}, {"facility": "Second Medical Center Sofia EOOD", "city": "Sofia", "zip": "1202", "country": "Bulgaria", "geoPoint": {"lat": 42.69751, "lon": 23.32415}}, {"facility": "NMTH Tzar Boris III", "city": "Sofia", "zip": "1233", "country": "Bulgaria", "geoPoint": {"lat": 42.69751, "lon": 23.32415}}, {"facility": "V MHAT", "city": "Sofia", "zip": "1233", "country": "Bulgaria", "geoPoint": {"lat": 42.69751, "lon": 23.32415}}, {"facility": "MHAT Sveta Marina EAD", "city": "Varna", "zip": "9010", "country": "Bulgaria", "geoPoint": {"lat": 43.21667, "lon": 27.91667}}, {"facility": "University of Alberta", "city": "Edmonton", "state": "Alberta", "zip": "T6G 2B7", "country": "Canada", "geoPoint": {"lat": 53.55014, "lon": -113.46871}}, {"facility": "SMH Cardiology Clinical Trials Inc", "city": "Surrey", "state": "British Columbia", "zip": "V3V 0C6", "country": "Canada", "geoPoint": {"lat": 49.10635, "lon": -122.82509}}, {"facility": "London Health Sciences Centre", "city": "London", "state": "Ontario", "zip": "N6A 5A5", "country": "Canada", "geoPoint": {"lat": 42.98339, "lon": -81.23304}}, {"facility": "PACE Cardiology Clinic", "city": "Newmarket", "state": "Ontario", "zip": "L3Y 2P6", "country": "Canada", "geoPoint": {"lat": 44.05011, "lon": -79.46631}}, {"facility": "Oakville Cardiologists, Inc.", "city": "Oakville", "state": "Ontario", "zip": "L6K 3W7", "country": "Canada", "geoPoint": {"lat": 43.45011, "lon": -79.68292}}, {"facility": "Cardiovascular CRO Ltd.", "city": "Sudbury", "state": "Ontario", "zip": "P3E 5M4", "country": "Canada", "geoPoint": {"lat": 46.49, "lon": -80.99001}}, {"facility": "St. Michael's Hospital Health Centre", "city": "Toronto", "state": "Ontario", "zip": "M5B 1W8", "country": "Canada", "geoPoint": {"lat": 43.70011, "lon": -79.4163}}, {"facility": "Clinique Sante Cardio MC", "city": "Montreal", "state": "Quebec", "zip": "H1T 3Y7", "country": "Canada", "geoPoint": {"lat": 45.50884, "lon": -73.58781}}, {"facility": "Centre De Recherche Du (CRCHUM) - Hotel-Diu", "city": "Montreal", "state": "Quebec", "zip": "H2X 3H8", "country": "Canada", "geoPoint": {"lat": 45.50884, "lon": -73.58781}}, {"facility": "CardioVasc HR, Inc.", "city": "Saint-Jean-sur-Richelieu", "state": "Quebec", "zip": "J3A 1J2", "country": "Canada", "geoPoint": {"lat": 45.30713, "lon": -73.26259}}, {"facility": "Hospital General de Medellin", "city": "Medellin", "state": "Antioquia", "country": "Colombia", "geoPoint": {"lat": 6.25184, "lon": -75.56359}}, {"facility": "IPS Centro Cientifico Asistencial S.A.S", "city": "Barranquilla", "state": "Atl\u00e1ntico", "country": "Colombia", "geoPoint": {"lat": 10.96854, "lon": -74.78132}}, {"facility": "Caja de Compensaci\u00f3n Familiar CAFAM", "city": "Bogot\u00e1", "state": "Distrito Capital De Bogot\u00e1", "zip": "0", "country": "Colombia", "geoPoint": {"lat": 4.60971, "lon": -74.08175}}, {"facility": "Mediservis del Tolima IPS S.A.S", "city": "Ibague", "state": "Tolima", "country": "Colombia", "geoPoint": {"lat": 4.43889, "lon": -75.23222}}, {"facility": "Fundaci\u00f3n Cardiovascular de Colombia", "city": "Floridablanca", "country": "Colombia", "geoPoint": {"lat": 7.06222, "lon": -73.08644}}, {"facility": "Klinikum der Universit\u00e4t W\u00fcrzburg", "city": "W\u00fcrzburg", "state": "Bayern", "zip": "97078", "country": "Germany", "geoPoint": {"lat": 49.79391, "lon": 9.95121}}, {"facility": "Zentrum f\u00fcr Klinische Studien S\u00fcdbrandenburg GmbH", "city": "Elsterwerda", "state": "Brandenburg", "zip": "04910", "country": "Germany", "geoPoint": {"lat": 51.46043, "lon": 13.52001}}, {"facility": "Herz- und Diabeteszentrum Nordrhein-Westfalen (HDZ NRW)", "city": "Bad Oeynhausen", "state": "Nordrhein-Westfalen", "zip": "32545", "country": "Germany", "geoPoint": {"lat": 52.20699, "lon": 8.80365}}, {"facility": "Kliniken Maria Hilf GmbH", "city": "M\u00f6nchengladbach", "state": "Nordrhein-Westfalen", "zip": "41063", "country": "Germany", "geoPoint": {"lat": 51.18539, "lon": 6.44172}}, {"facility": "St. Vincenz und Elisabeth Hospital, Kathol. Klinikum Mainz", "city": "Mainz", "state": "Rheinland-Pfalz", "zip": "55131", "country": "Germany", "geoPoint": {"lat": 49.98419, "lon": 8.2791}}, {"facility": "Klinische Forschung Dresden GmbH", "city": "Dresden", "state": "Sachsen", "zip": "01069", "country": "Germany", "geoPoint": {"lat": 51.05089, "lon": 13.73832}}, {"facility": "Cardiologicum Hamburg - Praxen Wandsbek", "city": "Hamburg", "zip": "22041", "country": "Germany", "geoPoint": {"lat": 53.57532, "lon": 10.01534}}, {"facility": "KAT General Hospital of Athens", "city": "Kifisia / Athens", "state": "Attica", "zip": "14561", "country": "Greece"}, {"facility": "G. GENNIMATAS General State Hospital of Athens", "city": "Athens", "zip": "11527", "country": "Greece", "geoPoint": {"lat": 37.97945, "lon": 23.71622}}, {"facility": "University General Hospital of Larissa", "city": "Larissa", "zip": "41100", "country": "Greece", "geoPoint": {"lat": 39.63689, "lon": 22.41761}}, {"facility": "Konstantopoulio General Hospital of Nea Ionia - AGIA OLGA", "city": "Nea Ionia / Athens", "zip": "142 33", "country": "Greece"}, {"facility": "\"AHEPA\" University General Hospital of Thessaloniki", "city": "Thessaloniki", "zip": "54636", "country": "Greece", "geoPoint": {"lat": 40.64361, "lon": 22.93086}}, {"facility": "Hippokration General Hospital of Thessaloniki", "city": "Thessaloniki", "zip": "54642", "country": "Greece", "geoPoint": {"lat": 40.64361, "lon": 22.93086}}, {"facility": "Budai Irgalmasrendi Korhaz", "city": "Budapest", "zip": "1027", "country": "Hungary", "geoPoint": {"lat": 47.49801, "lon": 19.03991}}, {"facility": "Magyar Honvedseg Egeszsegugyi Kozpont Honvedkorhaz", "city": "Budapest", "zip": "1134", "country": "Hungary", "geoPoint": {"lat": 47.49801, "lon": 19.03991}}, {"facility": "Magyar Honvedseg Egeszsegugyi Kozpont Honvedkorhaz", "city": "Budapest", "country": "Hungary", "geoPoint": {"lat": 47.49801, "lon": 19.03991}}, {"facility": "Pharma4Trial Kft.", "city": "Gyongyos", "zip": "3200", "country": "Hungary", "geoPoint": {"lat": 47.78257, "lon": 19.928}}, {"facility": "Kanizsai Dorottya Hospital", "city": "Nagykanizsa", "zip": "8800", "country": "Hungary", "geoPoint": {"lat": 46.45347, "lon": 16.99104}}, {"facility": "Medifarma-98 Egeszsegugyi, Kereskedelmi es Szolgaltato Kft.", "city": "Nyiregyhaza", "zip": "4400", "country": "Hungary", "geoPoint": {"lat": 47.95539, "lon": 21.71671}}, {"facility": "HaEmek Medical Center", "city": "Afula", "zip": "1834111", "country": "Israel", "geoPoint": {"lat": 32.60907, "lon": 35.2892}}, {"facility": "Hillel Yaffe Medical Center", "city": "Hadera", "zip": "3810101", "country": "Israel", "geoPoint": {"lat": 32.44192, "lon": 34.9039}}, {"facility": "Rambam Health Corporation", "city": "Haifa", "zip": "3109601", "country": "Israel", "geoPoint": {"lat": 32.81841, "lon": 34.9885}}, {"facility": "Hadassah Hebrew University Hospital Ein Kerem", "city": "Jerusalem", "zip": "9112001", "country": "Israel", "geoPoint": {"lat": 31.76904, "lon": 35.21633}}, {"facility": "Chaim Sheba Medical Center", "city": "Ramat Gan", "zip": "5262000", "country": "Israel", "geoPoint": {"lat": 32.08227, "lon": 34.81065}}, {"facility": "Kaplan Medical Center", "city": "Rehovot", "zip": "7610001", "country": "Israel", "geoPoint": {"lat": 31.89421, "lon": 34.81199}}, {"facility": "The Baruch Padeh Medical Center, Poria", "city": "Tiberias", "zip": "1528001", "country": "Israel", "geoPoint": {"lat": 32.79221, "lon": 35.53124}}, {"facility": "Health Corporation of the Ziv Medical Center (R.A.)", "city": "Zefat", "zip": "1311001", "country": "Israel", "geoPoint": {"lat": 32.96465, "lon": 35.496}}, {"facility": "Shamir Medical Center (Assaf Harofeh)", "city": "Zrifin", "zip": "7030000", "country": "Israel", "geoPoint": {"lat": 31.95857, "lon": 4.83723}}, {"facility": "A.O.U. di Bologna Policlinico S.Orsola Malpighi", "city": "Bologna", "state": "Emilia-Romagna", "zip": "40138", "country": "Italy", "geoPoint": {"lat": 44.49381, "lon": 11.33875}}, {"facility": "A.O.U. di Ferrara", "city": "Ferrara", "state": "Emilia-Romagna", "zip": "44124", "country": "Italy", "geoPoint": {"lat": 44.83804, "lon": 11.62057}}, {"facility": "Asl Roma 6", "city": "Roma", "state": "Lazio", "zip": "00040", "country": "Italy", "geoPoint": {"lat": 41.89193, "lon": 12.51133}}, {"facility": "ASST Papa Giovanni XXIII", "city": "Bergamo", "state": "Lombardia", "zip": "24127", "country": "Italy", "geoPoint": {"lat": 45.69601, "lon": 9.66721}}, {"facility": "ASST Spedali Civili di Brescia", "city": "Brescia", "state": "Lombardia", "zip": "25123", "country": "Italy", "geoPoint": {"lat": 45.53558, "lon": 10.21472}}, {"facility": "IRCCS Istituto Clinico Humanitas - Humanitas Mirasole S.p.A.", "city": "Milano", "state": "Lombardia", "zip": "20089", "country": "Italy", "geoPoint": {"lat": 45.46427, "lon": 9.18951}}, {"facility": "ASST Grande Ospedale Metropolitano Niguarda", "city": "Milano", "state": "Lombardia", "zip": "20162", "country": "Italy", "geoPoint": {"lat": 45.46427, "lon": 9.18951}}, {"facility": "IRCCS Fondazione Policlinico San Matteo", "city": "Pavia", "state": "Lombardia", "zip": "27100", "country": "Italy", "geoPoint": {"lat": 45.19205, "lon": 9.15917}}, {"facility": "A.O.U. di Sassari", "city": "Sassari", "state": "Sardegna", "zip": "07100", "country": "Italy", "geoPoint": {"lat": 40.72586, "lon": 8.55552}}, {"facility": "Seikeikai New Tokyo Heart Clinic", "city": "Matsudo", "state": "Chiba", "zip": "271-0077", "country": "Japan", "geoPoint": {"lat": 35.77995, "lon": 139.90144}}, {"facility": "Steel Memorial Yawata Hospital", "city": "Kitakyushu", "state": "Fukuoka", "zip": "805-8508", "country": "Japan", "geoPoint": {"lat": 33.85181, "lon": 130.85034}}, {"facility": "Matsuda Cardiovascular clinic", "city": "Sapporo", "state": "Hokkaido", "zip": "003-0026", "country": "Japan", "geoPoint": {"lat": 43.06667, "lon": 141.35}}, {"facility": "National Hospital Organization Kobe Medical Center", "city": "Kobe", "state": "Hyogo", "zip": "654-0155", "country": "Japan", "geoPoint": {"lat": 34.6913, "lon": 135.183}}, {"facility": "Higashi Takarazuka Satoh Hospital", "city": "Takarazuka", "state": "Hyogo", "zip": "665-0873", "country": "Japan", "geoPoint": {"lat": 34.79936, "lon": 135.35697}}, {"facility": "National Hospital Organization Kanazawa Medical Center", "city": "Kanazawa", "state": "Ishikawa", "zip": "920-8650", "country": "Japan", "geoPoint": {"lat": 36.6, "lon": 136.61667}}, {"facility": "Iwate Prefectural Central Hospital", "city": "Morioka", "state": "Iwate", "zip": "020-0066", "country": "Japan", "geoPoint": {"lat": 39.7, "lon": 141.15}}, {"facility": "Uji-Tokushukai Medical Center", "city": "Uji", "state": "Kyoto", "zip": "611-0041", "country": "Japan", "geoPoint": {"lat": 34.89044, "lon": 135.80325}}, {"facility": "Hirakata kohsai Hospital", "city": "Hirakata", "state": "Osaka", "zip": "573-0153", "country": "Japan", "geoPoint": {"lat": 34.81352, "lon": 135.64914}}, {"facility": "Kishiwada Tokushukai Hospital", "city": "Kishiwada", "state": "Osaka", "zip": "596-0042", "country": "Japan", "geoPoint": {"lat": 34.46667, "lon": 135.36667}}, {"facility": "Takatsuki Red Cross Hospital", "city": "Takatsuki", "state": "Osaka", "zip": "569-1096", "country": "Japan", "geoPoint": {"lat": 34.84833, "lon": 135.61678}}, {"facility": "Osaka Medical College Hospital", "city": "Takatsuki", "state": "Osaka", "zip": "569-8686", "country": "Japan", "geoPoint": {"lat": 34.84833, "lon": 135.61678}}, {"facility": "National Hospital Organization Hamada Medical Center", "city": "Hamada", "state": "Shimane", "zip": "697-8511", "country": "Japan", "geoPoint": {"lat": 34.88333, "lon": 132.08333}}, {"facility": "Minamino Cardiovascular Hospital", "city": "Hachioji", "state": "Tokyo", "zip": "192-0918", "country": "Japan", "geoPoint": {"lat": 35.65583, "lon": 139.32389}}, {"facility": "Toho University Omori Medical Center", "city": "Ota-ku", "state": "Tokyo", "zip": "143-8541", "country": "Japan", "geoPoint": {"lat": 36.3, "lon": 139.36667}}, {"facility": "Tokyo Women's Medical University Hospital", "city": "Shinjuku-ku", "state": "Tokyo", "zip": "162-8666", "country": "Japan", "geoPoint": {"lat": 35.2946, "lon": 139.57059}}, {"facility": "National Hospital Organization Iwakuni Clinical Center", "city": "Iwakuni", "state": "Yamaguchi", "zip": "740-8510", "country": "Japan", "geoPoint": {"lat": 34.16297, "lon": 132.22}}, {"facility": "Fukui Prefectural Hospital", "city": "Fukui", "zip": "910-8526", "country": "Japan", "geoPoint": {"lat": 36.06443, "lon": 136.22257}}, {"facility": "Okayama Rosai Hospital", "city": "Okayama", "zip": "702-8055", "country": "Japan", "geoPoint": {"lat": 34.65, "lon": 133.93333}}, {"facility": "Osaka General Medical Center", "city": "Osaka", "zip": "558-8558", "country": "Japan", "geoPoint": {"lat": 34.69374, "lon": 135.50218}}, {"facility": "Toyama Prefectural Central Hospital", "city": "Toyama", "zip": "930-8550", "country": "Japan", "geoPoint": {"lat": 36.7, "lon": 137.21667}}, {"facility": "Hospital Raja Perempuan Zainab II", "city": "Kelantan", "zip": "15200", "country": "Malaysia"}, {"facility": "Institute Jantung Negara", "city": "Kuala Lumpur", "zip": "50400", "country": "Malaysia", "geoPoint": {"lat": 3.1412, "lon": 101.68653}}, {"facility": "Sarawak Heart Centre", "city": "Sarawak", "zip": "94300", "country": "Malaysia"}, {"facility": "Uniwersytecki Szpital Kliniczny w Bialymstoku", "city": "Bialystok", "zip": "15-276", "country": "Poland", "geoPoint": {"lat": 53.13333, "lon": 23.16433}}, {"facility": "10 Wojskowy Szpital Kliniczny z Poliklinika SPZOZ", "city": "Bydgoszcz", "zip": "85-681", "country": "Poland", "geoPoint": {"lat": 53.1235, "lon": 18.00762}}, {"facility": "CLINICAL MEDICAL RESEARCH Sp. z o. o.", "city": "Katowice", "zip": "40-156", "country": "Poland", "geoPoint": {"lat": 50.25841, "lon": 19.02754}}, {"facility": "SPZOZ Centralny Szpital Kliniczny UM w Lodzi", "city": "Lodz", "zip": "92-213", "country": "Poland", "geoPoint": {"lat": 51.75, "lon": 19.46667}}, {"facility": "Szpital Kliniczny Przemienienia Panskiego", "city": "Poznan", "zip": "61-848", "country": "Poland", "geoPoint": {"lat": 52.40692, "lon": 16.92993}}, {"facility": "Twoja Przychodnia - Szczecinskie Centrum Medyczne", "city": "Szczecin", "zip": "70-240", "country": "Poland", "geoPoint": {"lat": 53.42894, "lon": 14.55302}}, {"facility": "Uniwersyteckie Centrum Kliniczne Warszawskiego UM", "city": "Warszawa", "zip": "02-097", "country": "Poland", "geoPoint": {"lat": 52.22977, "lon": 21.01178}}, {"facility": "IV Wojskowy Szpital Kliniczny z Poliklinika, SPZOZ", "city": "Wroclaw", "zip": "50-981", "country": "Poland", "geoPoint": {"lat": 51.1, "lon": 17.03333}}, {"facility": "Dolnoslaski Szp. Spec. im T.M. Centrum Medycyny Ratunkowej", "city": "Wroclaw", "zip": "54-049", "country": "Poland", "geoPoint": {"lat": 51.1, "lon": 17.03333}}, {"facility": "Hospital de Cascais", "city": "Alcabideche", "state": "Lisboa", "zip": "2755-009", "country": "Portugal", "geoPoint": {"lat": 38.73366, "lon": -9.40928}}, {"facility": "CHTS - Hospital Padre Americo", "city": "Guilhufe", "state": "Porto", "zip": "4564-007", "country": "Portugal", "geoPoint": {"lat": 41.19169, "lon": -8.31547}}, {"facility": "CHS - Hospital Sao Bernardo", "city": "Setubal", "state": "Set\u00fabal", "zip": "2900-446", "country": "Portugal", "geoPoint": {"lat": 38.5244, "lon": -8.8882}}, {"facility": "Hospital Garcia de Orta", "city": "Almada", "zip": "2801-951", "country": "Portugal", "geoPoint": {"lat": 38.67902, "lon": -9.1569}}, {"facility": "CHLO - Hospital Sao Francisco Xavier", "city": "Lisboa", "zip": "1449-005", "country": "Portugal", "geoPoint": {"lat": 38.71667, "lon": -9.13333}}, {"facility": "Hospital da Luz - Lisboa", "city": "Lisboa", "zip": "1500-650", "country": "Portugal", "geoPoint": {"lat": 38.71667, "lon": -9.13333}}, {"facility": "CHUP - Hospital Santo Antonio", "city": "Porto", "zip": "4099-001", "country": "Portugal", "geoPoint": {"lat": 41.14961, "lon": -8.61099}}, {"facility": "Sci-Res. Institute of Complex Cardiovascular Disorders", "city": "Kemerovo", "zip": "650002", "country": "Russian Federation", "geoPoint": {"lat": 55.33333, "lon": 86.08333}}, {"facility": "Research center of therapy and prophylactic medicine", "city": "Moscow", "zip": "101990", "country": "Russian Federation", "geoPoint": {"lat": 55.75222, "lon": 37.61556}}, {"facility": "Moscow State University n.a. M.V. Lomonosov", "city": "Moscow", "zip": "119192", "country": "Russian Federation", "geoPoint": {"lat": 55.75222, "lon": 37.61556}}, {"facility": "Samara Regional Clinical Cardiology Dispensary n.a. Polyakov", "city": "Samara", "zip": "443070", "country": "Russian Federation", "geoPoint": {"lat": 53.20007, "lon": 50.15}}, {"facility": "City hospital #15", "city": "St. Petersburg", "zip": "198205", "country": "Russian Federation", "geoPoint": {"lat": 59.93863, "lon": 30.31413}}, {"facility": "City Pokrovskaya Hospital", "city": "St. Petersburg", "zip": "199106", "country": "Russian Federation", "geoPoint": {"lat": 59.93863, "lon": 30.31413}}, {"facility": "Singapore General Hospital", "city": "Singapore", "zip": "169608", "country": "Singapore", "geoPoint": {"lat": 1.28967, "lon": 103.85007}}, {"facility": "National Heart Centre Singapore", "city": "Singapore", "zip": "169609", "country": "Singapore", "geoPoint": {"lat": 1.28967, "lon": 103.85007}}, {"facility": "Clinical Trial Systems", "city": "Pretoria", "state": "Gauteng", "country": "South Africa", "geoPoint": {"lat": -25.74486, "lon": 28.18783}}, {"facility": "Durban Medical Centre", "city": "Durban", "state": "Kwazulu-Natal", "zip": "4067", "country": "South Africa", "geoPoint": {"lat": -29.8579, "lon": 31.0292}}, {"facility": "Nash Ranjith Research Centre", "city": "Merebank", "state": "Kwazulu-Natal", "zip": "4052", "country": "South Africa", "geoPoint": {"lat": -29.9517, "lon": 30.95627}}, {"facility": "TREAD Research cc", "city": "Cape Town", "state": "Western Cape", "zip": "7500", "country": "South Africa", "geoPoint": {"lat": -33.92584, "lon": 18.42322}}, {"facility": "Tiervlei Trial Centre", "city": "Cape Town", "state": "Western Cape", "zip": "7531", "country": "South Africa", "geoPoint": {"lat": -33.92584, "lon": 18.42322}}, {"facility": "Vergelegen Medi-Clinic", "city": "Somerset West", "state": "Western Cape", "zip": "7130", "country": "South Africa", "geoPoint": {"lat": -34.08401, "lon": 18.82113}}, {"facility": "Hospital Cl\u00ednico Universitario de Santiago de Compostela", "city": "Santiago de Compostela", "state": "A Coru\u00f1a", "zip": "15706", "country": "Spain", "geoPoint": {"lat": 42.88052, "lon": -8.54569}}, {"facility": "Ciutat Sanit\u00e0ria i Universit\u00e0ria de Bellvitge", "city": "L'Hospitalet de Llobregat", "state": "Barcelona", "zip": "08907", "country": "Spain", "geoPoint": {"lat": 41.35967, "lon": 2.10028}}, {"facility": "Hospital Sant Joan Despi Moises Broggi", "city": "Sant Joan Despi", "state": "Barcelona", "zip": "08940", "country": "Spain", "geoPoint": {"lat": 41.36718, "lon": 2.0574}}, {"facility": "Hospital Sanitas La Zarzuela", "city": "Aravaca", "state": "Madrid", "zip": "28023", "country": "Spain", "geoPoint": {"lat": 40.45772, "lon": -3.78282}}, {"facility": "Hospital Universitario Clinica Puerta de Hierro", "city": "Majadahonda", "state": "Madrid", "zip": "28222", "country": "Spain", "geoPoint": {"lat": 40.47353, "lon": -3.87182}}, {"facility": "Hospital \u00c1lvaro Cunqueiro", "city": "Babio - Beade", "state": "Pontevedra", "zip": "36312", "country": "Spain"}, {"facility": "Hospital del Mar", "city": "Barcelona", "zip": "08003", "country": "Spain", "geoPoint": {"lat": 41.38879, "lon": 2.15899}}, {"facility": "Hospital Virgen de la Victoria", "city": "M\u00e1laga", "zip": "29010", "country": "Spain", "geoPoint": {"lat": 36.72016, "lon": -4.42034}}, {"facility": "Complejo Hospitalario Ntra. Sra. de Valme", "city": "Sevilla", "zip": "41014", "country": "Spain", "geoPoint": {"lat": 37.38283, "lon": -5.97317}}, {"facility": "Far Eastern Memorial Hospital", "city": "New Taipei City", "zip": "220", "country": "Taiwan", "geoPoint": {"lat": 25.01111, "lon": 121.44583}}, {"facility": "National Taiwan University Hospital", "city": "Taipei", "zip": "10016", "country": "Taiwan", "geoPoint": {"lat": 25.04776, "lon": 121.53185}}, {"facility": "Taipei Veterans General Hospital", "city": "Taipei", "zip": "11217", "country": "Taiwan", "geoPoint": {"lat": 25.04776, "lon": 121.53185}}, {"facility": "Cheng Hsin General Hospital", "city": "Taipei", "zip": "112", "country": "Taiwan", "geoPoint": {"lat": 25.04776, "lon": 121.53185}}]}, "referencesModule": {"references": [{"pmid": "31096775", "type": "BACKGROUND", "citation": "Butler J, Lam CSP, Anstrom KJ, Ezekowitz J, Hernandez AF, O'Connor CM, Pieske B, Ponikowski P, Shah SJ, Solomon SD, Voors AA, Wu Y, Carvalho F, Bamber L, Blaustein RO, Roessig L, Armstrong PW. Rationale and Design of the VITALITY-HFpEF Trial. Circ Heart Fail. 2019 May;12(5):e005998. doi: 10.1161/CIRCHEARTFAILURE.119.005998."}, {"pmid": "33079152", "type": "DERIVED", "citation": "Armstrong PW, Lam CSP, Anstrom KJ, Ezekowitz J, Hernandez AF, O'Connor CM, Pieske B, Ponikowski P, Shah SJ, Solomon SD, Voors AA, She L, Vlajnic V, Carvalho F, Bamber L, Blaustein RO, Roessig L, Butler J; VITALITY-HFpEF Study Group. Effect of Vericiguat vs Placebo on Quality of Life in Patients With Heart Failure and Preserved Ejection Fraction: The VITALITY-HFpEF Randomized Clinical Trial. JAMA. 2020 Oct 20;324(15):1512-1521. doi: 10.1001/jama.2020.15922. Erratum In: JAMA. 2021 Feb 2;325(5):494."}], "seeAlsoLinks": [{"label": "Click here to find results for studies related to Bayer products", "url": "https://clinicaltrials.bayer.com/"}, {"label": "Click here to find information about studies related to Bayer Healthcare products conducted in Europe", "url": "http://www.clinicaltrialsregister.eu/"}]}}, "resultsSection": {"participantFlowModule": {"preAssignmentDetails": "Overall, 979 participants were screened, of whom 789 participants were randomized in the study. 788 of the randomized participants were allocated to study treatment, of whom 672 participants completed the study.", "recruitmentDetails": "Study was conducted at 178 study centers worldwide, between 15-Jun-2018 (first subject first visit) and 04-Nov-2019 (last subject last visit).", "groups": [{"id": "FG000", "title": "Vericiguat up to 10 mg", "description": "Participants received vericiguat (BAY1021189) for 24 weeks, starting at 2.5 mg once daily at randomization and up-titrated to 5 mg at week 2, to 10 mg at week 4, with sham titration at week 6."}, {"id": "FG001", "title": "Vericiguat up to 15 mg", "description": "Participants received vericiguat (BAY1021189) for 24 weeks, starting at 2.5 mg once daily at randomization and up-titrated to 5 mg at week 2, to 10 mg at week 4, and to 15 mg at week 6 week."}, {"id": "FG002", "title": "Placebo", "description": "Participants received placebo once daily and sham up-titration at weeks 2, 4, and 6."}], "periods": [{"title": "Overall Study", "milestones": [{"type": "STARTED", "achievements": [{"groupId": "FG000", "numSubjects": "263"}, {"groupId": "FG001", "numSubjects": "264"}, {"groupId": "FG002", "numSubjects": "262"}]}, {"type": "Treated", "achievements": [{"groupId": "FG000", "numSubjects": "262"}, {"groupId": "FG001", "numSubjects": "264"}, {"groupId": "FG002", "numSubjects": "262"}]}, {"type": "COMPLETED", "achievements": [{"groupId": "FG000", "numSubjects": "218"}, {"groupId": "FG001", "numSubjects": "224"}, {"groupId": "FG002", "numSubjects": "230"}]}, {"type": "NOT COMPLETED", "achievements": [{"groupId": "FG000", "numSubjects": "45"}, {"groupId": "FG001", "numSubjects": "40"}, {"groupId": "FG002", "numSubjects": "32"}]}], "dropWithdraws": [{"type": "Adverse Event", "reasons": [{"groupId": "FG000", "numSubjects": "16"}, {"groupId": "FG001", "numSubjects": "11"}, {"groupId": "FG002", "numSubjects": "10"}]}, {"type": "Death", "reasons": [{"groupId": "FG000", "numSubjects": "11"}, {"groupId": "FG001", "numSubjects": "7"}, {"groupId": "FG002", "numSubjects": "4"}]}, {"type": "Lost to Follow-up", "reasons": [{"groupId": "FG000", "numSubjects": "1"}, {"groupId": "FG001", "numSubjects": "0"}, {"groupId": "FG002", "numSubjects": "0"}]}, {"type": "Non-compliance with study drug", "reasons": [{"groupId": "FG000", "numSubjects": "0"}, {"groupId": "FG001", "numSubjects": "0"}, {"groupId": "FG002", "numSubjects": "1"}]}, {"type": "Physician Decision", "reasons": [{"groupId": "FG000", "numSubjects": "1"}, {"groupId": "FG001", "numSubjects": "0"}, {"groupId": "FG002", "numSubjects": "3"}]}, {"type": "Protocol Violation", "reasons": [{"groupId": "FG000", "numSubjects": "2"}, {"groupId": "FG001", "numSubjects": "1"}, {"groupId": "FG002", "numSubjects": "1"}]}, {"type": "Withdrawal by Subject", "reasons": [{"groupId": "FG000", "numSubjects": "12"}, {"groupId": "FG001", "numSubjects": "19"}, {"groupId": "FG002", "numSubjects": "10"}]}, {"type": "Other", "reasons": [{"groupId": "FG000", "numSubjects": "2"}, {"groupId": "FG001", "numSubjects": "2"}, {"groupId": "FG002", "numSubjects": "3"}]}]}]}, "baselineCharacteristicsModule": {"populationDescription": "All participants randomized were valid for the FAS.", "groups": [{"id": "BG000", "title": "Vericiguat up to 10 mg", "description": "Participants received vericiguat (BAY1021189) for 24 weeks, starting at 2.5 mg once daily at randomization and up-titrated to 5 mg at week 2, to 10 mg at week 4, with sham titration at week 6."}, {"id": "BG001", "title": "Vericiguat up to 15 mg", "description": "Participants received vericiguat (BAY1021189) for 24 weeks, starting at 2.5 mg once daily at randomization and up-titrated to 5 mg at week 2, to 10 mg at week 4, and to 15 mg at week 6 week."}, {"id": "BG002", "title": "Placebo", "description": "Participants received placebo once daily and sham up-titration at weeks 2, 4, and 6."}, {"id": "BG003", "title": "Total", "description": "Total of all reporting groups"}], "denoms": [{"units": "Participants", "counts": [{"groupId": "BG000", "value": "263"}, {"groupId": "BG001", "value": "264"}, {"groupId": "BG002", "value": "262"}, {"groupId": "BG003", "value": "789"}]}], "measures": [{"title": "Age, Continuous", "paramType": "MEAN", "dispersionType": "STANDARD_DEVIATION", "unitOfMeasure": "years", "classes": [{"denoms": [{"units": "Participants", "counts": [{"groupId": "BG000", "value": "263"}, {"groupId": "BG001", "value": "264"}, {"groupId": "BG002", "value": "262"}, {"groupId": "BG003", "value": "789"}]}], "categories": [{"measurements": [{"groupId": "BG000", "value": "72.2", "spread": "9.7"}, {"groupId": "BG001", "value": "73.1", "spread": "9.1"}, {"groupId": "BG002", "value": "72.8", "spread": "9.4"}, {"groupId": "BG003", "value": "72.7", "spread": "9.4"}]}]}]}, {"title": "Sex: Female, Male", "paramType": "COUNT_OF_PARTICIPANTS", "unitOfMeasure": "Participants", "classes": [{"denoms": [{"units": "Participants", "counts": [{"groupId": "BG000", "value": "263"}, {"groupId": "BG001", "value": "264"}, {"groupId": "BG002", "value": "262"}, {"groupId": "BG003", "value": "789"}]}], "categories": [{"title": "Female", "measurements": [{"groupId": "BG000", "value": "124"}, {"groupId": "BG001", "value": "140"}, {"groupId": "BG002", "value": "121"}, {"groupId": "BG003", "value": "385"}]}, {"title": "Male", "measurements": [{"groupId": "BG000", "value": "139"}, {"groupId": "BG001", "value": "124"}, {"groupId": "BG002", "value": "141"}, {"groupId": "BG003", "value": "404"}]}]}]}, {"title": "Ethnicity (NIH/OMB)", "paramType": "COUNT_OF_PARTICIPANTS", "unitOfMeasure": "Participants", "classes": [{"denoms": [{"units": "Participants", "counts": [{"groupId": "BG000", "value": "263"}, {"groupId": "BG001", "value": "264"}, {"groupId": "BG002", "value": "262"}, {"groupId": "BG003", "value": "789"}]}], "categories": [{"title": "Hispanic or Latino", "measurements": [{"groupId": "BG000", "value": "28"}, {"groupId": "BG001", "value": "21"}, {"groupId": "BG002", "value": "23"}, {"groupId": "BG003", "value": "72"}]}, {"title": "Not Hispanic or Latino", "measurements": [{"groupId": "BG000", "value": "235"}, {"groupId": "BG001", "value": "242"}, {"groupId": "BG002", "value": "238"}, {"groupId": "BG003", "value": "715"}]}, {"title": "Unknown or Not Reported", "measurements": [{"groupId": "BG000", "value": "0"}, {"groupId": "BG001", "value": "1"}, {"groupId": "BG002", "value": "1"}, {"groupId": "BG003", "value": "2"}]}]}]}, {"title": "Race (NIH/OMB)", "paramType": "COUNT_OF_PARTICIPANTS", "unitOfMeasure": "Participants", "classes": [{"denoms": [{"units": "Participants", "counts": [{"groupId": "BG000", "value": "263"}, {"groupId": "BG001", "value": "264"}, {"groupId": "BG002", "value": "262"}, {"groupId": "BG003", "value": "789"}]}], "categories": [{"title": "American Indian or Alaska Native", "measurements": [{"groupId": "BG000", "value": "3"}, {"groupId": "BG001", "value": "4"}, {"groupId": "BG002", "value": "4"}, {"groupId": "BG003", "value": "11"}]}, {"title": "Asian", "measurements": [{"groupId": "BG000", "value": "24"}, {"groupId": "BG001", "value": "26"}, {"groupId": "BG002", "value": "25"}, {"groupId": "BG003", "value": "75"}]}, {"title": "Native Hawaiian or Other Pacific Islander", "measurements": [{"groupId": "BG000", "value": "0"}, {"groupId": "BG001", "value": "0"}, {"groupId": "BG002", "value": "0"}, {"groupId": "BG003", "value": "0"}]}, {"title": "Black or African American", "measurements": [{"groupId": "BG000", "value": "5"}, {"groupId": "BG001", "value": "7"}, {"groupId": "BG002", "value": "9"}, {"groupId": "BG003", "value": "21"}]}, {"title": "White", "measurements": [{"groupId": "BG000", "value": "228"}, {"groupId": "BG001", "value": "224"}, {"groupId": "BG002", "value": "222"}, {"groupId": "BG003", "value": "674"}]}, {"title": "More than one race", "measurements": [{"groupId": "BG000", "value": "2"}, {"groupId": "BG001", "value": "2"}, {"groupId": "BG002", "value": "2"}, {"groupId": "BG003", "value": "6"}]}, {"title": "Unknown or Not Reported", "measurements": [{"groupId": "BG000", "value": "1"}, {"groupId": "BG001", "value": "1"}, {"groupId": "BG002", "value": "0"}, {"groupId": "BG003", "value": "2"}]}]}]}, {"title": "Six-minute walk test", "description": "Six-minute walk test (6MWT) was conducted to test the physical limitations of the patient by assessing the patient's exercise capacity. The distance walked by the patient in 6 minutes was measured. FAS 6MWT: All patients randomized and treated (at least one dose of the study treatment), and who were able to perform at least one 6MWT assessment at both baseline and post-baseline (excluding safety follow-up).", "populationDescription": "The participants in FAS 6MWT were analyzed for this outcome measure.", "paramType": "MEAN", "dispersionType": "STANDARD_DEVIATION", "unitOfMeasure": "Meters", "classes": [{"denoms": [{"units": "Participants", "counts": [{"groupId": "BG000", "value": "236"}, {"groupId": "BG001", "value": "245"}, {"groupId": "BG002", "value": "240"}, {"groupId": "BG003", "value": "721"}]}], "categories": [{"measurements": [{"groupId": "BG000", "value": "292.13", "spread": "107.75"}, {"groupId": "BG001", "value": "294.99", "spread": "118.00"}, {"groupId": "BG002", "value": "295.80", "spread": "106.27"}, {"groupId": "BG003", "value": "294.32", "spread": "110.72"}]}]}]}, {"title": "Kansas City Cardiopathy Questionnaire Physical limitation score (KCCQ PLS)", "description": "The KCCQ measures the impact of patients' heart failure, or its treatment, on 6 domains; Physical Limitation, Symptom (with subscores for frequency and burden), Quality of Life, Social Limitations, Symptom Stability and Self-Efficacy. Scores are calculated by summing domain responses and then transforming scores to a 0-100 unit scale with higher scores indicating better health status. FAS KCCQ: All patients randomized and treated (at least one dose of the study treatment), and had at least one observed KCCQ PLS assessment at both baseline and during post-baseline (excluding safety follow-up).", "populationDescription": "The participants in FAS KCCQ were analyzed for this outcome measure.", "paramType": "MEAN", "dispersionType": "STANDARD_DEVIATION", "unitOfMeasure": "Scores", "classes": [{"denoms": [{"units": "Participants", "counts": [{"groupId": "BG000", "value": "254"}, {"groupId": "BG001", "value": "255"}, {"groupId": "BG002", "value": "252"}, {"groupId": "BG003", "value": "761"}]}], "categories": [{"measurements": [{"groupId": "BG000", "value": "57.30", "spread": "24.77"}, {"groupId": "BG001", "value": "60.03", "spread": "24.64"}, {"groupId": "BG002", "value": "59.03", "spread": "24.00"}, {"groupId": "BG003", "value": "58.79", "spread": "24.46"}]}]}]}]}, "outcomeMeasuresModule": {"outcomeMeasures": [{"type": "PRIMARY", "title": "Change in KCCQ Physical Limitation Score From Baseline to Week 24", "description": "The City Cardiomyopathy Questionnaire (KCCQ) measures the impact of patients' heart failure, or its treatment, on 6 domains; Physical Limitation, Symptom (with subscores for frequency and burden), Quality of Life, Social Limitations, Symptom Stability and Self-Efficacy. Scores are calculated by summing domain responses and then transforming scores to a 0-100 unit scale with higher scores indicating better health status.", "populationDescription": "FAS KCCQ: All patients randomized and treated (at least one dose of the study treatment), and had at least one observed KCCQ PLS assessment at both baseline and during post-baseline (excluding safety follow-up) were valid for this analysis set.", "reportingStatus": "POSTED", "paramType": "LEAST_SQUARES_MEAN", "dispersionType": "Standard Error", "unitOfMeasure": "Scores on a scale", "timeFrame": "From baseline to Week 24", "groups": [{"id": "OG000", "title": "Vericiguat up to 10 mg", "description": "Participants received vericiguat (BAY1021189) for 24 weeks, starting at 2.5 mg once daily at randomization and up-titrated to 5 mg at week 2, to 10 mg at week 4, with sham titration at week 6."}, {"id": "OG001", "title": "Vericiguat up to 15 mg", "description": "Participants received vericiguat (BAY1021189) for 24 weeks, starting at 2.5 mg once daily at randomization and up-titrated to 5 mg at week 2, to 10 mg at week 4, and to 15 mg at week 6 week."}, {"id": "OG002", "title": "Placebo", "description": "Participants received placebo once daily and sham up-titration at weeks 2, 4, and 6."}], "denoms": [{"units": "Participants", "counts": [{"groupId": "OG000", "value": "254"}, {"groupId": "OG001", "value": "255"}, {"groupId": "OG002", "value": "252"}]}], "classes": [{"categories": [{"measurements": [{"groupId": "OG000", "value": "6.41", "spread": "1.592"}, {"groupId": "OG001", "value": "5.47", "spread": "1.538"}, {"groupId": "OG002", "value": "6.93", "spread": "1.535"}]}]}], "analyses": [{"groupIds": ["OG000", "OG002"], "groupDescription": "The analysis of each imputed dataset will be performed using mixed-effects model for repeated measures (MMRM), including treatment, region, heart rhythm, study visit as fixed effects, interaction between study visit and treatment group, and adjustment for the baseline PLS values as covariates.", "nonInferiorityType": "OTHER", "pValue": "= 0.8008", "statisticalMethod": "Mixed model repeated-measures", "paramType": "Difference of LS-means", "paramValue": "-0.52", "ciPctValue": "97.5", "ciNumSides": "TWO_SIDED", "ciLowerLimit": "-5.17", "ciUpperLimit": "4.13"}, {"groupIds": ["OG001", "OG002"], "groupDescription": "The analysis of each imputed dataset will be performed using mixed-effects model for repeated measures (MMRM), including treatment, region, heart rhythm, study visit as fixed effects, interaction between study visit and treatment group, and adjustment for the baseline PLS values as covariates.", "nonInferiorityType": "OTHER", "pValue": "= 0.4722", "statisticalMethod": "Mixed model repeated-measures", "paramType": "Difference of LS-means", "paramValue": "-1.46", "ciPctValue": "97.5", "ciNumSides": "TWO_SIDED", "ciLowerLimit": "-6.02", "ciUpperLimit": "3.10"}]}, {"type": "SECONDARY", "title": "Change in the Six-minute Walk Test (6MWT) From Baseline to Week 24", "description": "6MWT was conducted to test the physical limitations of the patient by assessing the patient's exercise capacity. The distance walked by the patient in 6 minutes was measured.", "populationDescription": "FAS 6MWT: All patients randomized and treated (at least one dose of the study treatment), and who were able to perform at least one 6MWT assessment at both baseline and post-baseline (excluding safety follow-up) were valid for this analysis set.", "reportingStatus": "POSTED", "paramType": "LEAST_SQUARES_MEAN", "dispersionType": "Standard Error", "unitOfMeasure": "Meters", "timeFrame": "From baseline to Week 24", "groups": [{"id": "OG000", "title": "Vericiguat up to 10 mg", "description": "Participants will receive vericiguat (BAY1021189) for 24 weeks, starting at 2.5 mg once daily at randomization and up-titrated to 5 mg at week 2, to 10 mg at week 4, with sham titration at week 6."}, {"id": "OG001", "title": "Vericiguat up to 15 mg", "description": "Participants will receive vericiguat (BAY1021189) for 24 weeks, starting at 2.5 mg once daily at randomization and up-titrated to 5 mg at week 2, to 10 mg at week 4, and to 15 mg at week 6 week."}, {"id": "OG002", "title": "Placebo", "description": "Participants will receive placebo once daily and sham up-titration at weeks 2, 4, and 6."}], "denoms": [{"units": "Participants", "counts": [{"groupId": "OG000", "value": "236"}, {"groupId": "OG001", "value": "245"}, {"groupId": "OG002", "value": "240"}]}], "classes": [{"categories": [{"measurements": [{"groupId": "OG000", "value": "8.68", "spread": "5.841"}, {"groupId": "OG001", "value": "5.00", "spread": "5.718"}, {"groupId": "OG002", "value": "10.49", "spread": "5.512"}]}]}], "analyses": [{"groupIds": ["OG000", "OG002"], "groupDescription": "The analysis of each imputed dataset will be performed using mixed-effects model for repeated measures (MMRM), including treatment, region, heart rhythm, study visit as fixed effects, interaction between study visit and treatment group, and adjustment for the baseline 6MWT values as covariates.", "nonInferiorityType": "OTHER", "pValue": "= 0.8054", "statisticalMethod": "Mixed model repeated-measures", "paramType": "Difference of LS-means", "paramValue": "-1.81", "ciPctValue": "97.5", "ciNumSides": "TWO_SIDED", "ciLowerLimit": "-18.30", "ciUpperLimit": "14.67"}, {"groupIds": ["OG001", "OG002"], "groupDescription": "The analysis of each imputed dataset will be performed using mixed-effects model for repeated measures (MMRM), including treatment, region, heart rhythm, study visit as fixed effects, interaction between study visit and treatment group, and adjustment for the baseline 6MWT values as covariates.", "nonInferiorityType": "OTHER", "pValue": "= 0.4502", "statisticalMethod": "mixed model repeated measures", "paramType": "Difference of LS-means", "paramValue": "-5.49", "ciPctValue": "97.5", "ciNumSides": "TWO_SIDED", "ciLowerLimit": "-21.77", "ciUpperLimit": "10.80"}]}, {"type": "OTHER_PRE_SPECIFIED", "title": "Number of Participants With Treatment Emergent Adverse Events", "description": "An AE is any untoward medical occurrence (i.e. any unfavorable and unintended sign \\[including abnormal laboratory findings\\], symptom or disease) in a patient or clinical investigation patient after providing written informed consent for participation in the study. Adverse events are considered to be treatment-emergent if they have started or worsened after first application of study medication up to 5 calendar days after end of treatment with study medication.", "reportingStatus": "POSTED", "paramType": "NUMBER", "unitOfMeasure": "Participants", "timeFrame": "From first application of study drug up to 5 calendar days after end of treatment with study drug", "groups": [{"id": "OG000", "title": "Vericiguat up to 10 mg", "description": "Participants will receive vericiguat (BAY1021189) for 24 weeks, starting at 2.5 mg once daily at randomization and up-titrated to 5 mg at week 2, to 10 mg at week 4, with sham titration at week 6."}, {"id": "OG001", "title": "Vericiguat up to 15 mg", "description": "Participants will receive vericiguat (BAY1021189) for 24 weeks, starting at 2.5 mg once daily at randomization and up-titrated to 5 mg at week 2, to 10 mg at week 4, and to 15 mg at week 6 week."}, {"id": "OG002", "title": "Placebo", "description": "Participants will receive placebo once daily and sham up-titration at weeks 2, 4, and 6."}], "denoms": [{"units": "Participants", "counts": [{"groupId": "OG000", "value": "262"}, {"groupId": "OG001", "value": "264"}, {"groupId": "OG002", "value": "262"}]}], "classes": [{"title": "Any TEAE", "categories": [{"measurements": [{"groupId": "OG000", "value": "163"}, {"groupId": "OG001", "value": "172"}, {"groupId": "OG002", "value": "172"}]}]}, {"title": "Any study drug related TEAE", "categories": [{"measurements": [{"groupId": "OG000", "value": "38"}, {"groupId": "OG001", "value": "42"}, {"groupId": "OG002", "value": "24"}]}]}, {"title": "Any TESAE", "categories": [{"measurements": [{"groupId": "OG000", "value": "46"}, {"groupId": "OG001", "value": "54"}, {"groupId": "OG002", "value": "48"}]}]}]}]}, "adverseEventsModule": {"frequencyThreshold": "1", "timeFrame": "Timeframe for reporting adverse events: From the first application of study medication up to 5 calendar days after end of treatment with study medication. Timeframe for number of death (all causes): After study medication start until last contact date. (The median follow-up time is 197 days.)", "eventGroups": [{"id": "EG000", "title": "Vericiguat up to 10 mg", "description": "Subjects received vericiguat (BAY1021189) for 24 weeks, starting at 2.5 mg once daily at randomization and up-titrated to 5 mg at week 2, to 10 mg at week 4, with sham titration at week 6.", "deathsNumAffected": 15, "deathsNumAtRisk": 262, "seriousNumAffected": 46, "seriousNumAtRisk": 262, "otherNumAffected": 121, "otherNumAtRisk": 262}, {"id": "EG001", "title": "Vericiguat up to 15 mg", "description": "Subjects received vericiguat (BAY1021189) for 24 weeks, starting at 2.5 mg once daily at randomization and up-titrated to 5 mg at week 2, to 10 mg at week 4, and to 15 mg at week 6.", "deathsNumAffected": 10, "deathsNumAtRisk": 264, "seriousNumAffected": 54, "seriousNumAtRisk": 264, "otherNumAffected": 134, "otherNumAtRisk": 264}, {"id": "EG002", "title": "Placebo", "description": "Subjects received placebo for 24 weeks, once daily, starting sham up-titration at weeks 2, 4, and 6.", "deathsNumAffected": 7, "deathsNumAtRisk": 262, "seriousNumAffected": 48, "seriousNumAtRisk": 262, "otherNumAffected": 131, "otherNumAtRisk": 262}], "seriousEvents": [{"term": "Anaemia", "organSystem": "Blood and lymphatic system disorders", "sourceVocabulary": "MedDRA (22.1)", "assessmentType": "NON_SYSTEMATIC_ASSESSMENT", "stats": [{"groupId": "EG000", "numEvents": 3, "numAffected": 3, "numAtRisk": 262}, {"groupId": "EG001", "numEvents": 2, "numAffected": 2, "numAtRisk": 264}, {"groupId": "EG002", "numEvents": 1, "numAffected": 1, "numAtRisk": 262}]}, {"term": "Iron deficiency anaemia", "organSystem": "Blood and lymphatic system disorders", "sourceVocabulary": "MedDRA (22.1)", "assessmentType": "NON_SYSTEMATIC_ASSESSMENT", "stats": [{"groupId": "EG000", "numEvents": 0, "numAffected": 0, "numAtRisk": 262}, {"groupId": "EG001", "numEvents": 1, "numAffected": 1, "numAtRisk": 264}, {"groupId": "EG002", "numEvents": 0, "numAffected": 0, "numAtRisk": 262}]}, {"term": "Acute myocardial infarction", "organSystem": "Cardiac disorders", "sourceVocabulary": "MedDRA (22.1)", "assessmentType": "NON_SYSTEMATIC_ASSESSMENT", "stats": [{"groupId": "EG000", "numEvents": 0, "numAffected": 0, "numAtRisk": 262}, {"groupId": "EG001", "numEvents": 0, "numAffected": 0, "numAtRisk": 264}, {"groupId": "EG002", "numEvents": 1, "numAffected": 1, "numAtRisk": 262}]}, {"term": "Arrhythmia", "organSystem": "Cardiac disorders", "sourceVocabulary": "MedDRA (22.1)", "assessmentType": "NON_SYSTEMATIC_ASSESSMENT", "stats": [{"groupId": "EG000", "numEvents": 0, "numAffected": 0, "numAtRisk": 262}, {"groupId": "EG001", "numEvents": 1, "numAffected": 1, "numAtRisk": 264}, {"groupId": "EG002", "numEvents": 0, "numAffected": 0, "numAtRisk": 262}]}, {"term": "Atrial fibrillation", "organSystem": "Cardiac disorders", "sourceVocabulary": "MedDRA (22.1)", "assessmentType": "NON_SYSTEMATIC_ASSESSMENT", "stats": [{"groupId": "EG000", "numEvents": 4, "numAffected": 4, "numAtRisk": 262}, {"groupId": "EG001", "numEvents": 5, "numAffected": 4, "numAtRisk": 264}, {"groupId": "EG002", "numEvents": 1, "numAffected": 1, "numAtRisk": 262}]}, {"term": "Bradycardia", "organSystem": "Cardiac disorders", "sourceVocabulary": "MedDRA (22.1)", "assessmentType": "NON_SYSTEMATIC_ASSESSMENT", "stats": [{"groupId": "EG000", "numEvents": 0, "numAffected": 0, "numAtRisk": 262}, {"groupId": "EG001", "numEvents": 1, "numAffected": 1, "numAtRisk": 264}, {"groupId": "EG002", "numEvents": 0, "numAffected": 0, "numAtRisk": 262}]}, {"term": "Cardiovascular disorder", "organSystem": "Cardiac disorders", "sourceVocabulary": "MedDRA (22.1)", "assessmentType": "NON_SYSTEMATIC_ASSESSMENT", "stats": [{"groupId": "EG000", "numEvents": 1, "numAffected": 1, "numAtRisk": 262}, {"groupId": "EG001", "numEvents": 0, "numAffected": 0, "numAtRisk": 264}, {"groupId": "EG002", "numEvents": 0, "numAffected": 0, "numAtRisk": 262}]}, {"term": "Coronary artery disease", "organSystem": "Cardiac disorders", "sourceVocabulary": "MedDRA (22.1)", "assessmentType": "NON_SYSTEMATIC_ASSESSMENT", "stats": [{"groupId": "EG000", "numEvents": 1, "numAffected": 1, "numAtRisk": 262}, {"groupId": "EG001", "numEvents": 2, "numAffected": 2, "numAtRisk": 264}, {"groupId": "EG002", "numEvents": 2, "numAffected": 2, "numAtRisk": 262}]}, {"term": "Mitral valve incompetence", "organSystem": "Cardiac disorders", "sourceVocabulary": "MedDRA (22.1)", "assessmentType": "NON_SYSTEMATIC_ASSESSMENT", "stats": [{"groupId": "EG000", "numEvents": 0, "numAffected": 0, "numAtRisk": 262}, {"groupId": "EG001", "numEvents": 0, "numAffected": 0, "numAtRisk": 264}, {"groupId": "EG002", "numEvents": 2, "numAffected": 2, "numAtRisk": 262}]}, {"term": "Palpitations", "organSystem": "Cardiac disorders", "sourceVocabulary": "MedDRA (22.1)", "assessmentType": "NON_SYSTEMATIC_ASSESSMENT", "stats": [{"groupId": "EG000", "numEvents": 0, "numAffected": 0, "numAtRisk": 262}, {"groupId": "EG001", "numEvents": 0, "numAffected": 0, "numAtRisk": 264}, {"groupId": "EG002", "numEvents": 1, "numAffected": 1, "numAtRisk": 262}]}, {"term": "Supraventricular tachycardia", "organSystem": "Cardiac disorders", "sourceVocabulary": "MedDRA (22.1)", "assessmentType": "NON_SYSTEMATIC_ASSESSMENT", "stats": [{"groupId": "EG000", "numEvents": 0, "numAffected": 0, "numAtRisk": 262}, {"groupId": "EG001", "numEvents": 1, "numAffected": 1, "numAtRisk": 264}, {"groupId": "EG002", "numEvents": 0, "numAffected": 0, "numAtRisk": 262}]}, {"term": "Coronary artery insufficiency", "organSystem": "Cardiac disorders", "sourceVocabulary": "MedDRA (22.1)", "assessmentType": "NON_SYSTEMATIC_ASSESSMENT", "stats": [{"groupId": "EG000", "numEvents": 0, "numAffected": 0, "numAtRisk": 262}, {"groupId": "EG001", "numEvents": 1, "numAffected": 1, "numAtRisk": 264}, {"groupId": "EG002", "numEvents": 0, "numAffected": 0, "numAtRisk": 262}]}, {"term": "Sinus node dysfunction", "organSystem": "Cardiac disorders", "sourceVocabulary": "MedDRA (22.1)", "assessmentType": "NON_SYSTEMATIC_ASSESSMENT", "stats": [{"groupId": "EG000", "numEvents": 1, "numAffected": 1, "numAtRisk": 262}, {"groupId": "EG001", "numEvents": 1, "numAffected": 1, "numAtRisk": 264}, {"groupId": "EG002", "numEvents": 0, "numAffected": 0, "numAtRisk": 262}]}, {"term": "Diplopia", "organSystem": "Eye disorders", "sourceVocabulary": "MedDRA (22.1)", "assessmentType": "NON_SYSTEMATIC_ASSESSMENT", "stats": [{"groupId": "EG000", "numEvents": 1, "numAffected": 1, "numAtRisk": 262}, {"groupId": "EG001", "numEvents": 0, "numAffected": 0, "numAtRisk": 264}, {"groupId": "EG002", "numEvents": 0, "numAffected": 0, "numAtRisk": 262}]}, {"term": "Macular oedema", "organSystem": "Eye disorders", "sourceVocabulary": "MedDRA (22.1)", "assessmentType": "NON_SYSTEMATIC_ASSESSMENT", "stats": [{"groupId": "EG000", "numEvents": 0, "numAffected": 0, "numAtRisk": 262}, {"groupId": "EG001", "numEvents": 1, "numAffected": 1, "numAtRisk": 264}, {"groupId": "EG002", "numEvents": 0, "numAffected": 0, "numAtRisk": 262}]}, {"term": "Dysphagia", "organSystem": "Gastrointestinal disorders", "sourceVocabulary": "MedDRA (22.1)", "assessmentType": "NON_SYSTEMATIC_ASSESSMENT", "stats": [{"groupId": "EG000", "numEvents": 0, "numAffected": 0, "numAtRisk": 262}, {"groupId": "EG001", "numEvents": 0, "numAffected": 0, "numAtRisk": 264}, {"groupId": "EG002", "numEvents": 1, "numAffected": 1, "numAtRisk": 262}]}, {"term": "Gastritis", "organSystem": "Gastrointestinal disorders", "sourceVocabulary": "MedDRA (22.1)", "assessmentType": "NON_SYSTEMATIC_ASSESSMENT", "stats": [{"groupId": "EG000", "numEvents": 1, "numAffected": 1, "numAtRisk": 262}, {"groupId": "EG001", "numEvents": 0, "numAffected": 0, "numAtRisk": 264}, {"groupId": "EG002", "numEvents": 0, "numAffected": 0, "numAtRisk": 262}]}, {"term": "Gastrointestinal disorder", "organSystem": "Gastrointestinal disorders", "sourceVocabulary": "MedDRA (22.1)", "assessmentType": "NON_SYSTEMATIC_ASSESSMENT", "stats": [{"groupId": "EG000", "numEvents": 1, "numAffected": 1, "numAtRisk": 262}, {"groupId": "EG001", "numEvents": 0, "numAffected": 0, "numAtRisk": 264}, {"groupId": "EG002", "numEvents": 0, "numAffected": 0, "numAtRisk": 262}]}, {"term": "Gastrointestinal haemorrhage", "organSystem": "Gastrointestinal disorders", "sourceVocabulary": "MedDRA (22.1)", "assessmentType": "NON_SYSTEMATIC_ASSESSMENT", "stats": [{"groupId": "EG000", "numEvents": 0, "numAffected": 0, "numAtRisk": 262}, {"groupId": "EG001", "numEvents": 2, "numAffected": 2, "numAtRisk": 264}, {"groupId": "EG002", "numEvents": 0, "numAffected": 0, "numAtRisk": 262}]}, {"term": "Ileus", "organSystem": "Gastrointestinal disorders", "sourceVocabulary": "MedDRA (22.1)", "assessmentType": "NON_SYSTEMATIC_ASSESSMENT", "stats": [{"groupId": "EG000", "numEvents": 0, "numAffected": 0, "numAtRisk": 262}, {"groupId": "EG001", "numEvents": 1, "numAffected": 1, "numAtRisk": 264}, {"groupId": "EG002", "numEvents": 0, "numAffected": 0, "numAtRisk": 262}]}, {"term": "Intestinal obstruction", "organSystem": "Gastrointestinal disorders", "sourceVocabulary": "MedDRA (22.1)", "assessmentType": "NON_SYSTEMATIC_ASSESSMENT", "stats": [{"groupId": "EG000", "numEvents": 0, "numAffected": 0, "numAtRisk": 262}, {"groupId": "EG001", "numEvents": 1, "numAffected": 1, "numAtRisk": 264}, {"groupId": "EG002", "numEvents": 0, "numAffected": 0, "numAtRisk": 262}]}, {"term": "Nausea", "organSystem": "Gastrointestinal disorders", "sourceVocabulary": "MedDRA (22.1)", "assessmentType": "NON_SYSTEMATIC_ASSESSMENT", "stats": [{"groupId": "EG000", "numEvents": 1, "numAffected": 1, "numAtRisk": 262}, {"groupId": "EG001", "numEvents": 0, "numAffected": 0, "numAtRisk": 264}, {"groupId": "EG002", "numEvents": 0, "numAffected": 0, "numAtRisk": 262}]}, {"term": "Odynophagia", "organSystem": "Gastrointestinal disorders", "sourceVocabulary": "MedDRA (22.1)", "assessmentType": "NON_SYSTEMATIC_ASSESSMENT", "stats": [{"groupId": "EG000", "numEvents": 0, "numAffected": 0, "numAtRisk": 262}, {"groupId": "EG001", "numEvents": 0, "numAffected": 0, "numAtRisk": 264}, {"groupId": "EG002", "numEvents": 1, "numAffected": 1, "numAtRisk": 262}]}, {"term": "Oesophageal varices haemorrhage", "organSystem": "Gastrointestinal disorders", "sourceVocabulary": "MedDRA (22.1)", "assessmentType": "NON_SYSTEMATIC_ASSESSMENT", "stats": [{"groupId": "EG000", "numEvents": 0, "numAffected": 0, "numAtRisk": 262}, {"groupId": "EG001", "numEvents": 0, "numAffected": 0, "numAtRisk": 264}, {"groupId": "EG002", "numEvents": 1, "numAffected": 1, "numAtRisk": 262}]}, {"term": "Proctitis", "organSystem": "Gastrointestinal disorders", "sourceVocabulary": "MedDRA (22.1)", "assessmentType": "NON_SYSTEMATIC_ASSESSMENT", "stats": [{"groupId": "EG000", "numEvents": 1, "numAffected": 1, "numAtRisk": 262}, {"groupId": "EG001", "numEvents": 0, "numAffected": 0, "numAtRisk": 264}, {"groupId": "EG002", "numEvents": 0, "numAffected": 0, "numAtRisk": 262}]}, {"term": "Rectal haemorrhage", "organSystem": "Gastrointestinal disorders", "sourceVocabulary": "MedDRA (22.1)", "assessmentType": "NON_SYSTEMATIC_ASSESSMENT", "stats": [{"groupId": "EG000", "numEvents": 0, "numAffected": 0, "numAtRisk": 262}, {"groupId": "EG001", "numEvents": 1, "numAffected": 1, "numAtRisk": 264}, {"groupId": "EG002", "numEvents": 0, "numAffected": 0, "numAtRisk": 262}]}, {"term": "Upper gastrointestinal haemorrhage", "organSystem": "Gastrointestinal disorders", "sourceVocabulary": "MedDRA (22.1)", "assessmentType": "NON_SYSTEMATIC_ASSESSMENT", "stats": [{"groupId": "EG000", "numEvents": 0, "numAffected": 0, "numAtRisk": 262}, {"groupId": "EG001", "numEvents": 0, "numAffected": 0, "numAtRisk": 264}, {"groupId": "EG002", "numEvents": 1, "numAffected": 1, "numAtRisk": 262}]}, {"term": "Faecaloma", "organSystem": "Gastrointestinal disorders", "sourceVocabulary": "MedDRA (22.1)", "assessmentType": "NON_SYSTEMATIC_ASSESSMENT", "stats": [{"groupId": "EG000", "numEvents": 0, "numAffected": 0, "numAtRisk": 262}, {"groupId": "EG001", "numEvents": 0, "numAffected": 0, "numAtRisk": 264}, {"groupId": "EG002", "numEvents": 1, "numAffected": 1, "numAtRisk": 262}]}, {"term": "Abdominal incarcerated hernia", "organSystem": "Gastrointestinal disorders", "sourceVocabulary": "MedDRA (22.1)", "assessmentType": "NON_SYSTEMATIC_ASSESSMENT", "stats": [{"groupId": "EG000", "numEvents": 0, "numAffected": 0, "numAtRisk": 262}, {"groupId": "EG001", "numEvents": 0, "numAffected": 0, "numAtRisk": 264}, {"groupId": "EG002", "numEvents": 1, "numAffected": 1, "numAtRisk": 262}]}, {"term": "Chest pain", "organSystem": "General disorders", "sourceVocabulary": "MedDRA (22.1)", "assessmentType": "NON_SYSTEMATIC_ASSESSMENT", "stats": [{"groupId": "EG000", "numEvents": 0, "numAffected": 0, "numAtRisk": 262}, {"groupId": "EG001", "numEvents": 0, "numAffected": 0, "numAtRisk": 264}, {"groupId": "EG002", "numEvents": 2, "numAffected": 2, "numAtRisk": 262}]}, {"term": "Death", "organSystem": "General disorders", "sourceVocabulary": "MedDRA (22.1)", "assessmentType": "NON_SYSTEMATIC_ASSESSMENT", "stats": [{"groupId": "EG000", "numEvents": 1, "numAffected": 1, "numAtRisk": 262}, {"groupId": "EG001", "numEvents": 1, "numAffected": 1, "numAtRisk": 264}, {"groupId": "EG002", "numEvents": 0, "numAffected": 0, "numAtRisk": 262}]}, {"term": "Pelvic mass", "organSystem": "General disorders", "sourceVocabulary": "MedDRA (22.1)", "assessmentType": "NON_SYSTEMATIC_ASSESSMENT", "stats": [{"groupId": "EG000", "numEvents": 0, "numAffected": 0, "numAtRisk": 262}, {"groupId": "EG001", "numEvents": 1, "numAffected": 1, "numAtRisk": 264}, {"groupId": "EG002", "numEvents": 0, "numAffected": 0, "numAtRisk": 262}]}, {"term": "Sudden death", "organSystem": "General disorders", "sourceVocabulary": "MedDRA (22.1)", "assessmentType": "NON_SYSTEMATIC_ASSESSMENT", "stats": [{"groupId": "EG000", "numEvents": 1, "numAffected": 1, "numAtRisk": 262}, {"groupId": "EG001", "numEvents": 0, "numAffected": 0, "numAtRisk": 264}, {"groupId": "EG002", "numEvents": 0, "numAffected": 0, "numAtRisk": 262}]}, {"term": "Sudden cardiac death", "organSystem": "General disorders", "sourceVocabulary": "MedDRA (22.1)", "assessmentType": "NON_SYSTEMATIC_ASSESSMENT", "stats": [{"groupId": "EG000", "numEvents": 0, "numAffected": 0, "numAtRisk": 262}, {"groupId": "EG001", "numEvents": 1, "numAffected": 1, "numAtRisk": 264}, {"groupId": "EG002", "numEvents": 0, "numAffected": 0, "numAtRisk": 262}]}, {"term": "Cholecystitis acute", "organSystem": "Hepatobiliary disorders", "sourceVocabulary": "MedDRA (22.1)", "assessmentType": "NON_SYSTEMATIC_ASSESSMENT", "stats": [{"groupId": "EG000", "numEvents": 0, "numAffected": 0, "numAtRisk": 262}, {"groupId": "EG001", "numEvents": 0, "numAffected": 0, "numAtRisk": 264}, {"groupId": "EG002", "numEvents": 1, "numAffected": 1, "numAtRisk": 262}]}, {"term": "Bronchitis", "organSystem": "Infections and infestations", "sourceVocabulary": "MedDRA (22.1)", "assessmentType": "NON_SYSTEMATIC_ASSESSMENT", "stats": [{"groupId": "EG000", "numEvents": 2, "numAffected": 2, "numAtRisk": 262}, {"groupId": "EG001", "numEvents": 0, "numAffected": 0, "numAtRisk": 264}, {"groupId": "EG002", "numEvents": 1, "numAffected": 1, "numAtRisk": 262}]}, {"term": "Cellulitis", "organSystem": "Infections and infestations", "sourceVocabulary": "MedDRA (22.1)", "assessmentType": "NON_SYSTEMATIC_ASSESSMENT", "stats": [{"groupId": "EG000", "numEvents": 0, "numAffected": 0, "numAtRisk": 262}, {"groupId": "EG001", "numEvents": 3, "numAffected": 3, "numAtRisk": 264}, {"groupId": "EG002", "numEvents": 0, "numAffected": 0, "numAtRisk": 262}]}, {"term": "Cellulitis staphylococcal", "organSystem": "Infections and infestations", "sourceVocabulary": "MedDRA (22.1)", "assessmentType": "NON_SYSTEMATIC_ASSESSMENT", "stats": [{"groupId": "EG000", "numEvents": 0, "numAffected": 0, "numAtRisk": 262}, {"groupId": "EG001", "numEvents": 0, "numAffected": 0, "numAtRisk": 264}, {"groupId": "EG002", "numEvents": 1, "numAffected": 1, "numAtRisk": 262}]}, {"term": "Cystitis", "organSystem": "Infections and infestations", "sourceVocabulary": "MedDRA (22.1)", "assessmentType": "NON_SYSTEMATIC_ASSESSMENT", "stats": [{"groupId": "EG000", "numEvents": 1, "numAffected": 1, "numAtRisk": 262}, {"groupId": "EG001", "numEvents": 0, "numAffected": 0, "numAtRisk": 264}, {"groupId": "EG002", "numEvents": 0, "numAffected": 0, "numAtRisk": 262}]}, {"term": "Diverticulitis", "organSystem": "Infections and infestations", "sourceVocabulary": "MedDRA (22.1)", "assessmentType": "NON_SYSTEMATIC_ASSESSMENT", "stats": [{"groupId": "EG000", "numEvents": 0, "numAffected": 0, "numAtRisk": 262}, {"groupId": "EG001", "numEvents": 0, "numAffected": 0, "numAtRisk": 264}, {"groupId": "EG002", "numEvents": 1, "numAffected": 1, "numAtRisk": 262}]}, {"term": "Endophthalmitis", "organSystem": "Infections and infestations", "sourceVocabulary": "MedDRA (22.1)", "assessmentType": "NON_SYSTEMATIC_ASSESSMENT", "stats": [{"groupId": "EG000", "numEvents": 0, "numAffected": 0, "numAtRisk": 262}, {"groupId": "EG001", "numEvents": 1, "numAffected": 1, "numAtRisk": 264}, {"groupId": "EG002", "numEvents": 0, "numAffected": 0, "numAtRisk": 262}]}, {"term": "Gastroenteritis", "organSystem": "Infections and infestations", "sourceVocabulary": "MedDRA (22.1)", "assessmentType": "NON_SYSTEMATIC_ASSESSMENT", "stats": [{"groupId": "EG000", "numEvents": 0, "numAffected": 0, "numAtRisk": 262}, {"groupId": "EG001", "numEvents": 2, "numAffected": 2, "numAtRisk": 264}, {"groupId": "EG002", "numEvents": 1, "numAffected": 1, "numAtRisk": 262}]}, {"term": "Localised infection", "organSystem": "Infections and infestations", "sourceVocabulary": "MedDRA (22.1)", "assessmentType": "NON_SYSTEMATIC_ASSESSMENT", "stats": [{"groupId": "EG000", "numEvents": 0, "numAffected": 0, "numAtRisk": 262}, {"groupId": "EG001", "numEvents": 0, "numAffected": 0, "numAtRisk": 264}, {"groupId": "EG002", "numEvents": 3, "numAffected": 1, "numAtRisk": 262}]}, {"term": "Lower respiratory tract infection", "organSystem": "Infections and infestations", "sourceVocabulary": "MedDRA (22.1)", "assessmentType": "NON_SYSTEMATIC_ASSESSMENT", "stats": [{"groupId": "EG000", "numEvents": 0, "numAffected": 0, "numAtRisk": 262}, {"groupId": "EG001", "numEvents": 1, "numAffected": 1, "numAtRisk": 264}, {"groupId": "EG002", "numEvents": 0, "numAffected": 0, "numAtRisk": 262}]}, {"term": "Nasopharyngitis", "organSystem": "Infections and infestations", "sourceVocabulary": "MedDRA (22.1)", "assessmentType": "NON_SYSTEMATIC_ASSESSMENT", "stats": [{"groupId": "EG000", "numEvents": 1, "numAffected": 1, "numAtRisk": 262}, {"groupId": "EG001", "numEvents": 0, "numAffected": 0, "numAtRisk": 264}, {"groupId": "EG002", "numEvents": 0, "numAffected": 0, "numAtRisk": 262}]}, {"term": "Pneumonia", "organSystem": "Infections and infestations", "sourceVocabulary": "MedDRA (22.1)", "assessmentType": "NON_SYSTEMATIC_ASSESSMENT", "stats": [{"groupId": "EG000", "numEvents": 3, "numAffected": 3, "numAtRisk": 262}, {"groupId": "EG001", "numEvents": 7, "numAffected": 7, "numAtRisk": 264}, {"groupId": "EG002", "numEvents": 4, "numAffected": 4, "numAtRisk": 262}]}, {"term": "Pyelonephritis chronic", "organSystem": "Infections and infestations", "sourceVocabulary": "MedDRA (22.1)", "assessmentType": "NON_SYSTEMATIC_ASSESSMENT", "stats": [{"groupId": "EG000", "numEvents": 0, "numAffected": 0, "numAtRisk": 262}, {"groupId": "EG001", "numEvents": 0, "numAffected": 0, "numAtRisk": 264}, {"groupId": "EG002", "numEvents": 1, "numAffected": 1, "numAtRisk": 262}]}, {"term": "Septic shock", "organSystem": "Infections and infestations", "sourceVocabulary": "MedDRA (22.1)", "assessmentType": "NON_SYSTEMATIC_ASSESSMENT", "stats": [{"groupId": "EG000", "numEvents": 0, "numAffected": 0, "numAtRisk": 262}, {"groupId": "EG001", "numEvents": 1, "numAffected": 1, "numAtRisk": 264}, {"groupId": "EG002", "numEvents": 1, "numAffected": 1, "numAtRisk": 262}]}, {"term": "Tracheobronchitis", "organSystem": "Infections and infestations", "sourceVocabulary": "MedDRA (22.1)", "assessmentType": "NON_SYSTEMATIC_ASSESSMENT", "stats": [{"groupId": "EG000", "numEvents": 1, "numAffected": 1, "numAtRisk": 262}, {"groupId": "EG001", "numEvents": 0, "numAffected": 0, "numAtRisk": 264}, {"groupId": "EG002", "numEvents": 0, "numAffected": 0, "numAtRisk": 262}]}, {"term": "Upper respiratory tract infection", "organSystem": "Infections and infestations", "sourceVocabulary": "MedDRA (22.1)", "assessmentType": "NON_SYSTEMATIC_ASSESSMENT", "stats": [{"groupId": "EG000", "numEvents": 0, "numAffected": 0, "numAtRisk": 262}, {"groupId": "EG001", "numEvents": 0, "numAffected": 0, "numAtRisk": 264}, {"groupId": "EG002", "numEvents": 1, "numAffected": 1, "numAtRisk": 262}]}, {"term": "Urinary tract infection", "organSystem": "Infections and infestations", "sourceVocabulary": "MedDRA (22.1)", "assessmentType": "NON_SYSTEMATIC_ASSESSMENT", "stats": [{"groupId": "EG000", "numEvents": 0, "numAffected": 0, "numAtRisk": 262}, {"groupId": "EG001", "numEvents": 1, "numAffected": 1, "numAtRisk": 264}, {"groupId": "EG002", "numEvents": 4, "numAffected": 3, "numAtRisk": 262}]}, {"term": "Urosepsis", "organSystem": "Infections and infestations", "sourceVocabulary": "MedDRA (22.1)", "assessmentType": "NON_SYSTEMATIC_ASSESSMENT", "stats": [{"groupId": "EG000", "numEvents": 0, "numAffected": 0, "numAtRisk": 262}, {"groupId": "EG001", "numEvents": 0, "numAffected": 0, "numAtRisk": 264}, {"groupId": "EG002", "numEvents": 1, "numAffected": 1, "numAtRisk": 262}]}, {"term": "Groin abscess", "organSystem": "Infections and infestations", "sourceVocabulary": "MedDRA (22.1)", "assessmentType": "NON_SYSTEMATIC_ASSESSMENT", "stats": [{"groupId": "EG000", "numEvents": 0, "numAffected": 0, "numAtRisk": 262}, {"groupId": "EG001", "numEvents": 0, "numAffected": 0, "numAtRisk": 264}, {"groupId": "EG002", "numEvents": 2, "numAffected": 1, "numAtRisk": 262}]}, {"term": "Streptococcal bacteraemia", "organSystem": "Infections and infestations", "sourceVocabulary": "MedDRA (22.1)", "assessmentType": "NON_SYSTEMATIC_ASSESSMENT", "stats": [{"groupId": "EG000", "numEvents": 0, "numAffected": 0, "numAtRisk": 262}, {"groupId": "EG001", "numEvents": 0, "numAffected": 0, "numAtRisk": 264}, {"groupId": "EG002", "numEvents": 1, "numAffected": 1, "numAtRisk": 262}]}, {"term": "Pulmonary sepsis", "organSystem": "Infections and infestations", "sourceVocabulary": "MedDRA (22.1)", "assessmentType": "NON_SYSTEMATIC_ASSESSMENT", "stats": [{"groupId": "EG000", "numEvents": 1, "numAffected": 1, "numAtRisk": 262}, {"groupId": "EG001", "numEvents": 0, "numAffected": 0, "numAtRisk": 264}, {"groupId": "EG002", "numEvents": 0, "numAffected": 0, "numAtRisk": 262}]}, {"term": "Infective exacerbation of chronic obstructive airways disease", "organSystem": "Infections and infestations", "sourceVocabulary": "MedDRA (22.1)", "assessmentType": "NON_SYSTEMATIC_ASSESSMENT", "stats": [{"groupId": "EG000", "numEvents": 0, "numAffected": 0, "numAtRisk": 262}, {"groupId": "EG001", "numEvents": 0, "numAffected": 0, "numAtRisk": 264}, {"groupId": "EG002", "numEvents": 1, "numAffected": 1, "numAtRisk": 262}]}, {"term": "Implant site infection", "organSystem": "Infections and infestations", "sourceVocabulary": "MedDRA (22.1)", "assessmentType": "NON_SYSTEMATIC_ASSESSMENT", "stats": [{"groupId": "EG000", "numEvents": 0, "numAffected": 0, "numAtRisk": 262}, {"groupId": "EG001", "numEvents": 1, "numAffected": 1, "numAtRisk": 264}, {"groupId": "EG002", "numEvents": 1, "numAffected": 1, "numAtRisk": 262}]}, {"term": "Pneumonia bacterial", "organSystem": "Infections and infestations", "sourceVocabulary": "MedDRA (22.1)", "assessmentType": "NON_SYSTEMATIC_ASSESSMENT", "stats": [{"groupId": "EG000", "numEvents": 1, "numAffected": 1, "numAtRisk": 262}, {"groupId": "EG001", "numEvents": 0, "numAffected": 0, "numAtRisk": 264}, {"groupId": "EG002", "numEvents": 0, "numAffected": 0, "numAtRisk": 262}]}, {"term": "Respiratory tract infection viral", "organSystem": "Infections and infestations", "sourceVocabulary": "MedDRA (22.1)", "assessmentType": "NON_SYSTEMATIC_ASSESSMENT", "stats": [{"groupId": "EG000", "numEvents": 0, "numAffected": 0, "numAtRisk": 262}, {"groupId": "EG001", "numEvents": 0, "numAffected": 0, "numAtRisk": 264}, {"groupId": "EG002", "numEvents": 1, "numAffected": 1, "numAtRisk": 262}]}, {"term": "Respiratory tract infection", "organSystem": "Infections and infestations", "sourceVocabulary": "MedDRA (22.1)", "assessmentType": "NON_SYSTEMATIC_ASSESSMENT", "stats": [{"groupId": "EG000", "numEvents": 0, "numAffected": 0, "numAtRisk": 262}, {"groupId": "EG001", "numEvents": 2, "numAffected": 1, "numAtRisk": 264}, {"groupId": "EG002", "numEvents": 1, "numAffected": 1, "numAtRisk": 262}]}, {"term": "Escherichia pyelonephritis", "organSystem": "Infections and infestations", "sourceVocabulary": "MedDRA (22.1)", "assessmentType": "NON_SYSTEMATIC_ASSESSMENT", "stats": [{"groupId": "EG000", "numEvents": 1, "numAffected": 1, "numAtRisk": 262}, {"groupId": "EG001", "numEvents": 0, "numAffected": 0, "numAtRisk": 264}, {"groupId": "EG002", "numEvents": 0, "numAffected": 0, "numAtRisk": 262}]}, {"term": "Medical device site joint infection", "organSystem": "Infections and infestations", "sourceVocabulary": "MedDRA (22.1)", "assessmentType": "NON_SYSTEMATIC_ASSESSMENT", "stats": [{"groupId": "EG000", "numEvents": 0, "numAffected": 0, "numAtRisk": 262}, {"groupId": "EG001", "numEvents": 0, "numAffected": 0, "numAtRisk": 264}, {"groupId": "EG002", "numEvents": 1, "numAffected": 1, "numAtRisk": 262}]}, {"term": "Concussion", "organSystem": "Injury, poisoning and procedural complications", "sourceVocabulary": "MedDRA (22.1)", "assessmentType": "NON_SYSTEMATIC_ASSESSMENT", "stats": [{"groupId": "EG000", "numEvents": 0, "numAffected": 0, "numAtRisk": 262}, {"groupId": "EG001", "numEvents": 1, "numAffected": 1, "numAtRisk": 264}, {"groupId": "EG002", "numEvents": 0, "numAffected": 0, "numAtRisk": 262}]}, {"term": "Fall", "organSystem": "Injury, poisoning and procedural complications", "sourceVocabulary": "MedDRA (22.1)", "assessmentType": "NON_SYSTEMATIC_ASSESSMENT", "stats": [{"groupId": "EG000", "numEvents": 0, "numAffected": 0, "numAtRisk": 262}, {"groupId": "EG001", "numEvents": 0, "numAffected": 0, "numAtRisk": 264}, {"groupId": "EG002", "numEvents": 2, "numAffected": 2, "numAtRisk": 262}]}, {"term": "Femur fracture", "organSystem": "Injury, poisoning and procedural complications", "sourceVocabulary": "MedDRA (22.1)", "assessmentType": "NON_SYSTEMATIC_ASSESSMENT", "stats": [{"groupId": "EG000", "numEvents": 1, "numAffected": 1, "numAtRisk": 262}, {"groupId": "EG001", "numEvents": 0, "numAffected": 0, "numAtRisk": 264}, {"groupId": "EG002", "numEvents": 0, "numAffected": 0, "numAtRisk": 262}]}, {"term": "Humerus fracture", "organSystem": "Injury, poisoning and procedural complications", "sourceVocabulary": "MedDRA (22.1)", "assessmentType": "NON_SYSTEMATIC_ASSESSMENT", "stats": [{"groupId": "EG000", "numEvents": 0, "numAffected": 0, "numAtRisk": 262}, {"groupId": "EG001", "numEvents": 1, "numAffected": 1, "numAtRisk": 264}, {"groupId": "EG002", "numEvents": 0, "numAffected": 0, "numAtRisk": 262}]}, {"term": "Radius fracture", "organSystem": "Injury, poisoning and procedural complications", "sourceVocabulary": "MedDRA (22.1)", "assessmentType": "NON_SYSTEMATIC_ASSESSMENT", "stats": [{"groupId": "EG000", "numEvents": 1, "numAffected": 1, "numAtRisk": 262}, {"groupId": "EG001", "numEvents": 0, "numAffected": 0, "numAtRisk": 264}, {"groupId": "EG002", "numEvents": 0, "numAffected": 0, "numAtRisk": 262}]}, {"term": "Rib fracture", "organSystem": "Injury, poisoning and procedural complications", "sourceVocabulary": "MedDRA (22.1)", "assessmentType": "NON_SYSTEMATIC_ASSESSMENT", "stats": [{"groupId": "EG000", "numEvents": 0, "numAffected": 0, "numAtRisk": 262}, {"groupId": "EG001", "numEvents": 0, "numAffected": 0, "numAtRisk": 264}, {"groupId": "EG002", "numEvents": 1, "numAffected": 1, "numAtRisk": 262}]}, {"term": "Scrotal haematoma", "organSystem": "Injury, poisoning and procedural complications", "sourceVocabulary": "MedDRA (22.1)", "assessmentType": "NON_SYSTEMATIC_ASSESSMENT", "stats": [{"groupId": "EG000", "numEvents": 1, "numAffected": 1, "numAtRisk": 262}, {"groupId": "EG001", "numEvents": 0, "numAffected": 0, "numAtRisk": 264}, {"groupId": "EG002", "numEvents": 0, "numAffected": 0, "numAtRisk": 262}]}, {"term": "Spinal compression fracture", "organSystem": "Injury, poisoning and procedural complications", "sourceVocabulary": "MedDRA (22.1)", "assessmentType": "NON_SYSTEMATIC_ASSESSMENT", "stats": [{"groupId": "EG000", "numEvents": 0, "numAffected": 0, "numAtRisk": 262}, {"groupId": "EG001", "numEvents": 1, "numAffected": 1, "numAtRisk": 264}, {"groupId": "EG002", "numEvents": 0, "numAffected": 0, "numAtRisk": 262}]}, {"term": "Tendon rupture", "organSystem": "Injury, poisoning and procedural complications", "sourceVocabulary": "MedDRA (22.1)", "assessmentType": "NON_SYSTEMATIC_ASSESSMENT", "stats": [{"groupId": "EG000", "numEvents": 1, "numAffected": 1, "numAtRisk": 262}, {"groupId": "EG001", "numEvents": 0, "numAffected": 0, "numAtRisk": 264}, {"groupId": "EG002", "numEvents": 0, "numAffected": 0, "numAtRisk": 262}]}, {"term": "Toxicity to various agents", "organSystem": "Injury, poisoning and procedural complications", "sourceVocabulary": "MedDRA (22.1)", "assessmentType": "NON_SYSTEMATIC_ASSESSMENT", "stats": [{"groupId": "EG000", "numEvents": 2, "numAffected": 2, "numAtRisk": 262}, {"groupId": "EG001", "numEvents": 0, "numAffected": 0, "numAtRisk": 264}, {"groupId": "EG002", "numEvents": 0, "numAffected": 0, "numAtRisk": 262}]}, {"term": "Vulvovaginal injury", "organSystem": "Injury, poisoning and procedural complications", "sourceVocabulary": "MedDRA (22.1)", "assessmentType": "NON_SYSTEMATIC_ASSESSMENT", "stats": [{"groupId": "EG000", "numEvents": 0, "numAffected": 0, "numAtRisk": 262}, {"groupId": "EG001", "numEvents": 1, "numAffected": 1, "numAtRisk": 264}, {"groupId": "EG002", "numEvents": 0, "numAffected": 0, "numAtRisk": 262}]}, {"term": "Meniscus injury", "organSystem": "Injury, poisoning and procedural complications", "sourceVocabulary": "MedDRA (22.1)", "assessmentType": "NON_SYSTEMATIC_ASSESSMENT", "stats": [{"groupId": "EG000", "numEvents": 1, "numAffected": 1, "numAtRisk": 262}, {"groupId": "EG001", "numEvents": 0, "numAffected": 0, "numAtRisk": 264}, {"groupId": "EG002", "numEvents": 0, "numAffected": 0, "numAtRisk": 262}]}, {"term": "Electrocardiogram QT prolonged", "organSystem": "Investigations", "sourceVocabulary": "MedDRA (22.1)", "assessmentType": "NON_SYSTEMATIC_ASSESSMENT", "stats": [{"groupId": "EG000", "numEvents": 0, "numAffected": 0, "numAtRisk": 262}, {"groupId": "EG001", "numEvents": 1, "numAffected": 1, "numAtRisk": 264}, {"groupId": "EG002", "numEvents": 0, "numAffected": 0, "numAtRisk": 262}]}, {"term": "Transaminases increased", "organSystem": "Investigations", "sourceVocabulary": "MedDRA (22.1)", "assessmentType": "NON_SYSTEMATIC_ASSESSMENT", "stats": [{"groupId": "EG000", "numEvents": 0, "numAffected": 0, "numAtRisk": 262}, {"groupId": "EG001", "numEvents": 1, "numAffected": 1, "numAtRisk": 264}, {"groupId": "EG002", "numEvents": 0, "numAffected": 0, "numAtRisk": 262}]}, {"term": "Angiocardiogram", "organSystem": "Investigations", "sourceVocabulary": "MedDRA (22.1)", "assessmentType": "NON_SYSTEMATIC_ASSESSMENT", "stats": [{"groupId": "EG000", "numEvents": 0, "numAffected": 0, "numAtRisk": 262}, {"groupId": "EG001", "numEvents": 1, "numAffected": 1, "numAtRisk": 264}, {"groupId": "EG002", "numEvents": 0, "numAffected": 0, "numAtRisk": 262}]}, {"term": "Dehydration", "organSystem": "Metabolism and nutrition disorders", "sourceVocabulary": "MedDRA (22.1)", "assessmentType": "NON_SYSTEMATIC_ASSESSMENT", "stats": [{"groupId": "EG000", "numEvents": 1, "numAffected": 1, "numAtRisk": 262}, {"groupId": "EG001", "numEvents": 0, "numAffected": 0, "numAtRisk": 264}, {"groupId": "EG002", "numEvents": 0, "numAffected": 0, "numAtRisk": 262}]}, {"term": "Hyperglycaemia", "organSystem": "Metabolism and nutrition disorders", "sourceVocabulary": "MedDRA (22.1)", "assessmentType": "NON_SYSTEMATIC_ASSESSMENT", "stats": [{"groupId": "EG000", "numEvents": 1, "numAffected": 1, "numAtRisk": 262}, {"groupId": "EG001", "numEvents": 0, "numAffected": 0, "numAtRisk": 264}, {"groupId": "EG002", "numEvents": 1, "numAffected": 1, "numAtRisk": 262}]}, {"term": "Hypoglycaemia", "organSystem": "Metabolism and nutrition disorders", "sourceVocabulary": "MedDRA (22.1)", "assessmentType": "NON_SYSTEMATIC_ASSESSMENT", "stats": [{"groupId": "EG000", "numEvents": 0, "numAffected": 0, "numAtRisk": 262}, {"groupId": "EG001", "numEvents": 1, "numAffected": 1, "numAtRisk": 264}, {"groupId": "EG002", "numEvents": 0, "numAffected": 0, "numAtRisk": 262}]}, {"term": "Hyponatraemia", "organSystem": "Metabolism and nutrition disorders", "sourceVocabulary": "MedDRA (22.1)", "assessmentType": "NON_SYSTEMATIC_ASSESSMENT", "stats": [{"groupId": "EG000", "numEvents": 0, "numAffected": 0, "numAtRisk": 262}, {"groupId": "EG001", "numEvents": 1, "numAffected": 1, "numAtRisk": 264}, {"groupId": "EG002", "numEvents": 0, "numAffected": 0, "numAtRisk": 262}]}, {"term": "Arthralgia", "organSystem": "Musculoskeletal and connective tissue disorders", "sourceVocabulary": "MedDRA (22.1)", "assessmentType": "NON_SYSTEMATIC_ASSESSMENT", "stats": [{"groupId": "EG000", "numEvents": 0, "numAffected": 0, "numAtRisk": 262}, {"groupId": "EG001", "numEvents": 1, "numAffected": 1, "numAtRisk": 264}, {"groupId": "EG002", "numEvents": 0, "numAffected": 0, "numAtRisk": 262}]}, {"term": "Back pain", "organSystem": "Musculoskeletal and connective tissue disorders", "sourceVocabulary": "MedDRA (22.1)", "assessmentType": "NON_SYSTEMATIC_ASSESSMENT", "stats": [{"groupId": "EG000", "numEvents": 3, "numAffected": 2, "numAtRisk": 262}, {"groupId": "EG001", "numEvents": 0, "numAffected": 0, "numAtRisk": 264}, {"groupId": "EG002", "numEvents": 0, "numAffected": 0, "numAtRisk": 262}]}, {"term": "Osteoarthritis", "organSystem": "Musculoskeletal and connective tissue disorders", "sourceVocabulary": "MedDRA (22.1)", "assessmentType": "NON_SYSTEMATIC_ASSESSMENT", "stats": [{"groupId": "EG000", "numEvents": 1, "numAffected": 1, "numAtRisk": 262}, {"groupId": "EG001", "numEvents": 0, "numAffected": 0, "numAtRisk": 264}, {"groupId": "EG002", "numEvents": 1, "numAffected": 1, "numAtRisk": 262}]}, {"term": "Psoriatic arthropathy", "organSystem": "Musculoskeletal and connective tissue disorders", "sourceVocabulary": "MedDRA (22.1)", "assessmentType": "NON_SYSTEMATIC_ASSESSMENT", "stats": [{"groupId": "EG000", "numEvents": 1, "numAffected": 1, "numAtRisk": 262}, {"groupId": "EG001", "numEvents": 0, "numAffected": 0, "numAtRisk": 264}, {"groupId": "EG002", "numEvents": 0, "numAffected": 0, "numAtRisk": 262}]}, {"term": "Laryngeal cancer", "organSystem": "Neoplasms benign, malignant and unspecified (incl cysts and polyps)", "sourceVocabulary": "MedDRA (22.1)", "assessmentType": "NON_SYSTEMATIC_ASSESSMENT", "stats": [{"groupId": "EG000", "numEvents": 0, "numAffected": 0, "numAtRisk": 262}, {"groupId": "EG001", "numEvents": 1, "numAffected": 1, "numAtRisk": 264}, {"groupId": "EG002", "numEvents": 0, "numAffected": 0, "numAtRisk": 262}]}, {"term": "Non-Hodgkin's lymphoma", "organSystem": "Neoplasms benign, malignant and unspecified (incl cysts and polyps)", "sourceVocabulary": "MedDRA (22.1)", "assessmentType": "NON_SYSTEMATIC_ASSESSMENT", "stats": [{"groupId": "EG000", "numEvents": 1, "numAffected": 1, "numAtRisk": 262}, {"groupId": "EG001", "numEvents": 0, "numAffected": 0, "numAtRisk": 264}, {"groupId": "EG002", "numEvents": 0, "numAffected": 0, "numAtRisk": 262}]}, {"term": "Oesophageal carcinoma", "organSystem": "Neoplasms benign, malignant and unspecified (incl cysts and polyps)", "sourceVocabulary": "MedDRA (22.1)", "assessmentType": "NON_SYSTEMATIC_ASSESSMENT", "stats": [{"groupId": "EG000", "numEvents": 0, "numAffected": 0, "numAtRisk": 262}, {"groupId": "EG001", "numEvents": 0, "numAffected": 0, "numAtRisk": 264}, {"groupId": "EG002", "numEvents": 1, "numAffected": 1, "numAtRisk": 262}]}, {"term": "Phaeochromocytoma", "organSystem": "Neoplasms benign, malignant and unspecified (incl cysts and polyps)", "sourceVocabulary": "MedDRA (22.1)", "assessmentType": "NON_SYSTEMATIC_ASSESSMENT", "stats": [{"groupId": "EG000", "numEvents": 0, "numAffected": 0, "numAtRisk": 262}, {"groupId": "EG001", "numEvents": 0, "numAffected": 0, "numAtRisk": 264}, {"groupId": "EG002", "numEvents": 1, "numAffected": 1, "numAtRisk": 262}]}, {"term": "Lung neoplasm malignant", "organSystem": "Neoplasms benign, malignant and unspecified (incl cysts and polyps)", "sourceVocabulary": "MedDRA (22.1)", "assessmentType": "NON_SYSTEMATIC_ASSESSMENT", "stats": [{"groupId": "EG000", "numEvents": 0, "numAffected": 0, "numAtRisk": 262}, {"groupId": "EG001", "numEvents": 0, "numAffected": 0, "numAtRisk": 264}, {"groupId": "EG002", "numEvents": 1, "numAffected": 1, "numAtRisk": 262}]}, {"term": "Diabetic neuropathy", "organSystem": "Nervous system disorders", "sourceVocabulary": "MedDRA (22.1)", "assessmentType": "NON_SYSTEMATIC_ASSESSMENT", "stats": [{"groupId": "EG000", "numEvents": 1, "numAffected": 1, "numAtRisk": 262}, {"groupId": "EG001", "numEvents": 0, "numAffected": 0, "numAtRisk": 264}, {"groupId": "EG002", "numEvents": 0, "numAffected": 0, "numAtRisk": 262}]}, {"term": "Haemorrhage intracranial", "organSystem": "Nervous system disorders", "sourceVocabulary": "MedDRA (22.1)", "assessmentType": "NON_SYSTEMATIC_ASSESSMENT", "stats": [{"groupId": "EG000", "numEvents": 0, "numAffected": 0, "numAtRisk": 262}, {"groupId": "EG001", "numEvents": 0, "numAffected": 0, "numAtRisk": 264}, {"groupId": "EG002", "numEvents": 1, "numAffected": 1, "numAtRisk": 262}]}, {"term": "Sciatica", "organSystem": "Nervous system disorders", "sourceVocabulary": "MedDRA (22.1)", "assessmentType": "NON_SYSTEMATIC_ASSESSMENT", "stats": [{"groupId": "EG000", "numEvents": 0, "numAffected": 0, "numAtRisk": 262}, {"groupId": "EG001", "numEvents": 1, "numAffected": 1, "numAtRisk": 264}, {"groupId": "EG002", "numEvents": 0, "numAffected": 0, "numAtRisk": 262}]}, {"term": "Syncope", "organSystem": "Nervous system disorders", "sourceVocabulary": "MedDRA (22.1)", "assessmentType": "NON_SYSTEMATIC_ASSESSMENT", "stats": [{"groupId": "EG000", "numEvents": 1, "numAffected": 1, "numAtRisk": 262}, {"groupId": "EG001", "numEvents": 2, "numAffected": 2, "numAtRisk": 264}, {"groupId": "EG002", "numEvents": 0, "numAffected": 0, "numAtRisk": 262}]}, {"term": "Thalamus haemorrhage", "organSystem": "Nervous system disorders", "sourceVocabulary": "MedDRA (22.1)", "assessmentType": "NON_SYSTEMATIC_ASSESSMENT", "stats": [{"groupId": "EG000", "numEvents": 1, "numAffected": 1, "numAtRisk": 262}, {"groupId": "EG001", "numEvents": 0, "numAffected": 0, "numAtRisk": 264}, {"groupId": "EG002", "numEvents": 1, "numAffected": 1, "numAtRisk": 262}]}, {"term": "Insomnia", "organSystem": "Psychiatric disorders", "sourceVocabulary": "MedDRA (22.1)", "assessmentType": "NON_SYSTEMATIC_ASSESSMENT", "stats": [{"groupId": "EG000", "numEvents": 0, "numAffected": 0, "numAtRisk": 262}, {"groupId": "EG001", "numEvents": 1, "numAffected": 1, "numAtRisk": 264}, {"groupId": "EG002", "numEvents": 0, "numAffected": 0, "numAtRisk": 262}]}, {"term": "Renal impairment", "organSystem": "Renal and urinary disorders", "sourceVocabulary": "MedDRA (22.1)", "assessmentType": "NON_SYSTEMATIC_ASSESSMENT", "stats": [{"groupId": "EG000", "numEvents": 0, "numAffected": 0, "numAtRisk": 262}, {"groupId": "EG001", "numEvents": 0, "numAffected": 0, "numAtRisk": 264}, {"groupId": "EG002", "numEvents": 2, "numAffected": 2, "numAtRisk": 262}]}, {"term": "Acute kidney injury", "organSystem": "Renal and urinary disorders", "sourceVocabulary": "MedDRA (22.1)", "assessmentType": "NON_SYSTEMATIC_ASSESSMENT", "stats": [{"groupId": "EG000", "numEvents": 3, "numAffected": 3, "numAtRisk": 262}, {"groupId": "EG001", "numEvents": 3, "numAffected": 3, "numAtRisk": 264}, {"groupId": "EG002", "numEvents": 4, "numAffected": 4, "numAtRisk": 262}]}, {"term": "Ureterolithiasis", "organSystem": "Renal and urinary disorders", "sourceVocabulary": "MedDRA (22.1)", "assessmentType": "NON_SYSTEMATIC_ASSESSMENT", "stats": [{"groupId": "EG000", "numEvents": 1, "numAffected": 1, "numAtRisk": 262}, {"groupId": "EG001", "numEvents": 0, "numAffected": 0, "numAtRisk": 264}, {"groupId": "EG002", "numEvents": 0, "numAffected": 0, "numAtRisk": 262}]}, {"term": "Acute respiratory failure", "organSystem": "Respiratory, thoracic and mediastinal disorders", "sourceVocabulary": "MedDRA (22.1)", "assessmentType": "NON_SYSTEMATIC_ASSESSMENT", "stats": [{"groupId": "EG000", "numEvents": 0, "numAffected": 0, "numAtRisk": 262}, {"groupId": "EG001", "numEvents": 3, "numAffected": 2, "numAtRisk": 264}, {"groupId": "EG002", "numEvents": 1, "numAffected": 1, "numAtRisk": 262}]}, {"term": "Chronic obstructive pulmonary disease", "organSystem": "Respiratory, thoracic and mediastinal disorders", "sourceVocabulary": "MedDRA (22.1)", "assessmentType": "NON_SYSTEMATIC_ASSESSMENT", "stats": [{"groupId": "EG000", "numEvents": 1, "numAffected": 1, "numAtRisk": 262}, {"groupId": "EG001", "numEvents": 6, "numAffected": 4, "numAtRisk": 264}, {"groupId": "EG002", "numEvents": 1, "numAffected": 1, "numAtRisk": 262}]}, {"term": "Epistaxis", "organSystem": "Respiratory, thoracic and mediastinal disorders", "sourceVocabulary": "MedDRA (22.1)", "assessmentType": "NON_SYSTEMATIC_ASSESSMENT", "stats": [{"groupId": "EG000", "numEvents": 1, "numAffected": 1, "numAtRisk": 262}, {"groupId": "EG001", "numEvents": 1, "numAffected": 1, "numAtRisk": 264}, {"groupId": "EG002", "numEvents": 0, "numAffected": 0, "numAtRisk": 262}]}, {"term": "Pleural effusion", "organSystem": "Respiratory, thoracic and mediastinal disorders", "sourceVocabulary": "MedDRA (22.1)", "assessmentType": "NON_SYSTEMATIC_ASSESSMENT", "stats": [{"groupId": "EG000", "numEvents": 1, "numAffected": 1, "numAtRisk": 262}, {"groupId": "EG001", "numEvents": 0, "numAffected": 0, "numAtRisk": 264}, {"groupId": "EG002", "numEvents": 0, "numAffected": 0, "numAtRisk": 262}]}, {"term": "Pulmonary embolism", "organSystem": "Respiratory, thoracic and mediastinal disorders", "sourceVocabulary": "MedDRA (22.1)", "assessmentType": "NON_SYSTEMATIC_ASSESSMENT", "stats": [{"groupId": "EG000", "numEvents": 0, "numAffected": 0, "numAtRisk": 262}, {"groupId": "EG001", "numEvents": 0, "numAffected": 0, "numAtRisk": 264}, {"groupId": "EG002", "numEvents": 1, "numAffected": 1, "numAtRisk": 262}]}, {"term": "Pulmonary oedema", "organSystem": "Respiratory, thoracic and mediastinal disorders", "sourceVocabulary": "MedDRA (22.1)", "assessmentType": "NON_SYSTEMATIC_ASSESSMENT", "stats": [{"groupId": "EG000", "numEvents": 1, "numAffected": 1, "numAtRisk": 262}, {"groupId": "EG001", "numEvents": 1, "numAffected": 1, "numAtRisk": 264}, {"groupId": "EG002", "numEvents": 0, "numAffected": 0, "numAtRisk": 262}]}, {"term": "Respiratory failure", "organSystem": "Respiratory, thoracic and mediastinal disorders", "sourceVocabulary": "MedDRA (22.1)", "assessmentType": "NON_SYSTEMATIC_ASSESSMENT", "stats": [{"groupId": "EG000", "numEvents": 1, "numAffected": 1, "numAtRisk": 262}, {"groupId": "EG001", "numEvents": 1, "numAffected": 1, "numAtRisk": 264}, {"groupId": "EG002", "numEvents": 0, "numAffected": 0, "numAtRisk": 262}]}, {"term": "Upper respiratory tract inflammation", "organSystem": "Respiratory, thoracic and mediastinal disorders", "sourceVocabulary": "MedDRA (22.1)", "assessmentType": "NON_SYSTEMATIC_ASSESSMENT", "stats": [{"groupId": "EG000", "numEvents": 0, "numAffected": 0, "numAtRisk": 262}, {"groupId": "EG001", "numEvents": 1, "numAffected": 1, "numAtRisk": 264}, {"groupId": "EG002", "numEvents": 0, "numAffected": 0, "numAtRisk": 262}]}, {"term": "Stevens-Johnson syndrome", "organSystem": "Skin and subcutaneous tissue disorders", "sourceVocabulary": "MedDRA (22.1)", "assessmentType": "NON_SYSTEMATIC_ASSESSMENT", "stats": [{"groupId": "EG000", "numEvents": 0, "numAffected": 0, "numAtRisk": 262}, {"groupId": "EG001", "numEvents": 1, "numAffected": 1, "numAtRisk": 264}, {"groupId": "EG002", "numEvents": 0, "numAffected": 0, "numAtRisk": 262}]}, {"term": "Diabetic foot", "organSystem": "Skin and subcutaneous tissue disorders", "sourceVocabulary": "MedDRA (22.1)", "assessmentType": "NON_SYSTEMATIC_ASSESSMENT", "stats": [{"groupId": "EG000", "numEvents": 0, "numAffected": 0, "numAtRisk": 262}, {"groupId": "EG001", "numEvents": 0, "numAffected": 0, "numAtRisk": 264}, {"groupId": "EG002", "numEvents": 2, "numAffected": 2, "numAtRisk": 262}]}, {"term": "Inguinal hernia repair", "organSystem": "Surgical and medical procedures", "sourceVocabulary": "MedDRA (22.1)", "assessmentType": "NON_SYSTEMATIC_ASSESSMENT", "stats": [{"groupId": "EG000", "numEvents": 1, "numAffected": 1, "numAtRisk": 262}, {"groupId": "EG001", "numEvents": 0, "numAffected": 0, "numAtRisk": 264}, {"groupId": "EG002", "numEvents": 0, "numAffected": 0, "numAtRisk": 262}]}, {"term": "Leg amputation", "organSystem": "Surgical and medical procedures", "sourceVocabulary": "MedDRA (22.1)", "assessmentType": "NON_SYSTEMATIC_ASSESSMENT", "stats": [{"groupId": "EG000", "numEvents": 1, "numAffected": 1, "numAtRisk": 262}, {"groupId": "EG001", "numEvents": 0, "numAffected": 0, "numAtRisk": 264}, {"groupId": "EG002", "numEvents": 0, "numAffected": 0, "numAtRisk": 262}]}, {"term": "Cardiac pacemaker replacement", "organSystem": "Surgical and medical procedures", "sourceVocabulary": "MedDRA (22.1)", "assessmentType": "NON_SYSTEMATIC_ASSESSMENT", "stats": [{"groupId": "EG000", "numEvents": 0, "numAffected": 0, "numAtRisk": 262}, {"groupId": "EG001", "numEvents": 0, "numAffected": 0, "numAtRisk": 264}, {"groupId": "EG002", "numEvents": 1, "numAffected": 1, "numAtRisk": 262}]}, {"term": "Aortic aneurysm", "organSystem": "Vascular disorders", "sourceVocabulary": "MedDRA (22.1)", "assessmentType": "NON_SYSTEMATIC_ASSESSMENT", "stats": [{"groupId": "EG000", "numEvents": 0, "numAffected": 0, "numAtRisk": 262}, {"groupId": "EG001", "numEvents": 1, "numAffected": 1, "numAtRisk": 264}, {"groupId": "EG002", "numEvents": 0, "numAffected": 0, "numAtRisk": 262}]}, {"term": "Aortic stenosis", "organSystem": "Vascular disorders", "sourceVocabulary": "MedDRA (22.1)", "assessmentType": "NON_SYSTEMATIC_ASSESSMENT", "stats": [{"groupId": "EG000", "numEvents": 2, "numAffected": 1, "numAtRisk": 262}, {"groupId": "EG001", "numEvents": 1, "numAffected": 1, "numAtRisk": 264}, {"groupId": "EG002", "numEvents": 0, "numAffected": 0, "numAtRisk": 262}]}, {"term": "Hypertension", "organSystem": "Vascular disorders", "sourceVocabulary": "MedDRA (22.1)", "assessmentType": "NON_SYSTEMATIC_ASSESSMENT", "stats": [{"groupId": "EG000", "numEvents": 0, "numAffected": 0, "numAtRisk": 262}, {"groupId": "EG001", "numEvents": 0, "numAffected": 0, "numAtRisk": 264}, {"groupId": "EG002", "numEvents": 2, "numAffected": 2, "numAtRisk": 262}]}, {"term": "Hypotension", "organSystem": "Vascular disorders", "sourceVocabulary": "MedDRA (22.1)", "assessmentType": "NON_SYSTEMATIC_ASSESSMENT", "stats": [{"groupId": "EG000", "numEvents": 2, "numAffected": 2, "numAtRisk": 262}, {"groupId": "EG001", "numEvents": 3, "numAffected": 3, "numAtRisk": 264}, {"groupId": "EG002", "numEvents": 4, "numAffected": 4, "numAtRisk": 262}]}, {"term": "Peripheral ischaemia", "organSystem": "Vascular disorders", "sourceVocabulary": "MedDRA (22.1)", "assessmentType": "NON_SYSTEMATIC_ASSESSMENT", "stats": [{"groupId": "EG000", "numEvents": 1, "numAffected": 1, "numAtRisk": 262}, {"groupId": "EG001", "numEvents": 0, "numAffected": 0, "numAtRisk": 264}, {"groupId": "EG002", "numEvents": 0, "numAffected": 0, "numAtRisk": 262}]}, {"term": "Deep vein thrombosis", "organSystem": "Vascular disorders", "sourceVocabulary": "MedDRA (22.1)", "assessmentType": "NON_SYSTEMATIC_ASSESSMENT", "stats": [{"groupId": "EG000", "numEvents": 0, "numAffected": 0, "numAtRisk": 262}, {"groupId": "EG001", "numEvents": 0, "numAffected": 0, "numAtRisk": 264}, {"groupId": "EG002", "numEvents": 1, "numAffected": 1, "numAtRisk": 262}]}, {"term": "Peripheral arterial occlusive disease", "organSystem": "Vascular disorders", "sourceVocabulary": "MedDRA (22.1)", "assessmentType": "NON_SYSTEMATIC_ASSESSMENT", "stats": [{"groupId": "EG000", "numEvents": 1, "numAffected": 1, "numAtRisk": 262}, {"groupId": "EG001", "numEvents": 0, "numAffected": 0, "numAtRisk": 264}, {"groupId": "EG002", "numEvents": 0, "numAffected": 0, "numAtRisk": 262}]}, {"term": "Peripheral artery stenosis", "organSystem": "Vascular disorders", "sourceVocabulary": "MedDRA (22.1)", "assessmentType": "NON_SYSTEMATIC_ASSESSMENT", "stats": [{"groupId": "EG000", "numEvents": 0, "numAffected": 0, "numAtRisk": 262}, {"groupId": "EG001", "numEvents": 1, "numAffected": 1, "numAtRisk": 264}, {"groupId": "EG002", "numEvents": 0, "numAffected": 0, "numAtRisk": 262}]}, {"term": "Device malfunction", "organSystem": "Product Issues", "sourceVocabulary": "MedDRA (22.1)", "assessmentType": "NON_SYSTEMATIC_ASSESSMENT", "stats": [{"groupId": "EG000", "numEvents": 0, "numAffected": 0, "numAtRisk": 262}, {"groupId": "EG001", "numEvents": 0, "numAffected": 0, "numAtRisk": 264}, {"groupId": "EG002", "numEvents": 1, "numAffected": 1, "numAtRisk": 262}]}], "otherEvents": [{"term": "Anaemia", "organSystem": "Blood and lymphatic system disorders", "sourceVocabulary": "MedDRA (22.1)", "assessmentType": "NON_SYSTEMATIC_ASSESSMENT", "stats": [{"groupId": "EG000", "numEvents": 6, "numAffected": 6, "numAtRisk": 262}, {"groupId": "EG001", "numEvents": 13, "numAffected": 13, "numAtRisk": 264}, {"groupId": "EG002", "numEvents": 9, "numAffected": 9, "numAtRisk": 262}]}, {"term": "Atrial fibrillation", "organSystem": "Cardiac disorders", "sourceVocabulary": "MedDRA (22.1)", "assessmentType": "NON_SYSTEMATIC_ASSESSMENT", "stats": [{"groupId": "EG000", "numEvents": 8, "numAffected": 7, "numAtRisk": 262}, {"groupId": "EG001", "numEvents": 9, "numAffected": 7, "numAtRisk": 264}, {"groupId": "EG002", "numEvents": 6, "numAffected": 6, "numAtRisk": 262}]}, {"term": "Coronary artery disease", "organSystem": "Cardiac disorders", "sourceVocabulary": "MedDRA (22.1)", "assessmentType": "NON_SYSTEMATIC_ASSESSMENT", "stats": [{"groupId": "EG000", "numEvents": 0, "numAffected": 0, "numAtRisk": 262}, {"groupId": "EG001", "numEvents": 0, "numAffected": 0, "numAtRisk": 264}, {"groupId": "EG002", "numEvents": 3, "numAffected": 3, "numAtRisk": 262}]}, {"term": "Palpitations", "organSystem": "Cardiac disorders", "sourceVocabulary": "MedDRA (22.1)", "assessmentType": "NON_SYSTEMATIC_ASSESSMENT", "stats": [{"groupId": "EG000", "numEvents": 5, "numAffected": 4, "numAtRisk": 262}, {"groupId": "EG001", "numEvents": 0, "numAffected": 0, "numAtRisk": 264}, {"groupId": "EG002", "numEvents": 3, "numAffected": 3, "numAtRisk": 262}]}, {"term": "Ventricular extrasystoles", "organSystem": "Cardiac disorders", "sourceVocabulary": "MedDRA (22.1)", "assessmentType": "NON_SYSTEMATIC_ASSESSMENT", "stats": [{"groupId": "EG000", "numEvents": 1, "numAffected": 1, "numAtRisk": 262}, {"groupId": "EG001", "numEvents": 4, "numAffected": 4, "numAtRisk": 264}, {"groupId": "EG002", "numEvents": 1, "numAffected": 1, "numAtRisk": 262}]}, {"term": "Abdominal pain", "organSystem": "Gastrointestinal disorders", "sourceVocabulary": "MedDRA (22.1)", "assessmentType": "NON_SYSTEMATIC_ASSESSMENT", "stats": [{"groupId": "EG000", "numEvents": 1, "numAffected": 1, "numAtRisk": 262}, {"groupId": "EG001", "numEvents": 3, "numAffected": 3, "numAtRisk": 264}, {"groupId": "EG002", "numEvents": 4, "numAffected": 4, "numAtRisk": 262}]}, {"term": "Abdominal pain upper", "organSystem": "Gastrointestinal disorders", "sourceVocabulary": "MedDRA (22.1)", "assessmentType": "NON_SYSTEMATIC_ASSESSMENT", "stats": [{"groupId": "EG000", "numEvents": 5, "numAffected": 5, "numAtRisk": 262}, {"groupId": "EG001", "numEvents": 1, "numAffected": 1, "numAtRisk": 264}, {"groupId": "EG002", "numEvents": 6, "numAffected": 6, "numAtRisk": 262}]}, {"term": "Constipation", "organSystem": "Gastrointestinal disorders", "sourceVocabulary": "MedDRA (22.1)", "assessmentType": "NON_SYSTEMATIC_ASSESSMENT", "stats": [{"groupId": "EG000", "numEvents": 2, "numAffected": 2, "numAtRisk": 262}, {"groupId": "EG001", "numEvents": 9, "numAffected": 8, "numAtRisk": 264}, {"groupId": "EG002", "numEvents": 6, "numAffected": 4, "numAtRisk": 262}]}, {"term": "Diarrhoea", "organSystem": "Gastrointestinal disorders", "sourceVocabulary": "MedDRA (22.1)", "assessmentType": "NON_SYSTEMATIC_ASSESSMENT", "stats": [{"groupId": "EG000", "numEvents": 3, "numAffected": 3, "numAtRisk": 262}, {"groupId": "EG001", "numEvents": 5, "numAffected": 5, "numAtRisk": 264}, {"groupId": "EG002", "numEvents": 5, "numAffected": 5, "numAtRisk": 262}]}, {"term": "Dyspepsia", "organSystem": "Gastrointestinal disorders", "sourceVocabulary": "MedDRA (22.1)", "assessmentType": "NON_SYSTEMATIC_ASSESSMENT", "stats": [{"groupId": "EG000", "numEvents": 4, "numAffected": 4, "numAtRisk": 262}, {"groupId": "EG001", "numEvents": 7, "numAffected": 6, "numAtRisk": 264}, {"groupId": "EG002", "numEvents": 3, "numAffected": 3, "numAtRisk": 262}]}, {"term": "Gastrooesophageal reflux disease", "organSystem": "Gastrointestinal disorders", "sourceVocabulary": "MedDRA (22.1)", "assessmentType": "NON_SYSTEMATIC_ASSESSMENT", "stats": [{"groupId": "EG000", "numEvents": 3, "numAffected": 3, "numAtRisk": 262}, {"groupId": "EG001", "numEvents": 4, "numAffected": 4, "numAtRisk": 264}, {"groupId": "EG002", "numEvents": 1, "numAffected": 1, "numAtRisk": 262}]}, {"term": "Nausea", "organSystem": "Gastrointestinal disorders", "sourceVocabulary": "MedDRA (22.1)", "assessmentType": "NON_SYSTEMATIC_ASSESSMENT", "stats": [{"groupId": "EG000", "numEvents": 10, "numAffected": 8, "numAtRisk": 262}, {"groupId": "EG001", "numEvents": 4, "numAffected": 4, "numAtRisk": 264}, {"groupId": "EG002", "numEvents": 2, "numAffected": 2, "numAtRisk": 262}]}, {"term": "Vomiting", "organSystem": "Gastrointestinal disorders", "sourceVocabulary": "MedDRA (22.1)", "assessmentType": "NON_SYSTEMATIC_ASSESSMENT", "stats": [{"groupId": "EG000", "numEvents": 4, "numAffected": 3, "numAtRisk": 262}, {"groupId": "EG001", "numEvents": 5, "numAffected": 4, "numAtRisk": 264}, {"groupId": "EG002", "numEvents": 0, "numAffected": 0, "numAtRisk": 262}]}, {"term": "Asthenia", "organSystem": "General disorders", "sourceVocabulary": "MedDRA (22.1)", "assessmentType": "NON_SYSTEMATIC_ASSESSMENT", "stats": [{"groupId": "EG000", "numEvents": 3, "numAffected": 3, "numAtRisk": 262}, {"groupId": "EG001", "numEvents": 1, "numAffected": 1, "numAtRisk": 264}, {"groupId": "EG002", "numEvents": 4, "numAffected": 3, "numAtRisk": 262}]}, {"term": "Chest pain", "organSystem": "General disorders", "sourceVocabulary": "MedDRA (22.1)", "assessmentType": "NON_SYSTEMATIC_ASSESSMENT", "stats": [{"groupId": "EG000", "numEvents": 3, "numAffected": 2, "numAtRisk": 262}, {"groupId": "EG001", "numEvents": 4, "numAffected": 4, "numAtRisk": 264}, {"groupId": "EG002", "numEvents": 4, "numAffected": 3, "numAtRisk": 262}]}, {"term": "Fatigue", "organSystem": "General disorders", "sourceVocabulary": "MedDRA (22.1)", "assessmentType": "NON_SYSTEMATIC_ASSESSMENT", "stats": [{"groupId": "EG000", "numEvents": 4, "numAffected": 3, "numAtRisk": 262}, {"groupId": "EG001", "numEvents": 8, "numAffected": 7, "numAtRisk": 264}, {"groupId": "EG002", "numEvents": 3, "numAffected": 3, "numAtRisk": 262}]}, {"term": "Oedema", "organSystem": "General disorders", "sourceVocabulary": "MedDRA (22.1)", "assessmentType": "NON_SYSTEMATIC_ASSESSMENT", "stats": [{"groupId": "EG000", "numEvents": 2, "numAffected": 2, "numAtRisk": 262}, {"groupId": "EG001", "numEvents": 3, "numAffected": 3, "numAtRisk": 264}, {"groupId": "EG002", "numEvents": 0, "numAffected": 0, "numAtRisk": 262}]}, {"term": "Oedema peripheral", "organSystem": "General disorders", "sourceVocabulary": "MedDRA (22.1)", "assessmentType": "NON_SYSTEMATIC_ASSESSMENT", "stats": [{"groupId": "EG000", "numEvents": 17, "numAffected": 16, "numAtRisk": 262}, {"groupId": "EG001", "numEvents": 13, "numAffected": 10, "numAtRisk": 264}, {"groupId": "EG002", "numEvents": 10, "numAffected": 8, "numAtRisk": 262}]}, {"term": "Pyrexia", "organSystem": "General disorders", "sourceVocabulary": "MedDRA (22.1)", "assessmentType": "NON_SYSTEMATIC_ASSESSMENT", "stats": [{"groupId": "EG000", "numEvents": 2, "numAffected": 2, "numAtRisk": 262}, {"groupId": "EG001", "numEvents": 4, "numAffected": 4, "numAtRisk": 264}, {"groupId": "EG002", "numEvents": 5, "numAffected": 5, "numAtRisk": 262}]}, {"term": "Bronchitis", "organSystem": "Infections and infestations", "sourceVocabulary": "MedDRA (22.1)", "assessmentType": "NON_SYSTEMATIC_ASSESSMENT", "stats": [{"groupId": "EG000", "numEvents": 3, "numAffected": 3, "numAtRisk": 262}, {"groupId": "EG001", "numEvents": 6, "numAffected": 5, "numAtRisk": 264}, {"groupId": "EG002", "numEvents": 7, "numAffected": 7, "numAtRisk": 262}]}, {"term": "Gastroenteritis", "organSystem": "Infections and infestations", "sourceVocabulary": "MedDRA (22.1)", "assessmentType": "NON_SYSTEMATIC_ASSESSMENT", "stats": [{"groupId": "EG000", "numEvents": 5, "numAffected": 4, "numAtRisk": 262}, {"groupId": "EG001", "numEvents": 5, "numAffected": 5, "numAtRisk": 264}, {"groupId": "EG002", "numEvents": 2, "numAffected": 2, "numAtRisk": 262}]}, {"term": "Influenza", "organSystem": "Infections and infestations", "sourceVocabulary": "MedDRA (22.1)", "assessmentType": "NON_SYSTEMATIC_ASSESSMENT", "stats": [{"groupId": "EG000", "numEvents": 3, "numAffected": 3, "numAtRisk": 262}, {"groupId": "EG001", "numEvents": 4, "numAffected": 4, "numAtRisk": 264}, {"groupId": "EG002", "numEvents": 4, "numAffected": 3, "numAtRisk": 262}]}, {"term": "Nasopharyngitis", "organSystem": "Infections and infestations", "sourceVocabulary": "MedDRA (22.1)", "assessmentType": "NON_SYSTEMATIC_ASSESSMENT", "stats": [{"groupId": "EG000", "numEvents": 9, "numAffected": 8, "numAtRisk": 262}, {"groupId": "EG001", "numEvents": 7, "numAffected": 7, "numAtRisk": 264}, {"groupId": "EG002", "numEvents": 7, "numAffected": 7, "numAtRisk": 262}]}, {"term": "Pneumonia", "organSystem": "Infections and infestations", "sourceVocabulary": "MedDRA (22.1)", "assessmentType": "NON_SYSTEMATIC_ASSESSMENT", "stats": [{"groupId": "EG000", "numEvents": 2, "numAffected": 2, "numAtRisk": 262}, {"groupId": "EG001", "numEvents": 2, "numAffected": 2, "numAtRisk": 264}, {"groupId": "EG002", "numEvents": 5, "numAffected": 5, "numAtRisk": 262}]}, {"term": "Upper respiratory tract infection", "organSystem": "Infections and infestations", "sourceVocabulary": "MedDRA (22.1)", "assessmentType": "NON_SYSTEMATIC_ASSESSMENT", "stats": [{"groupId": "EG000", "numEvents": 2, "numAffected": 2, "numAtRisk": 262}, {"groupId": "EG001", "numEvents": 4, "numAffected": 4, "numAtRisk": 264}, {"groupId": "EG002", "numEvents": 6, "numAffected": 6, "numAtRisk": 262}]}, {"term": "Urinary tract infection", "organSystem": "Infections and infestations", "sourceVocabulary": "MedDRA (22.1)", "assessmentType": "NON_SYSTEMATIC_ASSESSMENT", "stats": [{"groupId": "EG000", "numEvents": 1, "numAffected": 1, "numAtRisk": 262}, {"groupId": "EG001", "numEvents": 6, "numAffected": 6, "numAtRisk": 264}, {"groupId": "EG002", "numEvents": 4, "numAffected": 4, "numAtRisk": 262}]}, {"term": "Respiratory tract infection viral", "organSystem": "Infections and infestations", "sourceVocabulary": "MedDRA (22.1)", "assessmentType": "NON_SYSTEMATIC_ASSESSMENT", "stats": [{"groupId": "EG000", "numEvents": 3, "numAffected": 3, "numAtRisk": 262}, {"groupId": "EG001", "numEvents": 1, "numAffected": 1, "numAtRisk": 264}, {"groupId": "EG002", "numEvents": 2, "numAffected": 2, "numAtRisk": 262}]}, {"term": "Respiratory tract infection", "organSystem": "Infections and infestations", "sourceVocabulary": "MedDRA (22.1)", "assessmentType": "NON_SYSTEMATIC_ASSESSMENT", "stats": [{"groupId": "EG000", "numEvents": 5, "numAffected": 5, "numAtRisk": 262}, {"groupId": "EG001", "numEvents": 7, "numAffected": 7, "numAtRisk": 264}, {"groupId": "EG002", "numEvents": 6, "numAffected": 4, "numAtRisk": 262}]}, {"term": "Fall", "organSystem": "Injury, poisoning and procedural complications", "sourceVocabulary": "MedDRA (22.1)", "assessmentType": "NON_SYSTEMATIC_ASSESSMENT", "stats": [{"groupId": "EG000", "numEvents": 4, "numAffected": 4, "numAtRisk": 262}, {"groupId": "EG001", "numEvents": 4, "numAffected": 3, "numAtRisk": 264}, {"groupId": "EG002", "numEvents": 3, "numAffected": 3, "numAtRisk": 262}]}, {"term": "Contusion", "organSystem": "Injury, poisoning and procedural complications", "sourceVocabulary": "MedDRA (22.1)", "assessmentType": "NON_SYSTEMATIC_ASSESSMENT", "stats": [{"groupId": "EG000", "numEvents": 2, "numAffected": 2, "numAtRisk": 262}, {"groupId": "EG001", "numEvents": 5, "numAffected": 3, "numAtRisk": 264}, {"groupId": "EG002", "numEvents": 1, "numAffected": 1, "numAtRisk": 262}]}, {"term": "Blood creatinine increased", "organSystem": "Investigations", "sourceVocabulary": "MedDRA (22.1)", "assessmentType": "NON_SYSTEMATIC_ASSESSMENT", "stats": [{"groupId": "EG000", "numEvents": 3, "numAffected": 3, "numAtRisk": 262}, {"groupId": "EG001", "numEvents": 4, "numAffected": 3, "numAtRisk": 264}, {"groupId": "EG002", "numEvents": 0, "numAffected": 0, "numAtRisk": 262}]}, {"term": "Blood uric acid increased", "organSystem": "Investigations", "sourceVocabulary": "MedDRA (22.1)", "assessmentType": "NON_SYSTEMATIC_ASSESSMENT", "stats": [{"groupId": "EG000", "numEvents": 3, "numAffected": 3, "numAtRisk": 262}, {"groupId": "EG001", "numEvents": 4, "numAffected": 4, "numAtRisk": 264}, {"groupId": "EG002", "numEvents": 2, "numAffected": 2, "numAtRisk": 262}]}, {"term": "Weight decreased", "organSystem": "Investigations", "sourceVocabulary": "MedDRA (22.1)", "assessmentType": "NON_SYSTEMATIC_ASSESSMENT", "stats": [{"groupId": "EG000", "numEvents": 3, "numAffected": 3, "numAtRisk": 262}, {"groupId": "EG001", "numEvents": 3, "numAffected": 3, "numAtRisk": 264}, {"groupId": "EG002", "numEvents": 2, "numAffected": 2, "numAtRisk": 262}]}, {"term": "N-terminal prohormone brain natriuretic peptide increased", "organSystem": "Investigations", "sourceVocabulary": "MedDRA (22.1)", "assessmentType": "NON_SYSTEMATIC_ASSESSMENT", "stats": [{"groupId": "EG000", "numEvents": 2, "numAffected": 2, "numAtRisk": 262}, {"groupId": "EG001", "numEvents": 1, "numAffected": 1, "numAtRisk": 264}, {"groupId": "EG002", "numEvents": 5, "numAffected": 4, "numAtRisk": 262}]}, {"term": "Hyperkalaemia", "organSystem": "Metabolism and nutrition disorders", "sourceVocabulary": "MedDRA (22.1)", "assessmentType": "NON_SYSTEMATIC_ASSESSMENT", "stats": [{"groupId": "EG000", "numEvents": 5, "numAffected": 5, "numAtRisk": 262}, {"groupId": "EG001", "numEvents": 7, "numAffected": 7, "numAtRisk": 264}, {"groupId": "EG002", "numEvents": 13, "numAffected": 12, "numAtRisk": 262}]}, {"term": "Hyperuricaemia", "organSystem": "Metabolism and nutrition disorders", "sourceVocabulary": "MedDRA (22.1)", "assessmentType": "NON_SYSTEMATIC_ASSESSMENT", "stats": [{"groupId": "EG000", "numEvents": 7, "numAffected": 7, "numAtRisk": 262}, {"groupId": "EG001", "numEvents": 9, "numAffected": 8, "numAtRisk": 264}, {"groupId": "EG002", "numEvents": 3, "numAffected": 3, "numAtRisk": 262}]}, {"term": "Hypoglycaemia", "organSystem": "Metabolism and nutrition disorders", "sourceVocabulary": "MedDRA (22.1)", "assessmentType": "NON_SYSTEMATIC_ASSESSMENT", "stats": [{"groupId": "EG000", "numEvents": 0, "numAffected": 0, "numAtRisk": 262}, {"groupId": "EG001", "numEvents": 2, "numAffected": 2, "numAtRisk": 264}, {"groupId": "EG002", "numEvents": 3, "numAffected": 3, "numAtRisk": 262}]}, {"term": "Hypokalaemia", "organSystem": "Metabolism and nutrition disorders", "sourceVocabulary": "MedDRA (22.1)", "assessmentType": "NON_SYSTEMATIC_ASSESSMENT", "stats": [{"groupId": "EG000", "numEvents": 7, "numAffected": 5, "numAtRisk": 262}, {"groupId": "EG001", "numEvents": 8, "numAffected": 7, "numAtRisk": 264}, {"groupId": "EG002", "numEvents": 8, "numAffected": 8, "numAtRisk": 262}]}, {"term": "Decreased appetite", "organSystem": "Metabolism and nutrition disorders", "sourceVocabulary": "MedDRA (22.1)", "assessmentType": "NON_SYSTEMATIC_ASSESSMENT", "stats": [{"groupId": "EG000", "numEvents": 0, "numAffected": 0, "numAtRisk": 262}, {"groupId": "EG001", "numEvents": 5, "numAffected": 4, "numAtRisk": 264}, {"groupId": "EG002", "numEvents": 1, "numAffected": 1, "numAtRisk": 262}]}, {"term": "Arthralgia", "organSystem": "Musculoskeletal and connective tissue disorders", "sourceVocabulary": "MedDRA (22.1)", "assessmentType": "NON_SYSTEMATIC_ASSESSMENT", "stats": [{"groupId": "EG000", "numEvents": 1, "numAffected": 1, "numAtRisk": 262}, {"groupId": "EG001", "numEvents": 6, "numAffected": 5, "numAtRisk": 264}, {"groupId": "EG002", "numEvents": 10, "numAffected": 8, "numAtRisk": 262}]}, {"term": "Back pain", "organSystem": "Musculoskeletal and connective tissue disorders", "sourceVocabulary": "MedDRA (22.1)", "assessmentType": "NON_SYSTEMATIC_ASSESSMENT", "stats": [{"groupId": "EG000", "numEvents": 6, "numAffected": 5, "numAtRisk": 262}, {"groupId": "EG001", "numEvents": 3, "numAffected": 3, "numAtRisk": 264}, {"groupId": "EG002", "numEvents": 6, "numAffected": 5, "numAtRisk": 262}]}, {"term": "Muscle spasms", "organSystem": "Musculoskeletal and connective tissue disorders", "sourceVocabulary": "MedDRA (22.1)", "assessmentType": "NON_SYSTEMATIC_ASSESSMENT", "stats": [{"groupId": "EG000", "numEvents": 1, "numAffected": 1, "numAtRisk": 262}, {"groupId": "EG001", "numEvents": 1, "numAffected": 1, "numAtRisk": 264}, {"groupId": "EG002", "numEvents": 3, "numAffected": 3, "numAtRisk": 262}]}, {"term": "Myalgia", "organSystem": "Musculoskeletal and connective tissue disorders", "sourceVocabulary": "MedDRA (22.1)", "assessmentType": "NON_SYSTEMATIC_ASSESSMENT", "stats": [{"groupId": "EG000", "numEvents": 2, "numAffected": 2, "numAtRisk": 262}, {"groupId": "EG001", "numEvents": 3, "numAffected": 3, "numAtRisk": 264}, {"groupId": "EG002", "numEvents": 2, "numAffected": 2, "numAtRisk": 262}]}, {"term": "Osteoarthritis", "organSystem": "Musculoskeletal and connective tissue disorders", "sourceVocabulary": "MedDRA (22.1)", "assessmentType": "NON_SYSTEMATIC_ASSESSMENT", "stats": [{"groupId": "EG000", "numEvents": 2, "numAffected": 2, "numAtRisk": 262}, {"groupId": "EG001", "numEvents": 2, "numAffected": 2, "numAtRisk": 264}, {"groupId": "EG002", "numEvents": 4, "numAffected": 4, "numAtRisk": 262}]}, {"term": "Pain in extremity", "organSystem": "Musculoskeletal and connective tissue disorders", "sourceVocabulary": "MedDRA (22.1)", "assessmentType": "NON_SYSTEMATIC_ASSESSMENT", "stats": [{"groupId": "EG000", "numEvents": 2, "numAffected": 1, "numAtRisk": 262}, {"groupId": "EG001", "numEvents": 4, "numAffected": 4, "numAtRisk": 264}, {"groupId": "EG002", "numEvents": 4, "numAffected": 3, "numAtRisk": 262}]}, {"term": "Dizziness", "organSystem": "Nervous system disorders", "sourceVocabulary": "MedDRA (22.1)", "assessmentType": "NON_SYSTEMATIC_ASSESSMENT", "stats": [{"groupId": "EG000", "numEvents": 9, "numAffected": 8, "numAtRisk": 262}, {"groupId": "EG001", "numEvents": 9, "numAffected": 7, "numAtRisk": 264}, {"groupId": "EG002", "numEvents": 14, "numAffected": 11, "numAtRisk": 262}]}, {"term": "Headache", "organSystem": "Nervous system disorders", "sourceVocabulary": "MedDRA (22.1)", "assessmentType": "NON_SYSTEMATIC_ASSESSMENT", "stats": [{"groupId": "EG000", "numEvents": 6, "numAffected": 5, "numAtRisk": 262}, {"groupId": "EG001", "numEvents": 7, "numAffected": 6, "numAtRisk": 264}, {"groupId": "EG002", "numEvents": 16, "numAffected": 11, "numAtRisk": 262}]}, {"term": "Tremor", "organSystem": "Nervous system disorders", "sourceVocabulary": "MedDRA (22.1)", "assessmentType": "NON_SYSTEMATIC_ASSESSMENT", "stats": [{"groupId": "EG000", "numEvents": 0, "numAffected": 0, "numAtRisk": 262}, {"groupId": "EG001", "numEvents": 0, "numAffected": 0, "numAtRisk": 264}, {"groupId": "EG002", "numEvents": 3, "numAffected": 3, "numAtRisk": 262}]}, {"term": "Anxiety", "organSystem": "Psychiatric disorders", "sourceVocabulary": "MedDRA (22.1)", "assessmentType": "NON_SYSTEMATIC_ASSESSMENT", "stats": [{"groupId": "EG000", "numEvents": 4, "numAffected": 3, "numAtRisk": 262}, {"groupId": "EG001", "numEvents": 2, "numAffected": 2, "numAtRisk": 264}, {"groupId": "EG002", "numEvents": 4, "numAffected": 3, "numAtRisk": 262}]}, {"term": "Insomnia", "organSystem": "Psychiatric disorders", "sourceVocabulary": "MedDRA (22.1)", "assessmentType": "NON_SYSTEMATIC_ASSESSMENT", "stats": [{"groupId": "EG000", "numEvents": 1, "numAffected": 1, "numAtRisk": 262}, {"groupId": "EG001", "numEvents": 3, "numAffected": 3, "numAtRisk": 264}, {"groupId": "EG002", "numEvents": 1, "numAffected": 1, "numAtRisk": 262}]}, {"term": "Renal failure", "organSystem": "Renal and urinary disorders", "sourceVocabulary": "MedDRA (22.1)", "assessmentType": "NON_SYSTEMATIC_ASSESSMENT", "stats": [{"groupId": "EG000", "numEvents": 3, "numAffected": 3, "numAtRisk": 262}, {"groupId": "EG001", "numEvents": 4, "numAffected": 4, "numAtRisk": 264}, {"groupId": "EG002", "numEvents": 2, "numAffected": 2, "numAtRisk": 262}]}, {"term": "Renal impairment", "organSystem": "Renal and urinary disorders", "sourceVocabulary": "MedDRA (22.1)", "assessmentType": "NON_SYSTEMATIC_ASSESSMENT", "stats": [{"groupId": "EG000", "numEvents": 6, "numAffected": 5, "numAtRisk": 262}, {"groupId": "EG001", "numEvents": 7, "numAffected": 4, "numAtRisk": 264}, {"groupId": "EG002", "numEvents": 7, "numAffected": 5, "numAtRisk": 262}]}, {"term": "Chronic kidney disease", "organSystem": "Renal and urinary disorders", "sourceVocabulary": "MedDRA (22.1)", "assessmentType": "NON_SYSTEMATIC_ASSESSMENT", "stats": [{"groupId": "EG000", "numEvents": 1, "numAffected": 1, "numAtRisk": 262}, {"groupId": "EG001", "numEvents": 1, "numAffected": 1, "numAtRisk": 264}, {"groupId": "EG002", "numEvents": 3, "numAffected": 3, "numAtRisk": 262}]}, {"term": "Acute kidney injury", "organSystem": "Renal and urinary disorders", "sourceVocabulary": "MedDRA (22.1)", "assessmentType": "NON_SYSTEMATIC_ASSESSMENT", "stats": [{"groupId": "EG000", "numEvents": 3, "numAffected": 3, "numAtRisk": 262}, {"groupId": "EG001", "numEvents": 4, "numAffected": 3, "numAtRisk": 264}, {"groupId": "EG002", "numEvents": 9, "numAffected": 7, "numAtRisk": 262}]}, {"term": "Chronic obstructive pulmonary disease", "organSystem": "Respiratory, thoracic and mediastinal disorders", "sourceVocabulary": "MedDRA (22.1)", "assessmentType": "NON_SYSTEMATIC_ASSESSMENT", "stats": [{"groupId": "EG000", "numEvents": 3, "numAffected": 3, "numAtRisk": 262}, {"groupId": "EG001", "numEvents": 4, "numAffected": 3, "numAtRisk": 264}, {"groupId": "EG002", "numEvents": 3, "numAffected": 3, "numAtRisk": 262}]}, {"term": "Cough", "organSystem": "Respiratory, thoracic and mediastinal disorders", "sourceVocabulary": "MedDRA (22.1)", "assessmentType": "NON_SYSTEMATIC_ASSESSMENT", "stats": [{"groupId": "EG000", "numEvents": 5, "numAffected": 5, "numAtRisk": 262}, {"groupId": "EG001", "numEvents": 6, "numAffected": 5, "numAtRisk": 264}, {"groupId": "EG002", "numEvents": 6, "numAffected": 6, "numAtRisk": 262}]}, {"term": "Dyspnoea", "organSystem": "Respiratory, thoracic and mediastinal disorders", "sourceVocabulary": "MedDRA (22.1)", "assessmentType": "NON_SYSTEMATIC_ASSESSMENT", "stats": [{"groupId": "EG000", "numEvents": 8, "numAffected": 7, "numAtRisk": 262}, {"groupId": "EG001", "numEvents": 5, "numAffected": 5, "numAtRisk": 264}, {"groupId": "EG002", "numEvents": 15, "numAffected": 14, "numAtRisk": 262}]}, {"term": "Epistaxis", "organSystem": "Respiratory, thoracic and mediastinal disorders", "sourceVocabulary": "MedDRA (22.1)", "assessmentType": "NON_SYSTEMATIC_ASSESSMENT", "stats": [{"groupId": "EG000", "numEvents": 5, "numAffected": 3, "numAtRisk": 262}, {"groupId": "EG001", "numEvents": 5, "numAffected": 5, "numAtRisk": 264}, {"groupId": "EG002", "numEvents": 3, "numAffected": 3, "numAtRisk": 262}]}, {"term": "Rhinorrhoea", "organSystem": "Respiratory, thoracic and mediastinal disorders", "sourceVocabulary": "MedDRA (22.1)", "assessmentType": "NON_SYSTEMATIC_ASSESSMENT", "stats": [{"groupId": "EG000", "numEvents": 2, "numAffected": 2, "numAtRisk": 262}, {"groupId": "EG001", "numEvents": 3, "numAffected": 3, "numAtRisk": 264}, {"groupId": "EG002", "numEvents": 0, "numAffected": 0, "numAtRisk": 262}]}, {"term": "Pruritus", "organSystem": "Skin and subcutaneous tissue disorders", "sourceVocabulary": "MedDRA (22.1)", "assessmentType": "NON_SYSTEMATIC_ASSESSMENT", "stats": [{"groupId": "EG000", "numEvents": 4, "numAffected": 3, "numAtRisk": 262}, {"groupId": "EG001", "numEvents": 5, "numAffected": 3, "numAtRisk": 264}, {"groupId": "EG002", "numEvents": 8, "numAffected": 6, "numAtRisk": 262}]}, {"term": "Cataract operation", "organSystem": "Surgical and medical procedures", "sourceVocabulary": "MedDRA (22.1)", "assessmentType": "NON_SYSTEMATIC_ASSESSMENT", "stats": [{"groupId": "EG000", "numEvents": 2, "numAffected": 1, "numAtRisk": 262}, {"groupId": "EG001", "numEvents": 2, "numAffected": 2, "numAtRisk": 264}, {"groupId": "EG002", "numEvents": 4, "numAffected": 3, "numAtRisk": 262}]}, {"term": "Hypertension", "organSystem": "Vascular disorders", "sourceVocabulary": "MedDRA (22.1)", "assessmentType": "NON_SYSTEMATIC_ASSESSMENT", "stats": [{"groupId": "EG000", "numEvents": 5, "numAffected": 5, "numAtRisk": 262}, {"groupId": "EG001", "numEvents": 12, "numAffected": 11, "numAtRisk": 264}, {"groupId": "EG002", "numEvents": 12, "numAffected": 10, "numAtRisk": 262}]}, {"term": "Hypotension", "organSystem": "Vascular disorders", "sourceVocabulary": "MedDRA (22.1)", "assessmentType": "NON_SYSTEMATIC_ASSESSMENT", "stats": [{"groupId": "EG000", "numEvents": 18, "numAffected": 16, "numAtRisk": 262}, {"groupId": "EG001", "numEvents": 31, "numAffected": 22, "numAtRisk": 264}, {"groupId": "EG002", "numEvents": 14, "numAffected": 12, "numAtRisk": 262}]}]}, "moreInfoModule": {"certainAgreement": {"piSponsorEmployee": false, "restrictionType": "OTHER", "restrictiveAgreement": true}, "pointOfContact": {"title": "Therapeutic Area Head", "organization": "Bayer", "email": "clinical-trials-contact@bayer.com", "phone": "(+)1-888-84 22937"}}}, "documentSection": {"largeDocumentModule": {"largeDocs": [{"typeAbbrev": "Prot", "hasProtocol": true, "hasSap": false, "hasIcf": false, "label": "Study Protocol", "date": "2018-02-22", "uploadDate": "2020-09-29T01:58", "filename": "Prot_000.pdf", "size": 1404561}, {"typeAbbrev": "SAP", "hasProtocol": false, "hasSap": true, "hasIcf": false, "label": "Statistical Analysis Plan", "date": "2019-11-21", "uploadDate": "2020-09-29T01:58", "filename": "SAP_001.pdf", "size": 793821}]}}, "derivedSection": {"miscInfoModule": {"versionHolder": "2024-06-24", "submissionTracking": {"firstMcpInfo": {"postDateStruct": {"date": "2020-10-22", "type": "ACTUAL"}}}}, "conditionBrowseModule": {"meshes": [{"id": "D000006333", "term": "Heart Failure"}], "ancestors": [{"id": "D000006331", "term": "Heart Diseases"}, {"id": "D000002318", "term": "Cardiovascular Diseases"}], "browseLeaves": [{"id": "M9421", "name": "Heart Failure", "asFound": "Heart Failure", "relevance": "HIGH"}, {"id": "M9419", "name": "Heart Diseases", "relevance": "LOW"}, {"id": "T1303", "name": "Chronic Graft Versus Host Disease", "relevance": "LOW"}], "browseBranches": [{"abbrev": "BC14", "name": "Heart and Blood Diseases"}, {"abbrev": "All", "name": "All Conditions"}, {"abbrev": "Rare", "name": "Rare Diseases"}]}}, "hasResults": true}