{"protocolSection": {"identificationModule": {"nctId": "NCT02874794", "orgStudyIdInfo": {"id": "CLCZ696BUS08"}, "organization": {"fullName": "Novartis", "class": "INDUSTRY"}, "briefTitle": "Study of Effects of Sacubitril/Valsartan vs. Enalapril on Aortic Stiffness in Patients With Mild to Moderate HF With Reduced Ejection Fraction", "officialTitle": "A Multicenter, Randomized, Double-blind, Double-dummy, Parallel Group, Active-controlled, Forced-titration, 12-week Comparison of Combined Angiotensin-neprilysin Inhibition With Sacubitril and Valsartan Versus Enalapril on Changes in Central Aortic Stiffness in Patients With Heart Failure and Reduced Ejection Fraction (HFrEF)", "acronym": "EVALUATE-HF"}, "statusModule": {"statusVerifiedDate": "2020-03", "overallStatus": "COMPLETED", "expandedAccessInfo": {"hasExpandedAccess": false}, "startDateStruct": {"date": "2016-08-17", "type": "ACTUAL"}, "primaryCompletionDateStruct": {"date": "2018-12-13", "type": "ACTUAL"}, "completionDateStruct": {"date": "2019-01-26", "type": "ACTUAL"}, "studyFirstSubmitDate": "2016-08-05", "studyFirstSubmitQcDate": "2016-08-17", "studyFirstPostDateStruct": {"date": "2016-08-22", "type": "ESTIMATED"}, "resultsFirstSubmitDate": "2020-01-21", "resultsFirstSubmitQcDate": "2020-03-17", "resultsFirstPostDateStruct": {"date": "2020-03-19", "type": "ACTUAL"}, "dispFirstSubmitDate": "2019-05-30", "dispFirstSubmitQcDate": "2019-09-09", "dispFirstPostDateStruct": {"date": "2019-09-17", "type": "ACTUAL"}, "lastUpdateSubmitDate": "2020-12-09", "lastUpdatePostDateStruct": {"date": "2021-01-05", "type": "ACTUAL"}}, "sponsorCollaboratorsModule": {"responsibleParty": {"type": "SPONSOR"}, "leadSponsor": {"name": "Novartis Pharmaceuticals", "class": "INDUSTRY"}}, "oversightModule": {"oversightHasDmc": false}, "descriptionModule": {"briefSummary": "To determine whether treatment with sacubitril/valsartan provides a superior effect on aortic characteristic impedance compared to enalapril in patients with heart failure and reduced ejection fraction (left ventricular ejection fraction \\[LVEF\\] \u2264 40%) after 12 weeks of treatment. The primary endpoint is the change in aortic characteristic impedance (Zc = dP/dQ in early systole) between baseline and Week 12."}, "conditionsModule": {"conditions": ["Heart Failure and Reduced Ejection Fraction"], "keywords": ["Heart Failure", "Reduced Ejection Fraction", "Central Aortic Stiffness", "Vascular", "Echocardiogram", "Aortic Stiffness"]}, "designModule": {"studyType": "INTERVENTIONAL", "phases": ["PHASE4"], "designInfo": {"allocation": "RANDOMIZED", "interventionModel": "PARALLEL", "primaryPurpose": "TREATMENT", "maskingInfo": {"masking": "TRIPLE", "whoMasked": ["PARTICIPANT", "CARE_PROVIDER", "INVESTIGATOR"]}}, "enrollmentInfo": {"count": 465, "type": "ACTUAL"}}, "armsInterventionsModule": {"armGroups": [{"label": "LCZ696 (sacubitril/valsartan)", "type": "EXPERIMENTAL", "description": "minimum dose: 24/26mg, BID, oral, tablet maximum dose: 97/103mg, BID, oral, tablet All patients will begin on Dose Level 1 (24/26mg) and will be titrated every two weeks to target Dose level 3 (97/103mg). LCZ696 tablets will be provided for the 12-week open label extension.", "interventionNames": ["Drug: LCZ696 (sacubitril/valsartan)", "Drug: Placebo of Enalapril"]}, {"label": "Enalapril", "type": "ACTIVE_COMPARATOR", "description": "minimum dose: 2.5mg, BID, oral, tablet maximum dose: 10 mg, BID, oral tablet All patients will begin on Dose Level 1 (2.5mg) and will be titrated every two weeks to target Dose level 3 (10mg).", "interventionNames": ["Drug: Enalapril", "Drug: Placebo of LCZ696"]}], "interventions": [{"type": "DRUG", "name": "LCZ696 (sacubitril/valsartan)", "description": "24/26mg, 49/51mg and 97/103mg oral, tablets.", "armGroupLabels": ["LCZ696 (sacubitril/valsartan)"], "otherNames": ["LCZ696"]}, {"type": "DRUG", "name": "Enalapril", "description": "2.5mg, 5mg, and 10mg, oral, tablets", "armGroupLabels": ["Enalapril"]}, {"type": "DRUG", "name": "Placebo of Enalapril", "description": "matching placebo (2.5mg, 5mg and 10mg) oral, tablets", "armGroupLabels": ["LCZ696 (sacubitril/valsartan)"]}, {"type": "DRUG", "name": "Placebo of LCZ696", "description": "matching placebo (24/26mg, 49/51mg and 97/103mg) oral, tablets", "armGroupLabels": ["Enalapril"]}]}, "outcomesModule": {"primaryOutcomes": [{"measure": "Change From Baseline in Aortic Characteristic Impedance at Week 12", "description": "Aortic characteristic impedance, Zc, is the ratio of the change in pressure (dP)produced by a given change in flow (dQ) in early systole, i.e., Zc = dP/dQ. Zc is related directly to aortic wall stiffness and inversely to lumen area.", "timeFrame": "Baseline, Week 12"}], "secondaryOutcomes": [{"measure": "Pearson Correlation Coefficient Between Change From Baseline in Aortic Characteristic Impedance and Biomarker Levels: B-type Natriuretic Peptide (BNP) During Both Trough and 4 Hours Post-dose at Week 4", "description": "Pearson correlation coefficients between changes from baseline in aortic characteristic impedance (dyne x sec/cm5) and biomarker levels such as BNP (pg/ML) during both trough and 4 hours post-dose at Week 4", "timeFrame": "Pre-dose and 4 hours post dose at week 4"}, {"measure": "Pearson Correlation Coefficient Between Change From Baseline in Aortic Characteristic Impedance and Biomarker Levels: cGMP/U-creatinine During Both Trough and 4 Hours Post-dose at Week 4", "description": "Pearson correlation coefficient between changes from baseline in aortic characteristic impedance (dyne x sec/cm5) and biomarker levels such as U-cGMP/U-creatinine ratio (nmol/mmol) during both trough and 4 hours post-dose at Week 4", "timeFrame": "pre-dose and 4 hours post dose at week 4"}, {"measure": "Change From Baseline in N-terminal Pro-brain Natriuretic Peptide (NT-proBNP)", "description": "Change from baseline in N-terminal pro-brain natriuretic peptide (NT-proBNP)", "timeFrame": "Baseline, Week 12"}, {"measure": "Change From Baseline in Echocardiographic Measure: Global Longitudinal Strain", "description": "Parameter measured by echocardiography.", "timeFrame": "Baseline, Week 12"}, {"measure": "Change From Baseline in Echocardiographic Measure: Left Atrial Volume Index (LAVi)", "description": "Parameter measured by echocardiography", "timeFrame": "Baseline, Week 12"}, {"measure": "Change From Baseline in Echocardiographic Measure: Mitral Annular E' Velocity (Doppler Tissue Imaging)", "description": "Parameter measured by echocardiography", "timeFrame": "Baseline, Week 12"}, {"measure": "Change From Basekine in Echocardiographic Measure: Mitral E/E'", "description": "Parameter measured by echocardiography", "timeFrame": "Baseline, Week 12"}, {"measure": "Change From Baseline in Echocardiographic Measure: Left Ventricular Ejection Fraction (LVEF)", "description": "Parameter measured by echocardiography", "timeFrame": "Baseline, Week 12"}, {"measure": "Change From Baseline in Echocardiographic Measure: Ventricular-vascular Coupling (Ea/Ees)", "description": "Parameter measured by echocardiography", "timeFrame": "Baseline, Week 12"}, {"measure": "Change From Baseline in Echocardiographic Measure: Left Ventricular End Systolic Volume Index (LVESVi)", "description": "Parameter measured by echocardiography", "timeFrame": "Baseline, Week 12"}, {"measure": "Change From Baseline in Echocardiographic Measure: Left Ventricular End Diastolic Volume Index (LVEDVi)", "description": "Parameter measured by echocardiography", "timeFrame": "Baseline, Week 12"}]}, "eligibilityModule": {"eligibilityCriteria": "Inclusion Criteria:\n\n* History of HTN and one of the following at BOTH screening and pre-randomization:\n\n  1. SBP \\>105 mm Hg on antihypertensive medication.\n  2. SBP \\>/= 140 mm Hg and NOT on antihypertensive medication.\n* NYHA class I-III heart failure and with reduced ejection fraction \\</= 40%, as determined by any local measurement made within the past 12 months using echocardiography, MUGA, CT scanning, MRI, ventricular angiography or single-photon emission computed tomography (SPECT), provided no subsequent measurement above 40%. Patients who have had an intervening medical event (e.g. myocardial infarction) or procedure (e.g. revascularization, cardiac resynchronization), must have a reassessment of EF \u2265 3 months following the event to ensure that eligibility criteria are still met.\n* On stable doses of treatment with guideline-directed therapy, other than ACEis and ARBs prior to randomization.\n\n  1. If the patient is currently taking an ACEi, a 36-hour washout is required prior to randomization (Visit 2).\n  2. If the patient is currently taking an ARB, they must discontinue the ARB before initiation of study treatment however washout is not required.\n* On an optimal medical regiment of diuretics and background medications to effectively treat co-morbidities such as HTN, DM, and coronary artery disease.\n\nKey Exclusion Criteria:\n\n* History of hypersensitivity to any of the study drigs, including history of hypersensitivity to drugs of similar chemical classes, or allergy to ACEis, ARBs, or NEP inhibitors as well as known or suspected contraindications to the study drugs.\n* Previous history of intolerance to sacubitril and valsartan, ACEi or ARB standard of care doses despite appropriate and gradual up-titration.\n* History of angioedema, drug-related or otherwise.\n* Requirement of treatment with both ACE inhibitor and ARB.\n* Current or prior treatment with sacubitril and valsartan.", "healthyVolunteers": false, "sex": "ALL", "minimumAge": "50 Years", "stdAges": ["ADULT", "OLDER_ADULT"]}, "contactsLocationsModule": {"overallOfficials": [{"name": "Novartis Pharmaceuticals", "affiliation": "Novartis Pharmaceuticals", "role": "STUDY_DIRECTOR"}], "locations": [{"facility": "Novartis Investigative Site", "city": "Birmingham", "state": "Alabama", "zip": "35294-0006", "country": "United States", "geoPoint": {"lat": 33.52066, "lon": -86.80249}}, {"facility": "Novartis Investigative Site", "city": "Little Rock", "state": "Arkansas", "zip": "72202", "country": "United States", "geoPoint": {"lat": 34.74648, "lon": -92.28959}}, {"facility": "Novartis Investigative Site", "city": "Beverly Hills", "state": "California", "zip": "90211", "country": "United States", "geoPoint": {"lat": 34.07362, "lon": -118.40036}}, {"facility": "Novartis Investigative Site", "city": "Huntington Beach", "state": "California", "zip": "92648", "country": "United States", "geoPoint": {"lat": 33.6603, "lon": -117.99923}}, {"facility": "Novartis Investigative Site", "city": "Newport Beach", "state": "California", "zip": "92663", "country": "United States", "geoPoint": {"lat": 33.61891, "lon": -117.92895}}, {"facility": "Novartis Investigative Site", "city": "Northridge", "state": "California", "zip": "91325", "country": "United States", "geoPoint": {"lat": 34.22834, "lon": -118.53675}}, {"facility": "Novartis Investigative Site", "city": "Santa Ana", "state": "California", "zip": "92704", "country": "United States", "geoPoint": {"lat": 33.74557, "lon": -117.86783}}, {"facility": "Novartis Investigative Site", "city": "Van Nuys", "state": "California", "zip": "91405", "country": "United States", "geoPoint": {"lat": 34.18667, "lon": -118.44897}}, {"facility": "Novartis Investigative Site", "city": "Greenwich", "state": "Connecticut", "zip": "06830", "country": "United States", "geoPoint": {"lat": 41.02649, "lon": -73.62846}}, {"facility": "Novartis Investigative Site", "city": "Norwalk", "state": "Connecticut", "zip": "06851", "country": "United States", "geoPoint": {"lat": 41.1176, "lon": -73.4079}}, {"facility": "Novartis Investigative Site", "city": "Stamford", "state": "Connecticut", "zip": "06905", "country": "United States", "geoPoint": {"lat": 41.05343, "lon": -73.53873}}, {"facility": "Novartis Investigative Site", "city": "Trumbull", "state": "Connecticut", "zip": "06611", "country": "United States", "geoPoint": {"lat": 41.24287, "lon": -73.20067}}, {"facility": "Novartis Investigative Site", "city": "Newark", "state": "Delaware", "zip": "19713", "country": "United States", "geoPoint": {"lat": 39.68372, "lon": -75.74966}}, {"facility": "Novartis Investigative Site", "city": "Atlantis", "state": "Florida", "zip": "33462", "country": "United States", "geoPoint": {"lat": 26.5909, "lon": -80.10088}}, {"facility": "Novartis Investigative Site", "city": "Aventura", "state": "Florida", "zip": "33180", "country": "United States", "geoPoint": {"lat": 25.95648, "lon": -80.13921}}, {"facility": "Novartis Investigative Site", "city": "Bradenton", "state": "Florida", "zip": "34209", "country": "United States", "geoPoint": {"lat": 27.49893, "lon": -82.57482}}, {"facility": "Novartis Investigative Site", "city": "Coral Gables", "state": "Florida", "zip": "33134", "country": "United States", "geoPoint": {"lat": 25.72149, "lon": -80.26838}}, {"facility": "Novartis Investigative Site", "city": "Daytona Beach", "state": "Florida", "zip": "32117", "country": "United States", "geoPoint": {"lat": 29.21081, "lon": -81.02283}}, {"facility": "Novartis Investigative Site", "city": "Doral", "state": "Florida", "zip": "33166", "country": "United States", "geoPoint": {"lat": 25.81954, "lon": -80.35533}}, {"facility": "Novartis Investigative Site", "city": "Fort Lauderdale", "state": "Florida", "zip": "33312", "country": "United States", "geoPoint": {"lat": 26.12231, "lon": -80.14338}}, {"facility": "Novartis Investigative Site", "city": "Hialeah", "state": "Florida", "zip": "33012", "country": "United States", "geoPoint": {"lat": 25.8576, "lon": -80.27811}}, {"facility": "Novartis Investigative Site", "city": "Inverness", "state": "Florida", "zip": "34452", "country": "United States", "geoPoint": {"lat": 28.83582, "lon": -82.33037}}, {"facility": "Novartis Investigative Site", "city": "Jacksonville", "state": "Florida", "zip": "32223", "country": "United States", "geoPoint": {"lat": 30.33218, "lon": -81.65565}}, {"facility": "Novartis Investigative Site", "city": "Jupiter", "state": "Florida", "zip": "33458", "country": "United States", "geoPoint": {"lat": 26.93422, "lon": -80.09421}}, {"facility": "Novartis Investigative Site", "city": "Miami", "state": "Florida", "zip": "33125", "country": "United States", "geoPoint": {"lat": 25.77427, "lon": -80.19366}}, {"facility": "Novartis Investigative Site", "city": "Miami", "state": "Florida", "zip": "33126", "country": "United States", "geoPoint": {"lat": 25.77427, "lon": -80.19366}}, {"facility": "Novartis Investigative Site", "city": "Miami", "state": "Florida", "zip": "33133", "country": "United States", "geoPoint": {"lat": 25.77427, "lon": -80.19366}}, {"facility": "Novartis Investigative Site", "city": "Miami", "state": "Florida", "zip": "33135", "country": "United States", "geoPoint": {"lat": 25.77427, "lon": -80.19366}}, {"facility": "Novartis Investigative Site", "city": "Miami", "state": "Florida", "zip": "33144", "country": "United States", "geoPoint": {"lat": 25.77427, "lon": -80.19366}}, {"facility": "Novartis Investigative Site", "city": "Miami", "state": "Florida", "zip": "33155", "country": "United States", "geoPoint": {"lat": 25.77427, "lon": -80.19366}}, {"facility": "Novartis Investigative Site", "city": "Miami", "state": "Florida", "zip": "33165", "country": "United States", "geoPoint": {"lat": 25.77427, "lon": -80.19366}}, {"facility": "Novartis Investigative Site", "city": "Miami", "state": "Florida", "zip": "33166", "country": "United States", "geoPoint": {"lat": 25.77427, "lon": -80.19366}}, {"facility": "Novartis Investigative Site", "city": "Miami", "state": "Florida", "zip": "33176", "country": "United States", "geoPoint": {"lat": 25.77427, "lon": -80.19366}}, {"facility": "Novartis Investigative Site", "city": "Naples", "state": "Florida", "zip": "34102", "country": "United States", "geoPoint": {"lat": 26.14234, "lon": -81.79596}}, {"facility": "Novartis Investigative Site", "city": "Saint Augustine", "state": "Florida", "zip": "32086", "country": "United States", "geoPoint": {"lat": 29.89469, "lon": -81.31452}}, {"facility": "Novartis Investigative Site", "city": "Athens", "state": "Georgia", "zip": "30606", "country": "United States", "geoPoint": {"lat": 33.96095, "lon": -83.37794}}, {"facility": "Novartis Investigative Site", "city": "Augusta", "state": "Georgia", "zip": "30912", "country": "United States", "geoPoint": {"lat": 33.47097, "lon": -81.97484}}, {"facility": "Novartis Investigative Site", "city": "Blue Ridge", "state": "Georgia", "zip": "30513", "country": "United States", "geoPoint": {"lat": 34.86397, "lon": -84.32409}}, {"facility": "Novartis Investigative Site", "city": "Eatonton", "state": "Georgia", "zip": "31024", "country": "United States", "geoPoint": {"lat": 33.3268, "lon": -83.3885}}, {"facility": "Novartis Investigative Site", "city": "Macon", "state": "Georgia", "zip": "31201", "country": "United States", "geoPoint": {"lat": 32.84069, "lon": -83.6324}}, {"facility": "Novartis Investigative Site", "city": "Coeur d'Alene", "state": "Idaho", "zip": "83814", "country": "United States", "geoPoint": {"lat": 47.67768, "lon": -116.78047}}, {"facility": "Novartis Investigative Site", "city": "Fairview Heights", "state": "Illinois", "zip": "62208", "country": "United States", "geoPoint": {"lat": 38.58894, "lon": -89.99038}}, {"facility": "Novartis Investigative Site", "city": "Gurnee", "state": "Illinois", "zip": "60031", "country": "United States", "geoPoint": {"lat": 42.3703, "lon": -87.90202}}, {"facility": "Novartis Investigative Site", "city": "Overland Park", "state": "Kansas", "zip": "66209", "country": "United States", "geoPoint": {"lat": 38.98223, "lon": -94.67079}}, {"facility": "Novartis Investigative Site", "city": "Owensboro", "state": "Kentucky", "zip": "42303", "country": "United States", "geoPoint": {"lat": 37.77422, "lon": -87.11333}}, {"facility": "Novartis Investigative Site", "city": "Baton Rouge", "state": "Louisiana", "zip": "70808", "country": "United States", "geoPoint": {"lat": 30.45075, "lon": -91.15455}}, {"facility": "Novartis Investigative Site", "city": "Eunice", "state": "Louisiana", "zip": "70535", "country": "United States", "geoPoint": {"lat": 30.49437, "lon": -92.41763}}, {"facility": "Novartis Investigative Site", "city": "Minden", "state": "Louisiana", "zip": "71055", "country": "United States", "geoPoint": {"lat": 32.61543, "lon": -93.28684}}, {"facility": "Novartis Investigative Site", "city": "Monroe", "state": "Louisiana", "zip": "71201", "country": "United States", "geoPoint": {"lat": 32.50931, "lon": -92.1193}}, {"facility": "Novartis Investigative Site", "city": "Slidell", "state": "Louisiana", "zip": "70458", "country": "United States", "geoPoint": {"lat": 30.27519, "lon": -89.78117}}, {"facility": "Novartis Investigative Site", "city": "Baltimore", "state": "Maryland", "zip": "21237", "country": "United States", "geoPoint": {"lat": 39.29038, "lon": -76.61219}}, {"facility": "Novartis Investigative Site", "city": "Alpena", "state": "Michigan", "zip": "49707", "country": "United States", "geoPoint": {"lat": 45.06168, "lon": -83.43275}}, {"facility": "Novartis Investigative Site", "city": "Owosso", "state": "Michigan", "zip": "48867", "country": "United States", "geoPoint": {"lat": 42.9978, "lon": -84.17664}}, {"facility": "Novartis Investigative Site", "city": "Saginaw", "state": "Michigan", "zip": "48604", "country": "United States", "geoPoint": {"lat": 43.41947, "lon": -83.95081}}, {"facility": "Novartis Investigative Site", "city": "Lincoln", "state": "Nebraska", "zip": "68506", "country": "United States", "geoPoint": {"lat": 40.8, "lon": -96.66696}}, {"facility": "Novartis Investigative Site", "city": "Omaha", "state": "Nebraska", "zip": "68131", "country": "United States", "geoPoint": {"lat": 41.25626, "lon": -95.94043}}, {"facility": "Novartis Investigative Site", "city": "Las Vegas", "state": "Nevada", "zip": "89128", "country": "United States", "geoPoint": {"lat": 36.17497, "lon": -115.13722}}, {"facility": "Novartis Investigative Site", "city": "Hillsborough", "state": "New Jersey", "zip": "08844", "country": "United States", "geoPoint": {"lat": 40.4776, "lon": -74.62682}}, {"facility": "Novartis Investigative Site", "city": "Linden", "state": "New Jersey", "zip": "07036", "country": "United States", "geoPoint": {"lat": 40.62205, "lon": -74.24459}}, {"facility": "Novartis Investigative Site", "city": "Manalapan", "state": "New Jersey", "zip": "07726", "country": "United States", "geoPoint": {"lat": 40.25733, "lon": -74.39571}}, {"facility": "Novartis Investigative Site", "city": "Mountain Lakes", "state": "New Jersey", "zip": "07046", "country": "United States", "geoPoint": {"lat": 40.89482, "lon": -74.43293}}, {"facility": "Novartis Investigative Site", "city": "Bronx", "state": "New York", "zip": "10469", "country": "United States", "geoPoint": {"lat": 40.84985, "lon": -73.86641}}, {"facility": "Novartis Investigative Site", "city": "Buffalo", "state": "New York", "zip": "14215", "country": "United States", "geoPoint": {"lat": 42.88645, "lon": -78.87837}}, {"facility": "Novartis Investigative Site", "city": "Lake Success", "state": "New York", "zip": "11042", "country": "United States", "geoPoint": {"lat": 40.77066, "lon": -73.71763}}, {"facility": "Novartis Investigative Site", "city": "Rosedale", "state": "New York", "zip": "11422", "country": "United States", "geoPoint": {"lat": 40.66205, "lon": -73.73541}}, {"facility": "Novartis Investigative Site", "city": "Charlotte", "state": "North Carolina", "zip": "28227", "country": "United States", "geoPoint": {"lat": 35.22709, "lon": -80.84313}}, {"facility": "Novartis Investigative Site", "city": "Greenville", "state": "North Carolina", "zip": "27834", "country": "United States", "geoPoint": {"lat": 35.61266, "lon": -77.36635}}, {"facility": "Novartis Investigative Site", "city": "Lenoir", "state": "North Carolina", "zip": "28645", "country": "United States", "geoPoint": {"lat": 35.91402, "lon": -81.53898}}, {"facility": "Novartis Investigative Site", "city": "Yardley", "state": "Pennsylvania", "zip": "19067", "country": "United States", "geoPoint": {"lat": 40.24566, "lon": -74.846}}, {"facility": "Novartis Investigative Site", "city": "Jackson", "state": "Tennessee", "zip": "38301", "country": "United States", "geoPoint": {"lat": 35.61452, "lon": -88.81395}}, {"facility": "Novartis Investigative Site", "city": "Amarillo", "state": "Texas", "zip": "79106-4165", "country": "United States", "geoPoint": {"lat": 35.222, "lon": -101.8313}}, {"facility": "Novartis Investigative Site", "city": "Houston", "state": "Texas", "zip": "77094", "country": "United States", "geoPoint": {"lat": 29.76328, "lon": -95.36327}}, {"facility": "Novartis Investigative Site", "city": "McKinney", "state": "Texas", "zip": "75069", "country": "United States", "geoPoint": {"lat": 33.19762, "lon": -96.61527}}, {"facility": "Novartis Investigative Site", "city": "McKinney", "state": "Texas", "zip": "75071", "country": "United States", "geoPoint": {"lat": 33.19762, "lon": -96.61527}}, {"facility": "Novartis Investigative Site", "city": "Sherman", "state": "Texas", "zip": "75092", "country": "United States", "geoPoint": {"lat": 33.63566, "lon": -96.60888}}, {"facility": "Novartis Investigative Site", "city": "Tomball", "state": "Texas", "zip": "77375", "country": "United States", "geoPoint": {"lat": 30.09716, "lon": -95.61605}}, {"facility": "Novartis Investigative Site", "city": "Webster", "state": "Texas", "zip": "77598", "country": "United States", "geoPoint": {"lat": 29.53773, "lon": -95.11826}}, {"facility": "Novartis Investigative Site", "city": "Richmond", "state": "Virginia", "zip": "23219", "country": "United States", "geoPoint": {"lat": 37.55376, "lon": -77.46026}}, {"facility": "Novartis Investigative Site", "city": "Richland", "state": "Washington", "zip": "99352", "country": "United States", "geoPoint": {"lat": 46.28569, "lon": -119.28446}}, {"facility": "Novartis Investigative Site", "city": "Spokane", "state": "Washington", "zip": "99204", "country": "United States", "geoPoint": {"lat": 47.65966, "lon": -117.42908}}, {"facility": "Novartis Investigative Site", "city": "Manitowoc", "state": "Wisconsin", "zip": "54220", "country": "United States", "geoPoint": {"lat": 44.08861, "lon": -87.65758}}]}, "referencesModule": {"references": [{"pmid": "35560696", "type": "DERIVED", "citation": "Myhre PL, Claggett BL, Shah AM, Prescott MF, Ward JH, Fang JC, Mitchell GF, Solomon SD, Desai AS. Changes in cardiac biomarkers in association with alterations in cardiac structure and function, and health status in heart failure with reduced ejection fraction: the EVALUATE-HF trial. Eur J Heart Fail. 2022 Jul;24(7):1200-1208. doi: 10.1002/ejhf.2541. Epub 2022 May 30."}, {"pmid": "35115085", "type": "DERIVED", "citation": "Myhre PL, Prescott MF, Murphy SP, Fang JC, Mitchell GF, Ward JH, Claggett B, Desai AS, Solomon SD, Januzzi JL. Early B-Type Natriuretic Peptide Change in HFrEF Patients Treated With Sacubitril/Valsartan: A Pooled Analysis of EVALUATE-HF and PROVE-HF. JACC Heart Fail. 2022 Feb;10(2):119-128. doi: 10.1016/j.jchf.2021.09.007. Epub 2022 Jan 12."}, {"pmid": "33663237", "type": "DERIVED", "citation": "Mitchell GF, Solomon SD, Shah AM, Claggett BL, Fang JC, Izzo J, Abbas CA, Desai AS; EVALUATE-HF Investigators*. Hemodynamic Effects of Sacubitril-Valsartan Versus Enalapril in Patients With Heart Failure in the EVALUATE-HF Study: Effect Modification by Left Ventricular Ejection Fraction and Sex. Circ Heart Fail. 2021 Mar;14(3):e007891. doi: 10.1161/CIRCHEARTFAILURE.120.007891. Epub 2021 Mar 5."}, {"pmid": "31475296", "type": "DERIVED", "citation": "Desai AS, Solomon SD, Shah AM, Claggett BL, Fang JC, Izzo J, McCague K, Abbas CA, Rocha R, Mitchell GF; EVALUATE-HF Investigators. Effect of Sacubitril-Valsartan vs Enalapril on Aortic Stiffness in Patients With Heart Failure and Reduced Ejection Fraction: A Randomized Clinical Trial. JAMA. 2019 Sep 17;322(11):1077-1084. doi: 10.1001/jama.2019.12843."}], "seeAlsoLinks": [{"label": "A Plain Language Trial Summary is available on novartisclinicatrials.com", "url": "https://www.novctrd.com/ctrdweb/patientsummary/patientsummaries?patientSummaryId=514"}]}, "ipdSharingStatementModule": {"ipdSharing": "YES", "description": "Novartis is committed to sharing with qualified external researchers, access to patient-level data and supporting clinical documents from eligible studies. These requests are reviewed and approved by an independent review panel on the basis of scientific merit. All data provided is anonymized to respect the privacy of patients who have participated in the trial in line with applicable laws and regulations.\n\nThis trial data availability is according to the criteria and process described on www.clinicalstudydatarequest.com"}}, "resultsSection": {"participantFlowModule": {"recruitmentDetails": "Of 892 patients screened for the study, 465 completed screening and were enrolled. Of the 465 randomized, 1 patient was randomized in error to the sacubitril/valsartan group and was not treated. The Full Analysis Set and Safety Set are based on 464 patients who received treatment.", "groups": [{"id": "FG000", "title": "Enalapril (Double-Blind Phase)", "description": "minimum dose: 2.5mg, BID, oral, tablet. maximum dose: 10 mg, BID, oral tablet. All patients began on Dose Level 1 (2.5mg) and were titrated every two weeks to target Dose level 3 (10mg)."}, {"id": "FG001", "title": "Sacubitril/Valsartan (Double-Blind Phase)", "description": "minimum dose: 24/26mg, BID, oral, tablet. maximum dose: 97/103mg, BID, oral, tablet. All patients began on Dose Level 1 (24/26mg) and were titrated every two weeks to target Dose level 3 (97/103mg)."}], "periods": [{"title": "Overall Study", "milestones": [{"type": "STARTED", "achievements": [{"groupId": "FG000", "numSubjects": "233"}, {"groupId": "FG001", "numSubjects": "232"}]}, {"type": "COMPLETED", "achievements": [{"groupId": "FG000", "numSubjects": "226"}, {"groupId": "FG001", "numSubjects": "221"}]}, {"type": "NOT COMPLETED", "achievements": [{"groupId": "FG000", "numSubjects": "7"}, {"groupId": "FG001", "numSubjects": "11"}]}], "dropWithdraws": [{"type": "Physician Decision", "reasons": [{"groupId": "FG000", "numSubjects": "3"}, {"groupId": "FG001", "numSubjects": "2"}]}, {"type": "Withdrawal by Subject", "reasons": [{"groupId": "FG000", "numSubjects": "2"}, {"groupId": "FG001", "numSubjects": "8"}]}, {"type": "Death", "reasons": [{"groupId": "FG000", "numSubjects": "2"}, {"groupId": "FG001", "numSubjects": "1"}]}]}]}, "baselineCharacteristicsModule": {"populationDescription": "Full Analysis Set", "groups": [{"id": "BG000", "title": "Enalapril (Double-Blind Phase)", "description": "minimum dose: 2.5mg, BID, oral, tablet. maximum dose: 10 mg, BID, oral tablet. All patients began on Dose Level 1 (2.5mg) and were titrated every two weeks to target Dose level 3 (10mg)."}, {"id": "BG001", "title": "Sacubitril/Valsartan (Double-Blind Phase)", "description": "minimum dose: 24/26mg, BID, oral, tablet. maximum dose: 97/103mg, BID, oral, tablet. All patients began on Dose Level 1 (24/26mg) and were titrated every two weeks to target Dose level 3 (97/103mg)."}, {"id": "BG002", "title": "Total", "description": "Total of all reporting groups"}], "denoms": [{"units": "Participants", "counts": [{"groupId": "BG000", "value": "233"}, {"groupId": "BG001", "value": "231"}, {"groupId": "BG002", "value": "464"}]}], "measures": [{"title": "Age, Categorical", "paramType": "COUNT_OF_PARTICIPANTS", "unitOfMeasure": "Participants", "classes": [{"categories": [{"title": "<=18 years", "measurements": [{"groupId": "BG000", "value": "0"}, {"groupId": "BG001", "value": "0"}, {"groupId": "BG002", "value": "0"}]}, {"title": "Between 18 and 65 years", "measurements": [{"groupId": "BG000", "value": "100"}, {"groupId": "BG001", "value": "90"}, {"groupId": "BG002", "value": "190"}]}, {"title": ">=65 years", "measurements": [{"groupId": "BG000", "value": "133"}, {"groupId": "BG001", "value": "141"}, {"groupId": "BG002", "value": "274"}]}]}]}, {"title": "Sex: Female, Male", "paramType": "COUNT_OF_PARTICIPANTS", "unitOfMeasure": "Participants", "classes": [{"categories": [{"title": "Female", "measurements": [{"groupId": "BG000", "value": "48"}, {"groupId": "BG001", "value": "61"}, {"groupId": "BG002", "value": "109"}]}, {"title": "Male", "measurements": [{"groupId": "BG000", "value": "185"}, {"groupId": "BG001", "value": "170"}, {"groupId": "BG002", "value": "355"}]}]}]}, {"title": "Race/Ethnicity, Customized", "paramType": "NUMBER", "unitOfMeasure": "articipants", "classes": [{"title": "Caucasian (White)", "categories": [{"measurements": [{"groupId": "BG000", "value": "175"}, {"groupId": "BG001", "value": "166"}, {"groupId": "BG002", "value": "341"}]}]}, {"title": "Black", "categories": [{"measurements": [{"groupId": "BG000", "value": "53"}, {"groupId": "BG001", "value": "62"}, {"groupId": "BG002", "value": "115"}]}]}, {"title": "Asian", "categories": [{"measurements": [{"groupId": "BG000", "value": "2"}, {"groupId": "BG001", "value": "2"}, {"groupId": "BG002", "value": "4"}]}]}, {"title": "Native American", "categories": [{"measurements": [{"groupId": "BG000", "value": "1"}, {"groupId": "BG001", "value": "0"}, {"groupId": "BG002", "value": "1"}]}]}, {"title": "Other", "categories": [{"measurements": [{"groupId": "BG000", "value": "0"}, {"groupId": "BG001", "value": "1"}, {"groupId": "BG002", "value": "1"}]}]}, {"title": "Unknown", "categories": [{"measurements": [{"groupId": "BG000", "value": "2"}, {"groupId": "BG001", "value": "0"}, {"groupId": "BG002", "value": "2"}]}]}]}]}, "outcomeMeasuresModule": {"outcomeMeasures": [{"type": "PRIMARY", "title": "Change From Baseline in Aortic Characteristic Impedance at Week 12", "description": "Aortic characteristic impedance, Zc, is the ratio of the change in pressure (dP)produced by a given change in flow (dQ) in early systole, i.e., Zc = dP/dQ. Zc is related directly to aortic wall stiffness and inversely to lumen area.", "populationDescription": "Full Analysis Set", "reportingStatus": "POSTED", "paramType": "LEAST_SQUARES_MEAN", "dispersionType": "Standard Error", "unitOfMeasure": "dyne x sec/cm5", "timeFrame": "Baseline, Week 12", "groups": [{"id": "OG000", "title": "Enalapril (Double-Blind Phase)", "description": "minimum dose: 2.5mg, BID, oral, tablet. maximum dose: 10 mg, BID, oral tablet. All patients began on Dose Level 1 (2.5mg) and were titrated every two weeks to target Dose level 3 (10mg)."}, {"id": "OG001", "title": "Sacubitril/Valsartan (Double-Blind Phase)", "description": "minimum dose: 24/26mg, BID, oral, tablet. maximum dose: 97/103mg, BID, oral, tablet. All patients began on Dose Level 1 (24/26mg) and were titrated every two weeks to target Dose level 3 (97/103mg)."}], "denoms": [{"units": "Participants", "counts": [{"groupId": "OG000", "value": "233"}, {"groupId": "OG001", "value": "231"}]}], "classes": [{"categories": [{"measurements": [{"groupId": "OG000", "value": "-0.7", "spread": "5.5"}, {"groupId": "OG001", "value": "-2.9", "spread": "5.5"}]}]}], "analyses": [{"groupIds": ["OG000", "OG001"], "nonInferiorityType": "SUPERIORITY", "pValue": "0.7827", "statisticalMethod": "ANCOVA", "paramType": "Median Difference (Final Values)", "paramValue": "-2.2", "ciPctValue": "95", "ciNumSides": "TWO_SIDED", "ciLowerLimit": "-17.6", "ciUpperLimit": "13.2"}]}, {"type": "SECONDARY", "title": "Pearson Correlation Coefficient Between Change From Baseline in Aortic Characteristic Impedance and Biomarker Levels: B-type Natriuretic Peptide (BNP) During Both Trough and 4 Hours Post-dose at Week 4", "description": "Pearson correlation coefficients between changes from baseline in aortic characteristic impedance (dyne x sec/cm5) and biomarker levels such as BNP (pg/ML) during both trough and 4 hours post-dose at Week 4", "populationDescription": "Full Analysis Set", "reportingStatus": "POSTED", "paramType": "NUMBER", "dispersionType": "95% Confidence Interval", "unitOfMeasure": "Pearson's Correlation", "timeFrame": "Pre-dose and 4 hours post dose at week 4", "groups": [{"id": "OG000", "title": "Enalapril (Double-Blind Phase)", "description": "minimum dose: 2.5mg, BID, oral, tablet. maximum dose: 10 mg, BID, oral tablet. All patients began on Dose Level 1 (2.5mg) and were titrated every two weeks to target Dose level 3 (10mg)."}, {"id": "OG001", "title": "Sacubitril/Valsartan (Double-Blind Phase)", "description": "minimum dose: 24/26mg, BID, oral, tablet. maximum dose: 97/103mg, BID, oral, tablet. All patients began on Dose Level 1 (24/26mg) and were titrated every two weeks to target Dose level 3 (97/103mg)."}], "denoms": [{"units": "Participants", "counts": [{"groupId": "OG000", "value": "233"}, {"groupId": "OG001", "value": "231"}]}], "classes": [{"title": "Week 4 (pre-dose)", "denoms": [{"units": "Participants", "counts": [{"groupId": "OG000", "value": "213"}, {"groupId": "OG001", "value": "200"}]}], "categories": [{"measurements": [{"groupId": "OG000", "value": "0.022", "lowerLimit": "-0.113", "upperLimit": "0.156"}, {"groupId": "OG001", "value": "0.070", "lowerLimit": "-0.069", "upperLimit": "0.207"}]}]}, {"title": "Week 4 (post-dose)", "denoms": [{"units": "Participants", "counts": [{"groupId": "OG000", "value": "193"}, {"groupId": "OG001", "value": "188"}]}], "categories": [{"measurements": [{"groupId": "OG000", "value": "-0.127", "lowerLimit": "-0.263", "upperLimit": "0.015"}, {"groupId": "OG001", "value": "0.016", "lowerLimit": "-0.128", "upperLimit": "0.159"}]}]}]}, {"type": "SECONDARY", "title": "Pearson Correlation Coefficient Between Change From Baseline in Aortic Characteristic Impedance and Biomarker Levels: cGMP/U-creatinine During Both Trough and 4 Hours Post-dose at Week 4", "description": "Pearson correlation coefficient between changes from baseline in aortic characteristic impedance (dyne x sec/cm5) and biomarker levels such as U-cGMP/U-creatinine ratio (nmol/mmol) during both trough and 4 hours post-dose at Week 4", "populationDescription": "Full Analysis Set", "reportingStatus": "POSTED", "paramType": "NUMBER", "dispersionType": "95% Confidence Interval", "unitOfMeasure": "Pearson's correlation coefficient", "timeFrame": "pre-dose and 4 hours post dose at week 4", "groups": [{"id": "OG000", "title": "Enalapril (Double-Blind Phase)", "description": "minimum dose: 2.5mg, BID, oral, tablet. maximum dose: 10 mg, BID, oral tablet. All patients began on Dose Level 1 (2.5mg) and were titrated every two weeks to target Dose level 3 (10mg)."}, {"id": "OG001", "title": "Sacubitril/Valsartan (Double-Blind Phase)", "description": "minimum dose: 24/26mg, BID, oral, tablet. maximum dose: 97/103mg, BID, oral, tablet. All patients began on Dose Level 1 (24/26mg) and were titrated every two weeks to target Dose level 3 (97/103mg)."}], "denoms": [{"units": "Participants", "counts": [{"groupId": "OG000", "value": "233"}, {"groupId": "OG001", "value": "231"}]}], "classes": [{"title": "Week 4 (pre-dose)", "denoms": [{"units": "Participants", "counts": [{"groupId": "OG000", "value": "209"}, {"groupId": "OG001", "value": "196"}]}], "categories": [{"measurements": [{"groupId": "OG000", "value": "0.087", "lowerLimit": "-0.049", "upperLimit": "0.220"}, {"groupId": "OG001", "value": "0.098", "lowerLimit": "-0.043", "upperLimit": "0.235"}]}]}, {"title": "Week 4 (post-dose)", "denoms": [{"units": "Participants", "counts": [{"groupId": "OG000", "value": "193"}, {"groupId": "OG001", "value": "186"}]}], "categories": [{"measurements": [{"groupId": "OG000", "value": "0.110", "lowerLimit": "-0.032", "upperLimit": "0.247"}, {"groupId": "OG001", "value": "0.157", "lowerLimit": "0.014", "upperLimit": "0.294"}]}]}]}, {"type": "SECONDARY", "title": "Change From Baseline in N-terminal Pro-brain Natriuretic Peptide (NT-proBNP)", "description": "Change from baseline in N-terminal pro-brain natriuretic peptide (NT-proBNP)", "populationDescription": "Full Analysis Set", "reportingStatus": "POSTED", "paramType": "GEOMETRIC_MEAN", "dispersionType": "95% Confidence Interval", "unitOfMeasure": "pg/mL", "timeFrame": "Baseline, Week 12", "groups": [{"id": "OG000", "title": "Enalapril (Double-Blind Phase)", "description": "minimum dose: 2.5mg, BID, oral, tablet. maximum dose: 10 mg, BID, oral tablet. All patients began on Dose Level 1 (2.5mg) and were titrated every two weeks to target Dose level 3 (10mg)."}, {"id": "OG001", "title": "Sacubitril/Valsartan (Double-Blind Phase)", "description": "minimum dose: 24/26mg, BID, oral, tablet. maximum dose: 97/103mg, BID, oral, tablet. All patients began on Dose Level 1 (24/26mg) and were titrated every two weeks to target Dose level 3 (97/103mg)."}], "denoms": [{"units": "Participants", "counts": [{"groupId": "OG000", "value": "233"}, {"groupId": "OG001", "value": "231"}]}], "classes": [{"categories": [{"measurements": [{"groupId": "OG000", "value": "0.9500", "lowerLimit": "0.8673", "upperLimit": "1.0406"}, {"groupId": "OG001", "value": "0.6334", "lowerLimit": "0.5778", "upperLimit": "0.6944"}]}]}], "analyses": [{"groupIds": ["OG000", "OG001"], "nonInferiorityType": "SUPERIORITY", "pValue": "<.0001", "statisticalMethod": "ANCOVA", "paramType": "Ratio of Geometric Means", "paramValue": "0.6667", "ciPctValue": "95", "ciNumSides": "TWO_SIDED", "ciLowerLimit": "0.5858", "ciUpperLimit": "0.7589"}]}, {"type": "SECONDARY", "title": "Change From Baseline in Echocardiographic Measure: Global Longitudinal Strain", "description": "Parameter measured by echocardiography.", "populationDescription": "Full Analysis Set", "reportingStatus": "POSTED", "paramType": "LEAST_SQUARES_MEAN", "dispersionType": "Standard Error", "unitOfMeasure": "Percentage", "timeFrame": "Baseline, Week 12", "groups": [{"id": "OG000", "title": "Enalapril (Double-Blind Phase)", "description": "minimum dose: 2.5mg, BID, oral, tablet. maximum dose: 10 mg, BID, oral tablet. All patients began on Dose Level 1 (2.5mg) and were titrated every two weeks to target Dose level 3 (10mg)."}, {"id": "OG001", "title": "Sacubitril/Valsartan (Double-Blind Phase)", "description": "minimum dose: 24/26mg, BID, oral, tablet. maximum dose: 97/103mg, BID, oral, tablet. All patients began on Dose Level 1 (24/26mg) and were titrated every two weeks to target Dose level 3 (97/103mg)."}], "denoms": [{"units": "Participants", "counts": [{"groupId": "OG000", "value": "233"}, {"groupId": "OG001", "value": "231"}]}], "classes": [{"categories": [{"measurements": [{"groupId": "OG000", "value": "-0.21", "spread": "0.16"}, {"groupId": "OG001", "value": "-0.34", "spread": "0.16"}]}]}], "analyses": [{"groupIds": ["OG000", "OG001"], "nonInferiorityType": "SUPERIORITY", "pValue": "0.5792", "statisticalMethod": "ANCOVA", "paramType": "Mean Difference (Final Values)", "paramValue": "-0.13", "ciPctValue": "95", "ciNumSides": "TWO_SIDED", "ciLowerLimit": "-0.58", "ciUpperLimit": "0.33"}]}, {"type": "SECONDARY", "title": "Change From Baseline in Echocardiographic Measure: Left Atrial Volume Index (LAVi)", "description": "Parameter measured by echocardiography", "populationDescription": "Full Analysis Set", "reportingStatus": "POSTED", "paramType": "LEAST_SQUARES_MEAN", "dispersionType": "Standard Error", "unitOfMeasure": "mL/m2", "timeFrame": "Baseline, Week 12", "groups": [{"id": "OG000", "title": "Enalapril (Double-Blind Phase)", "description": "minimum dose: 2.5mg, BID, oral, tablet. maximum dose: 10 mg, BID, oral tablet. All patients began on Dose Level 1 (2.5mg) and were titrated every two weeks to target Dose level 3 (10mg)."}, {"id": "OG001", "title": "Sacubitril/Valsartan (Double-Blind Phase)", "description": "minimum dose: 24/26mg, BID, oral, tablet. maximum dose: 97/103mg, BID, oral, tablet. All patients began on Dose Level 1 (24/26mg) and were titrated every two weeks to target Dose level 3 (97/103mg)."}], "denoms": [{"units": "Participants", "counts": [{"groupId": "OG000", "value": "233"}, {"groupId": "OG001", "value": "231"}]}], "classes": [{"categories": [{"measurements": [{"groupId": "OG000", "value": "0.63", "spread": "0.44"}, {"groupId": "OG001", "value": "-2.17", "spread": "0.44"}]}]}], "analyses": [{"groupIds": ["OG000", "OG001"], "nonInferiorityType": "SUPERIORITY", "pValue": "<.0001", "statisticalMethod": "ANCOVA", "paramType": "Mean Difference (Final Values)", "paramValue": "-2.80", "ciPctValue": "95", "ciNumSides": "TWO_SIDED", "ciLowerLimit": "-4.02", "ciUpperLimit": "-1.59"}]}, {"type": "SECONDARY", "title": "Change From Baseline in Echocardiographic Measure: Mitral Annular E' Velocity (Doppler Tissue Imaging)", "description": "Parameter measured by echocardiography", "populationDescription": "Full Analysis Set", "reportingStatus": "POSTED", "paramType": "LEAST_SQUARES_MEAN", "dispersionType": "Standard Error", "unitOfMeasure": "cm/sec", "timeFrame": "Baseline, Week 12", "groups": [{"id": "OG000", "title": "Enalapril (Double-Blind Phase)", "description": "minimum dose: 2.5mg, BID, oral, tablet. maximum dose: 10 mg, BID, oral tablet. All patients began on Dose Level 1 (2.5mg) and were titrated every two weeks to target Dose level 3 (10mg)."}, {"id": "OG001", "title": "Sacubitril/Valsartan (Double-Blind Phase)", "description": "minimum dose: 24/26mg, BID, oral, tablet. maximum dose: 97/103mg, BID, oral, tablet. All patients began on Dose Level 1 (24/26mg) and were titrated every two weeks to target Dose level 3 (97/103mg)."}], "denoms": [{"units": "Participants", "counts": [{"groupId": "OG000", "value": "233"}, {"groupId": "OG001", "value": "231"}]}], "classes": [{"categories": [{"measurements": [{"groupId": "OG000", "value": "-0.00", "spread": "0.11"}, {"groupId": "OG001", "value": "-0.03", "spread": "0.11"}]}]}], "analyses": [{"groupIds": ["OG000", "OG001"], "nonInferiorityType": "SUPERIORITY", "pValue": "0.8617", "statisticalMethod": "ANCOVA", "paramType": "Median Difference (Final Values)", "paramValue": "-0.03", "ciPctValue": "95", "ciNumSides": "TWO_SIDED", "ciLowerLimit": "-0.33", "ciUpperLimit": "0.27"}]}, {"type": "SECONDARY", "title": "Change From Basekine in Echocardiographic Measure: Mitral E/E'", "description": "Parameter measured by echocardiography", "populationDescription": "Full Analysis Set", "reportingStatus": "POSTED", "paramType": "LEAST_SQUARES_MEAN", "dispersionType": "Standard Error", "unitOfMeasure": "Ratio", "timeFrame": "Baseline, Week 12", "groups": [{"id": "OG000", "title": "Enalapril (Double-Blind Phase)", "description": "minimum dose: 2.5mg, BID, oral, tablet. maximum dose: 10 mg, BID, oral tablet. All patients began on Dose Level 1 (2.5mg) and were titrated every two weeks to target Dose level 3 (10mg)."}, {"id": "OG001", "title": "Sacubitril/Valsartan (Double-Blind Phase)", "description": "minimum dose: 24/26mg, BID, oral, tablet. maximum dose: 97/103mg, BID, oral, tablet. All patients began on Dose Level 1 (24/26mg) and were titrated every two weeks to target Dose level 3 (97/103mg)."}], "denoms": [{"units": "Participants", "counts": [{"groupId": "OG000", "value": "233"}, {"groupId": "OG001", "value": "231"}]}], "classes": [{"categories": [{"measurements": [{"groupId": "OG000", "value": "0.32", "spread": "0.36"}, {"groupId": "OG001", "value": "-1.43", "spread": "0.36"}]}]}], "analyses": [{"groupIds": ["OG000", "OG001"], "groupDescription": "vs Enalapril", "nonInferiorityType": "SUPERIORITY", "pValue": "0.0007", "statisticalMethod": "ANCOVA", "paramType": "Median Difference (Final Values)", "paramValue": "-1.75", "ciPctValue": "95", "ciNumSides": "TWO_SIDED", "ciLowerLimit": "-2.76", "ciUpperLimit": "-0.75"}]}, {"type": "SECONDARY", "title": "Change From Baseline in Echocardiographic Measure: Left Ventricular Ejection Fraction (LVEF)", "description": "Parameter measured by echocardiography", "populationDescription": "Full Analysis Set", "reportingStatus": "POSTED", "paramType": "LEAST_SQUARES_MEAN", "dispersionType": "Standard Error", "unitOfMeasure": "Percentage", "timeFrame": "Baseline, Week 12", "groups": [{"id": "OG000", "title": "Sacubitril/Valsartan (Double-Blind Phase)", "description": "minimum dose: 24/26mg, BID, oral, tablet. maximum dose: 97/103mg, BID, oral, tablet. All patients began on Dose Level 1 (24/26mg) and were titrated every two weeks to target Dose level 3 (97/103mg)."}, {"id": "OG001", "title": "Enalapril (Double-Blind Phase)", "description": "minimum dose: 2.5mg, BID, oral, tablet. maximum dose: 10 mg, BID, oral tablet. All patients began on Dose Level 1 (2.5mg) and were titrated every two weeks to target Dose level 3 (10mg)."}], "denoms": [{"units": "Participants", "counts": [{"groupId": "OG000", "value": "233"}, {"groupId": "OG001", "value": "231"}]}], "classes": [{"categories": [{"measurements": [{"groupId": "OG000", "value": "1.30", "spread": "0.37"}, {"groupId": "OG001", "value": "1.94", "spread": "0.38"}]}]}], "analyses": [{"groupIds": ["OG000", "OG001"], "nonInferiorityType": "SUPERIORITY", "pValue": "0.2354", "statisticalMethod": "ANCOVA", "paramType": "Median Difference (Final Values)", "paramValue": "0.63", "ciPctValue": "95", "ciNumSides": "TWO_SIDED", "ciLowerLimit": "-0.41", "ciUpperLimit": "1.68"}]}, {"type": "SECONDARY", "title": "Change From Baseline in Echocardiographic Measure: Ventricular-vascular Coupling (Ea/Ees)", "description": "Parameter measured by echocardiography", "populationDescription": "Full Analysis Set", "reportingStatus": "POSTED", "paramType": "LEAST_SQUARES_MEAN", "dispersionType": "Standard Error", "unitOfMeasure": "Ea/Ees Ratio", "timeFrame": "Baseline, Week 12", "groups": [{"id": "OG000", "title": "Enalapril (Double-Blind Phase)", "description": "minimum dose: 2.5mg, BID, oral, tablet. maximum dose: 10 mg, BID, oral tablet. All patients began on Dose Level 1 (2.5mg) and were titrated every two weeks to target Dose level 3 (10mg)."}, {"id": "OG001", "title": "Sacubitril/Valsartan (Double-Blind Phase)", "description": "minimum dose: 24/26mg, BID, oral, tablet. maximum dose: 97/103mg, BID, oral, tablet. All patients began on Dose Level 1 (24/26mg) and were titrated every two weeks to target Dose level 3 (97/103mg)."}], "denoms": [{"units": "Participants", "counts": [{"groupId": "OG000", "value": "233"}, {"groupId": "OG001", "value": "231"}]}], "classes": [{"categories": [{"measurements": [{"groupId": "OG000", "value": "0.03", "spread": "0.01"}, {"groupId": "OG001", "value": "0.02", "spread": "0.02"}]}]}], "analyses": [{"groupIds": ["OG000", "OG001"], "nonInferiorityType": "SUPERIORITY", "pValue": "0.8215", "statisticalMethod": "ANCOVA", "paramType": "Mean Difference (Final Values)", "paramValue": "-0.00", "ciPctValue": "95", "ciNumSides": "TWO_SIDED", "ciLowerLimit": "-0.05", "ciUpperLimit": "0.04"}]}, {"type": "SECONDARY", "title": "Change From Baseline in Echocardiographic Measure: Left Ventricular End Systolic Volume Index (LVESVi)", "description": "Parameter measured by echocardiography", "populationDescription": "Full Analysis Set", "reportingStatus": "POSTED", "paramType": "LEAST_SQUARES_MEAN", "dispersionType": "Standard Error", "unitOfMeasure": "mL/m2", "timeFrame": "Baseline, Week 12", "groups": [{"id": "OG000", "title": "Enalapril (Double-Blind Phase)", "description": "minimum dose: 2.5mg, BID, oral, tablet. maximum dose: 10 mg, BID, oral tablet. All patients began on Dose Level 1 (2.5mg) and were titrated every two weeks to target Dose level 3 (10mg)."}, {"id": "OG001", "title": "Sacubitril/Valsartan (Double-Blind Phase)", "description": "minimum dose: 24/26mg, BID, oral, tablet. maximum dose: 97/103mg, BID, oral, tablet. All patients began on Dose Level 1 (24/26mg) and were titrated every two weeks to target Dose level 3 (97/103mg)."}], "denoms": [{"units": "Participants", "counts": [{"groupId": "OG000", "value": "233"}, {"groupId": "OG001", "value": "231"}]}], "classes": [{"categories": [{"measurements": [{"groupId": "OG000", "value": "-3.28", "spread": "0.55"}, {"groupId": "OG001", "value": "-4.86", "spread": "0.56"}]}]}], "analyses": [{"groupIds": ["OG000", "OG001"], "nonInferiorityType": "SUPERIORITY", "pValue": "0.0452", "statisticalMethod": "ANCOVA", "paramType": "Median Difference (Final Values)", "paramValue": "-1.58", "ciPctValue": "95", "ciNumSides": "TWO_SIDED", "ciLowerLimit": "-3.13", "ciUpperLimit": "-0.03"}]}, {"type": "SECONDARY", "title": "Change From Baseline in Echocardiographic Measure: Left Ventricular End Diastolic Volume Index (LVEDVi)", "description": "Parameter measured by echocardiography", "populationDescription": "Full Analysis Set", "reportingStatus": "POSTED", "paramType": "LEAST_SQUARES_MEAN", "dispersionType": "Standard Error", "unitOfMeasure": "mL/m2", "timeFrame": "Baseline, Week 12", "groups": [{"id": "OG000", "title": "Enalapril (Double-Blind Phase)", "description": "minimum dose: 2.5mg, BID, oral, tablet. maximum dose: 10 mg, BID, oral tablet. All patients began on Dose Level 1 (2.5mg) and were titrated every two weeks to target Dose level 3 (10mg)."}, {"id": "OG001", "title": "Sacubitril/Valsartan (Double-Blind Phase)", "description": "minimum dose: 24/26mg, BID, oral, tablet. maximum dose: 97/103mg, BID, oral, tablet. All patients began on Dose Level 1 (24/26mg) and were titrated every two weeks to target Dose level 3 (97/103mg)."}], "denoms": [{"units": "Participants", "counts": [{"groupId": "OG000", "value": "233"}, {"groupId": "OG001", "value": "231"}]}], "classes": [{"categories": [{"measurements": [{"groupId": "OG000", "value": "-3.18", "spread": "0.61"}, {"groupId": "OG001", "value": "-5.15", "spread": "0.62"}]}]}], "analyses": [{"groupIds": ["OG000", "OG001"], "nonInferiorityType": "SUPERIORITY", "pValue": "0.0242", "statisticalMethod": "ANCOVA", "paramType": "Mean Difference (Final Values)", "paramValue": "-1.97", "ciPctValue": "95", "ciNumSides": "TWO_SIDED", "ciLowerLimit": "-3.68", "ciUpperLimit": "-0.26"}]}]}, "adverseEventsModule": {"frequencyThreshold": "5", "timeFrame": "Adverse events were collected from first dose of study treatment until end of study treatment, plus 30 days post treatment, up to maximum duration of approximately 2.5 years.", "description": "Any sign or symptom that occurs during the study treatment plus the 30 days post treatment.", "eventGroups": [{"id": "EG000", "title": "Double Blind Phase Enalapril", "description": "Minimum dose: 2.5mg, BID, oral, tablet. Maximum dose: 10 mg, BID, oral tablet. All patients began on Dose Level 1 (2.5mg) and were titrated every two weeks to target Dose level 3 (10mg).", "deathsNumAffected": 1, "deathsNumAtRisk": 233, "seriousNumAffected": 21, "seriousNumAtRisk": 233, "otherNumAffected": 32, "otherNumAtRisk": 233}, {"id": "EG001", "title": "Double Blind Phase Sacubitril/Valsartan", "description": "Minimum dose: 24/26mg, BID, oral, tablet. Maximum dose:\n\n97/103mg, BID, oral, tablet. All patients began on Dose Level 1 (24/26mg) and were titrated every two weeks to target Dose level 3 (97/103mg).", "deathsNumAffected": 1, "deathsNumAtRisk": 231, "seriousNumAffected": 17, "seriousNumAtRisk": 231, "otherNumAffected": 43, "otherNumAtRisk": 231}, {"id": "EG002", "title": "Open-Label Phase Sacubitril/Valsartan", "description": "LCZ696 tablets were provided for the 12-week open label extension.", "deathsNumAffected": 5, "deathsNumAtRisk": 454, "seriousNumAffected": 40, "seriousNumAtRisk": 454, "otherNumAffected": 42, "otherNumAtRisk": 454}], "seriousEvents": [{"term": "Anaemia", "organSystem": "Blood and lymphatic system disorders", "sourceVocabulary": "MedDRA (21.1)", "assessmentType": "SYSTEMATIC_ASSESSMENT", "stats": [{"groupId": "EG000", "numAffected": 0, "numAtRisk": 233}, {"groupId": "EG001", "numAffected": 1, "numAtRisk": 231}, {"groupId": "EG002", "numAffected": 0, "numAtRisk": 454}]}, {"term": "Acute coronary syndrome", "organSystem": "Cardiac disorders", "sourceVocabulary": "MedDRA (21.1)", "assessmentType": "SYSTEMATIC_ASSESSMENT", "stats": [{"groupId": "EG000", "numAffected": 0, "numAtRisk": 233}, {"groupId": "EG001", "numAffected": 1, "numAtRisk": 231}, {"groupId": "EG002", "numAffected": 0, "numAtRisk": 454}]}, {"term": "Acute left ventricular failure", "organSystem": "Cardiac disorders", "sourceVocabulary": "MedDRA (21.1)", "assessmentType": "SYSTEMATIC_ASSESSMENT", "stats": [{"groupId": "EG000", "numAffected": 0, "numAtRisk": 233}, {"groupId": "EG001", "numAffected": 1, "numAtRisk": 231}, {"groupId": "EG002", "numAffected": 0, "numAtRisk": 454}]}, {"term": "Acute myocardial infarction", "organSystem": "Cardiac disorders", "sourceVocabulary": "MedDRA (21.1)", "assessmentType": "SYSTEMATIC_ASSESSMENT", "stats": [{"groupId": "EG000", "numAffected": 3, "numAtRisk": 233}, {"groupId": "EG001", "numAffected": 0, "numAtRisk": 231}, {"groupId": "EG002", "numAffected": 2, "numAtRisk": 454}]}, {"term": "Angina pectoris", "organSystem": "Cardiac disorders", "sourceVocabulary": "MedDRA (21.1)", "assessmentType": "SYSTEMATIC_ASSESSMENT", "stats": [{"groupId": "EG000", "numAffected": 0, "numAtRisk": 233}, {"groupId": "EG001", "numAffected": 0, "numAtRisk": 231}, {"groupId": "EG002", "numAffected": 3, "numAtRisk": 454}]}, {"term": "Angina unstable", "organSystem": "Cardiac disorders", "sourceVocabulary": "MedDRA (21.1)", "assessmentType": "SYSTEMATIC_ASSESSMENT", "stats": [{"groupId": "EG000", "numAffected": 1, "numAtRisk": 233}, {"groupId": "EG001", "numAffected": 0, "numAtRisk": 231}, {"groupId": "EG002", "numAffected": 0, "numAtRisk": 454}]}, {"term": "Atrial fibrillation", "organSystem": "Cardiac disorders", "sourceVocabulary": "MedDRA (21.1)", "assessmentType": "SYSTEMATIC_ASSESSMENT", "stats": [{"groupId": "EG000", "numAffected": 0, "numAtRisk": 233}, {"groupId": "EG001", "numAffected": 2, "numAtRisk": 231}, {"groupId": "EG002", "numAffected": 0, "numAtRisk": 454}]}, {"term": "Atrioventricular block complete", "organSystem": "Cardiac disorders", "sourceVocabulary": "MedDRA (21.1)", "assessmentType": "SYSTEMATIC_ASSESSMENT", "stats": [{"groupId": "EG000", "numAffected": 0, "numAtRisk": 233}, {"groupId": "EG001", "numAffected": 0, "numAtRisk": 231}, {"groupId": "EG002", "numAffected": 1, "numAtRisk": 454}]}, {"term": "Bradycardia", "organSystem": "Cardiac disorders", "sourceVocabulary": "MedDRA (21.1)", "assessmentType": "SYSTEMATIC_ASSESSMENT", "stats": [{"groupId": "EG000", "numAffected": 0, "numAtRisk": 233}, {"groupId": "EG001", "numAffected": 0, "numAtRisk": 231}, {"groupId": "EG002", "numAffected": 2, "numAtRisk": 454}]}, {"term": "Cardiac arrest", "organSystem": "Cardiac disorders", "sourceVocabulary": "MedDRA (21.1)", "assessmentType": "SYSTEMATIC_ASSESSMENT", "stats": [{"groupId": "EG000", "numAffected": 0, "numAtRisk": 233}, {"groupId": "EG001", "numAffected": 0, "numAtRisk": 231}, {"groupId": "EG002", "numAffected": 2, "numAtRisk": 454}]}, {"term": "Cardiac failure", "organSystem": "Cardiac disorders", "sourceVocabulary": "MedDRA (21.1)", "assessmentType": "SYSTEMATIC_ASSESSMENT", "stats": [{"groupId": "EG000", "numAffected": 3, "numAtRisk": 233}, {"groupId": "EG001", "numAffected": 1, "numAtRisk": 231}, {"groupId": "EG002", "numAffected": 2, "numAtRisk": 454}]}, {"term": "Cardiac failure chronic", "organSystem": "Cardiac disorders", "sourceVocabulary": "MedDRA (21.1)", "assessmentType": "SYSTEMATIC_ASSESSMENT", "stats": [{"groupId": "EG000", "numAffected": 0, "numAtRisk": 233}, {"groupId": "EG001", "numAffected": 0, "numAtRisk": 231}, {"groupId": "EG002", "numAffected": 3, "numAtRisk": 454}]}, {"term": "Cardiac failure congestive", "organSystem": "Cardiac disorders", "sourceVocabulary": "MedDRA (21.1)", "assessmentType": "SYSTEMATIC_ASSESSMENT", "stats": [{"groupId": "EG000", "numAffected": 2, "numAtRisk": 233}, {"groupId": "EG001", "numAffected": 1, "numAtRisk": 231}, {"groupId": "EG002", "numAffected": 3, "numAtRisk": 454}]}, {"term": "Cardiomegaly", "organSystem": "Cardiac disorders", "sourceVocabulary": "MedDRA (21.1)", "assessmentType": "SYSTEMATIC_ASSESSMENT", "stats": [{"groupId": "EG000", "numAffected": 1, "numAtRisk": 233}, {"groupId": "EG001", "numAffected": 0, "numAtRisk": 231}, {"groupId": "EG002", "numAffected": 0, "numAtRisk": 454}]}, {"term": "Cardiovascular disorder", "organSystem": "Cardiac disorders", "sourceVocabulary": "MedDRA (21.1)", "assessmentType": "SYSTEMATIC_ASSESSMENT", "stats": [{"groupId": "EG000", "numAffected": 0, "numAtRisk": 233}, {"groupId": "EG001", "numAffected": 0, "numAtRisk": 231}, {"groupId": "EG002", "numAffected": 1, "numAtRisk": 454}]}, {"term": "Coronary artery disease", "organSystem": "Cardiac disorders", "sourceVocabulary": "MedDRA (21.1)", "assessmentType": "SYSTEMATIC_ASSESSMENT", "stats": [{"groupId": "EG000", "numAffected": 1, "numAtRisk": 233}, {"groupId": "EG001", "numAffected": 0, "numAtRisk": 231}, {"groupId": "EG002", "numAffected": 1, "numAtRisk": 454}]}, {"term": "Left ventricular failure", "organSystem": "Cardiac disorders", "sourceVocabulary": "MedDRA (21.1)", "assessmentType": "SYSTEMATIC_ASSESSMENT", "stats": [{"groupId": "EG000", "numAffected": 1, "numAtRisk": 233}, {"groupId": "EG001", "numAffected": 2, "numAtRisk": 231}, {"groupId": "EG002", "numAffected": 2, "numAtRisk": 454}]}, {"term": "Supraventricular tachycardia", "organSystem": "Cardiac disorders", "sourceVocabulary": "MedDRA (21.1)", "assessmentType": "SYSTEMATIC_ASSESSMENT", "stats": [{"groupId": "EG000", "numAffected": 0, "numAtRisk": 233}, {"groupId": "EG001", "numAffected": 1, "numAtRisk": 231}, {"groupId": "EG002", "numAffected": 0, "numAtRisk": 454}]}, {"term": "Ventricular fibrillation", "organSystem": "Cardiac disorders", "sourceVocabulary": "MedDRA (21.1)", "assessmentType": "SYSTEMATIC_ASSESSMENT", "stats": [{"groupId": "EG000", "numAffected": 0, "numAtRisk": 233}, {"groupId": "EG001", "numAffected": 1, "numAtRisk": 231}, {"groupId": "EG002", "numAffected": 1, "numAtRisk": 454}]}, {"term": "Ventricular tachycardia", "organSystem": "Cardiac disorders", "sourceVocabulary": "MedDRA (21.1)", "assessmentType": "SYSTEMATIC_ASSESSMENT", "stats": [{"groupId": "EG000", "numAffected": 0, "numAtRisk": 233}, {"groupId": "EG001", "numAffected": 1, "numAtRisk": 231}, {"groupId": "EG002", "numAffected": 1, "numAtRisk": 454}]}, {"term": "Abdominal distension", "organSystem": "Gastrointestinal disorders", "sourceVocabulary": "MedDRA (21.1)", "assessmentType": "SYSTEMATIC_ASSESSMENT", "stats": [{"groupId": "EG000", "numAffected": 0, "numAtRisk": 233}, {"groupId": "EG001", "numAffected": 0, "numAtRisk": 231}, {"groupId": "EG002", "numAffected": 1, "numAtRisk": 454}]}, {"term": "Small intestinal obstruction", "organSystem": "Gastrointestinal disorders", "sourceVocabulary": "MedDRA (21.1)", "assessmentType": "SYSTEMATIC_ASSESSMENT", "stats": [{"groupId": "EG000", "numAffected": 0, "numAtRisk": 233}, {"groupId": "EG001", "numAffected": 0, "numAtRisk": 231}, {"groupId": "EG002", "numAffected": 1, "numAtRisk": 454}]}, {"term": "Multiple organ dysfunction syndrome", "organSystem": "General disorders", "sourceVocabulary": "MedDRA (21.1)", "assessmentType": "SYSTEMATIC_ASSESSMENT", "stats": [{"groupId": "EG000", "numAffected": 1, "numAtRisk": 233}, {"groupId": "EG001", "numAffected": 0, "numAtRisk": 231}, {"groupId": "EG002", "numAffected": 0, "numAtRisk": 454}]}, {"term": "Necrosis", "organSystem": "General disorders", "sourceVocabulary": "MedDRA (21.1)", "assessmentType": "SYSTEMATIC_ASSESSMENT", "stats": [{"groupId": "EG000", "numAffected": 0, "numAtRisk": 233}, {"groupId": "EG001", "numAffected": 0, "numAtRisk": 231}, {"groupId": "EG002", "numAffected": 1, "numAtRisk": 454}]}, {"term": "Non-cardiac chest pain", "organSystem": "General disorders", "sourceVocabulary": "MedDRA (21.1)", "assessmentType": "SYSTEMATIC_ASSESSMENT", "stats": [{"groupId": "EG000", "numAffected": 0, "numAtRisk": 233}, {"groupId": "EG001", "numAffected": 0, "numAtRisk": 231}, {"groupId": "EG002", "numAffected": 1, "numAtRisk": 454}]}, {"term": "Oedema peripheral", "organSystem": "General disorders", "sourceVocabulary": "MedDRA (21.1)", "assessmentType": "SYSTEMATIC_ASSESSMENT", "stats": [{"groupId": "EG000", "numAffected": 0, "numAtRisk": 233}, {"groupId": "EG001", "numAffected": 0, "numAtRisk": 231}, {"groupId": "EG002", "numAffected": 1, "numAtRisk": 454}]}, {"term": "Swelling", "organSystem": "General disorders", "sourceVocabulary": "MedDRA (21.1)", "assessmentType": "SYSTEMATIC_ASSESSMENT", "stats": [{"groupId": "EG000", "numAffected": 0, "numAtRisk": 233}, {"groupId": "EG001", "numAffected": 0, "numAtRisk": 231}, {"groupId": "EG002", "numAffected": 1, "numAtRisk": 454}]}, {"term": "Cholecystitis acute", "organSystem": "Hepatobiliary disorders", "sourceVocabulary": "MedDRA (21.1)", "assessmentType": "SYSTEMATIC_ASSESSMENT", "stats": [{"groupId": "EG000", "numAffected": 1, "numAtRisk": 233}, {"groupId": "EG001", "numAffected": 0, "numAtRisk": 231}, {"groupId": "EG002", "numAffected": 0, "numAtRisk": 454}]}, {"term": "Cholelithiasis", "organSystem": "Hepatobiliary disorders", "sourceVocabulary": "MedDRA (21.1)", "assessmentType": "SYSTEMATIC_ASSESSMENT", "stats": [{"groupId": "EG000", "numAffected": 1, "numAtRisk": 233}, {"groupId": "EG001", "numAffected": 0, "numAtRisk": 231}, {"groupId": "EG002", "numAffected": 0, "numAtRisk": 454}]}, {"term": "Abdominal wall abscess", "organSystem": "Infections and infestations", "sourceVocabulary": "MedDRA (21.1)", "assessmentType": "SYSTEMATIC_ASSESSMENT", "stats": [{"groupId": "EG000", "numAffected": 0, "numAtRisk": 233}, {"groupId": "EG001", "numAffected": 0, "numAtRisk": 231}, {"groupId": "EG002", "numAffected": 1, "numAtRisk": 454}]}, {"term": "Bronchitis", "organSystem": "Infections and infestations", "sourceVocabulary": "MedDRA (21.1)", "assessmentType": "SYSTEMATIC_ASSESSMENT", "stats": [{"groupId": "EG000", "numAffected": 0, "numAtRisk": 233}, {"groupId": "EG001", "numAffected": 1, "numAtRisk": 231}, {"groupId": "EG002", "numAffected": 0, "numAtRisk": 454}]}, {"term": "Cystitis", "organSystem": "Infections and infestations", "sourceVocabulary": "MedDRA (21.1)", "assessmentType": "SYSTEMATIC_ASSESSMENT", "stats": [{"groupId": "EG000", "numAffected": 1, "numAtRisk": 233}, {"groupId": "EG001", "numAffected": 0, "numAtRisk": 231}, {"groupId": "EG002", "numAffected": 0, "numAtRisk": 454}]}, {"term": "Device related sepsis", "organSystem": "Infections and infestations", "sourceVocabulary": "MedDRA (21.1)", "assessmentType": "SYSTEMATIC_ASSESSMENT", "stats": [{"groupId": "EG000", "numAffected": 0, "numAtRisk": 233}, {"groupId": "EG001", "numAffected": 1, "numAtRisk": 231}, {"groupId": "EG002", "numAffected": 0, "numAtRisk": 454}]}, {"term": "Gastroenteritis", "organSystem": "Infections and infestations", "sourceVocabulary": "MedDRA (21.1)", "assessmentType": "SYSTEMATIC_ASSESSMENT", "stats": [{"groupId": "EG000", "numAffected": 0, "numAtRisk": 233}, {"groupId": "EG001", "numAffected": 1, "numAtRisk": 231}, {"groupId": "EG002", "numAffected": 0, "numAtRisk": 454}]}, {"term": "Osteomyelitis", "organSystem": "Infections and infestations", "sourceVocabulary": "MedDRA (21.1)", "assessmentType": "SYSTEMATIC_ASSESSMENT", "stats": [{"groupId": "EG000", "numAffected": 0, "numAtRisk": 233}, {"groupId": "EG001", "numAffected": 0, "numAtRisk": 231}, {"groupId": "EG002", "numAffected": 1, "numAtRisk": 454}]}, {"term": "Periorbital cellulitis", "organSystem": "Infections and infestations", "sourceVocabulary": "MedDRA (21.1)", "assessmentType": "SYSTEMATIC_ASSESSMENT", "stats": [{"groupId": "EG000", "numAffected": 0, "numAtRisk": 233}, {"groupId": "EG001", "numAffected": 0, "numAtRisk": 231}, {"groupId": "EG002", "numAffected": 1, "numAtRisk": 454}]}, {"term": "Pneumonia", "organSystem": "Infections and infestations", "sourceVocabulary": "MedDRA (21.1)", "assessmentType": "SYSTEMATIC_ASSESSMENT", "stats": [{"groupId": "EG000", "numAffected": 3, "numAtRisk": 233}, {"groupId": "EG001", "numAffected": 1, "numAtRisk": 231}, {"groupId": "EG002", "numAffected": 2, "numAtRisk": 454}]}, {"term": "Sepsis", "organSystem": "Infections and infestations", "sourceVocabulary": "MedDRA (21.1)", "assessmentType": "SYSTEMATIC_ASSESSMENT", "stats": [{"groupId": "EG000", "numAffected": 2, "numAtRisk": 233}, {"groupId": "EG001", "numAffected": 0, "numAtRisk": 231}, {"groupId": "EG002", "numAffected": 1, "numAtRisk": 454}]}, {"term": "Urinary tract infection", "organSystem": "Infections and infestations", "sourceVocabulary": "MedDRA (21.1)", "assessmentType": "SYSTEMATIC_ASSESSMENT", "stats": [{"groupId": "EG000", "numAffected": 1, "numAtRisk": 233}, {"groupId": "EG001", "numAffected": 0, "numAtRisk": 231}, {"groupId": "EG002", "numAffected": 1, "numAtRisk": 454}]}, {"term": "Urosepsis", "organSystem": "Infections and infestations", "sourceVocabulary": "MedDRA (21.1)", "assessmentType": "SYSTEMATIC_ASSESSMENT", "stats": [{"groupId": "EG000", "numAffected": 0, "numAtRisk": 233}, {"groupId": "EG001", "numAffected": 0, "numAtRisk": 231}, {"groupId": "EG002", "numAffected": 1, "numAtRisk": 454}]}, {"term": "Femoral neck fracture", "organSystem": "Injury, poisoning and procedural complications", "sourceVocabulary": "MedDRA (21.1)", "assessmentType": "SYSTEMATIC_ASSESSMENT", "stats": [{"groupId": "EG000", "numAffected": 0, "numAtRisk": 233}, {"groupId": "EG001", "numAffected": 0, "numAtRisk": 231}, {"groupId": "EG002", "numAffected": 1, "numAtRisk": 454}]}, {"term": "Rib fracture", "organSystem": "Injury, poisoning and procedural complications", "sourceVocabulary": "MedDRA (21.1)", "assessmentType": "SYSTEMATIC_ASSESSMENT", "stats": [{"groupId": "EG000", "numAffected": 0, "numAtRisk": 233}, {"groupId": "EG001", "numAffected": 0, "numAtRisk": 231}, {"groupId": "EG002", "numAffected": 1, "numAtRisk": 454}]}, {"term": "Road traffic accident", "organSystem": "Injury, poisoning and procedural complications", "sourceVocabulary": "MedDRA (21.1)", "assessmentType": "SYSTEMATIC_ASSESSMENT", "stats": [{"groupId": "EG000", "numAffected": 0, "numAtRisk": 233}, {"groupId": "EG001", "numAffected": 0, "numAtRisk": 231}, {"groupId": "EG002", "numAffected": 1, "numAtRisk": 454}]}, {"term": "Troponin increased", "organSystem": "Investigations", "sourceVocabulary": "MedDRA (21.1)", "assessmentType": "SYSTEMATIC_ASSESSMENT", "stats": [{"groupId": "EG000", "numAffected": 0, "numAtRisk": 233}, {"groupId": "EG001", "numAffected": 1, "numAtRisk": 231}, {"groupId": "EG002", "numAffected": 0, "numAtRisk": 454}]}, {"term": "Dehydration", "organSystem": "Metabolism and nutrition disorders", "sourceVocabulary": "MedDRA (21.1)", "assessmentType": "SYSTEMATIC_ASSESSMENT", "stats": [{"groupId": "EG000", "numAffected": 0, "numAtRisk": 233}, {"groupId": "EG001", "numAffected": 1, "numAtRisk": 231}, {"groupId": "EG002", "numAffected": 0, "numAtRisk": 454}]}, {"term": "Diabetes mellitus", "organSystem": "Metabolism and nutrition disorders", "sourceVocabulary": "MedDRA (21.1)", "assessmentType": "SYSTEMATIC_ASSESSMENT", "stats": [{"groupId": "EG000", "numAffected": 1, "numAtRisk": 233}, {"groupId": "EG001", "numAffected": 0, "numAtRisk": 231}, {"groupId": "EG002", "numAffected": 0, "numAtRisk": 454}]}, {"term": "Hyperkalaemia", "organSystem": "Metabolism and nutrition disorders", "sourceVocabulary": "MedDRA (21.1)", "assessmentType": "SYSTEMATIC_ASSESSMENT", "stats": [{"groupId": "EG000", "numAffected": 0, "numAtRisk": 233}, {"groupId": "EG001", "numAffected": 1, "numAtRisk": 231}, {"groupId": "EG002", "numAffected": 1, "numAtRisk": 454}]}, {"term": "Hypoglycaemia", "organSystem": "Metabolism and nutrition disorders", "sourceVocabulary": "MedDRA (21.1)", "assessmentType": "SYSTEMATIC_ASSESSMENT", "stats": [{"groupId": "EG000", "numAffected": 0, "numAtRisk": 233}, {"groupId": "EG001", "numAffected": 2, "numAtRisk": 231}, {"groupId": "EG002", "numAffected": 0, "numAtRisk": 454}]}, {"term": "Hyponatraemia", "organSystem": "Metabolism and nutrition disorders", "sourceVocabulary": "MedDRA (21.1)", "assessmentType": "SYSTEMATIC_ASSESSMENT", "stats": [{"groupId": "EG000", "numAffected": 0, "numAtRisk": 233}, {"groupId": "EG001", "numAffected": 0, "numAtRisk": 231}, {"groupId": "EG002", "numAffected": 1, "numAtRisk": 454}]}, {"term": "Muscular weakness", "organSystem": "Musculoskeletal and connective tissue disorders", "sourceVocabulary": "MedDRA (21.1)", "assessmentType": "SYSTEMATIC_ASSESSMENT", "stats": [{"groupId": "EG000", "numAffected": 0, "numAtRisk": 233}, {"groupId": "EG001", "numAffected": 1, "numAtRisk": 231}, {"groupId": "EG002", "numAffected": 0, "numAtRisk": 454}]}, {"term": "Breast cancer", "organSystem": "Neoplasms benign, malignant and unspecified (incl cysts and polyps)", "sourceVocabulary": "MedDRA (21.1)", "assessmentType": "SYSTEMATIC_ASSESSMENT", "stats": [{"groupId": "EG000", "numAffected": 1, "numAtRisk": 233}, {"groupId": "EG001", "numAffected": 0, "numAtRisk": 231}, {"groupId": "EG002", "numAffected": 0, "numAtRisk": 454}]}, {"term": "Hepatic cancer metastatic", "organSystem": "Neoplasms benign, malignant and unspecified (incl cysts and polyps)", "sourceVocabulary": "MedDRA (21.1)", "assessmentType": "SYSTEMATIC_ASSESSMENT", "stats": [{"groupId": "EG000", "numAffected": 0, "numAtRisk": 233}, {"groupId": "EG001", "numAffected": 0, "numAtRisk": 231}, {"groupId": "EG002", "numAffected": 1, "numAtRisk": 454}]}, {"term": "Myelodysplastic syndrome", "organSystem": "Neoplasms benign, malignant and unspecified (incl cysts and polyps)", "sourceVocabulary": "MedDRA (21.1)", "assessmentType": "SYSTEMATIC_ASSESSMENT", "stats": [{"groupId": "EG000", "numAffected": 1, "numAtRisk": 233}, {"groupId": "EG001", "numAffected": 0, "numAtRisk": 231}, {"groupId": "EG002", "numAffected": 0, "numAtRisk": 454}]}, {"term": "Plasma cell myeloma", "organSystem": "Neoplasms benign, malignant and unspecified (incl cysts and polyps)", "sourceVocabulary": "MedDRA (21.1)", "assessmentType": "SYSTEMATIC_ASSESSMENT", "stats": [{"groupId": "EG000", "numAffected": 1, "numAtRisk": 233}, {"groupId": "EG001", "numAffected": 0, "numAtRisk": 231}, {"groupId": "EG002", "numAffected": 0, "numAtRisk": 454}]}, {"term": "Squamous cell carcinoma of lung", "organSystem": "Neoplasms benign, malignant and unspecified (incl cysts and polyps)", "sourceVocabulary": "MedDRA (21.1)", "assessmentType": "SYSTEMATIC_ASSESSMENT", "stats": [{"groupId": "EG000", "numAffected": 0, "numAtRisk": 233}, {"groupId": "EG001", "numAffected": 0, "numAtRisk": 231}, {"groupId": "EG002", "numAffected": 1, "numAtRisk": 454}]}, {"term": "Carotid artery disease", "organSystem": "Nervous system disorders", "sourceVocabulary": "MedDRA (21.1)", "assessmentType": "SYSTEMATIC_ASSESSMENT", "stats": [{"groupId": "EG000", "numAffected": 1, "numAtRisk": 233}, {"groupId": "EG001", "numAffected": 0, "numAtRisk": 231}, {"groupId": "EG002", "numAffected": 0, "numAtRisk": 454}]}, {"term": "Carotid artery stenosis", "organSystem": "Nervous system disorders", "sourceVocabulary": "MedDRA (21.1)", "assessmentType": "SYSTEMATIC_ASSESSMENT", "stats": [{"groupId": "EG000", "numAffected": 0, "numAtRisk": 233}, {"groupId": "EG001", "numAffected": 0, "numAtRisk": 231}, {"groupId": "EG002", "numAffected": 1, "numAtRisk": 454}]}, {"term": "Cerebrovascular accident", "organSystem": "Nervous system disorders", "sourceVocabulary": "MedDRA (21.1)", "assessmentType": "SYSTEMATIC_ASSESSMENT", "stats": [{"groupId": "EG000", "numAffected": 0, "numAtRisk": 233}, {"groupId": "EG001", "numAffected": 0, "numAtRisk": 231}, {"groupId": "EG002", "numAffected": 1, "numAtRisk": 454}]}, {"term": "Ischaemic stroke", "organSystem": "Nervous system disorders", "sourceVocabulary": "MedDRA (21.1)", "assessmentType": "SYSTEMATIC_ASSESSMENT", "stats": [{"groupId": "EG000", "numAffected": 1, "numAtRisk": 233}, {"groupId": "EG001", "numAffected": 0, "numAtRisk": 231}, {"groupId": "EG002", "numAffected": 0, "numAtRisk": 454}]}, {"term": "Syncope", "organSystem": "Nervous system disorders", "sourceVocabulary": "MedDRA (21.1)", "assessmentType": "SYSTEMATIC_ASSESSMENT", "stats": [{"groupId": "EG000", "numAffected": 2, "numAtRisk": 233}, {"groupId": "EG001", "numAffected": 1, "numAtRisk": 231}, {"groupId": "EG002", "numAffected": 1, "numAtRisk": 454}]}, {"term": "Device failure", "organSystem": "Product Issues", "sourceVocabulary": "MedDRA (21.1)", "assessmentType": "SYSTEMATIC_ASSESSMENT", "stats": [{"groupId": "EG000", "numAffected": 0, "numAtRisk": 233}, {"groupId": "EG001", "numAffected": 0, "numAtRisk": 231}, {"groupId": "EG002", "numAffected": 1, "numAtRisk": 454}]}, {"term": "Device malfunction", "organSystem": "Product Issues", "sourceVocabulary": "MedDRA (21.1)", "assessmentType": "SYSTEMATIC_ASSESSMENT", "stats": [{"groupId": "EG000", "numAffected": 0, "numAtRisk": 233}, {"groupId": "EG001", "numAffected": 0, "numAtRisk": 231}, {"groupId": "EG002", "numAffected": 1, "numAtRisk": 454}]}, {"term": "Chronic kidney disease", "organSystem": "Renal and urinary disorders", "sourceVocabulary": "MedDRA (21.1)", "assessmentType": "SYSTEMATIC_ASSESSMENT", "stats": [{"groupId": "EG000", "numAffected": 1, "numAtRisk": 233}, {"groupId": "EG001", "numAffected": 1, "numAtRisk": 231}, {"groupId": "EG002", "numAffected": 0, "numAtRisk": 454}]}, {"term": "Acute pulmonary oedema", "organSystem": "Respiratory, thoracic and mediastinal disorders", "sourceVocabulary": "MedDRA (21.1)", "assessmentType": "SYSTEMATIC_ASSESSMENT", "stats": [{"groupId": "EG000", "numAffected": 2, "numAtRisk": 233}, {"groupId": "EG001", "numAffected": 0, "numAtRisk": 231}, {"groupId": "EG002", "numAffected": 0, "numAtRisk": 454}]}, {"term": "Chronic obstructive pulmonary disease", "organSystem": "Respiratory, thoracic and mediastinal disorders", "sourceVocabulary": "MedDRA (21.1)", "assessmentType": "SYSTEMATIC_ASSESSMENT", "stats": [{"groupId": "EG000", "numAffected": 1, "numAtRisk": 233}, {"groupId": "EG001", "numAffected": 2, "numAtRisk": 231}, {"groupId": "EG002", "numAffected": 1, "numAtRisk": 454}]}, {"term": "Dyspnoea", "organSystem": "Respiratory, thoracic and mediastinal disorders", "sourceVocabulary": "MedDRA (21.1)", "assessmentType": "SYSTEMATIC_ASSESSMENT", "stats": [{"groupId": "EG000", "numAffected": 0, "numAtRisk": 233}, {"groupId": "EG001", "numAffected": 0, "numAtRisk": 231}, {"groupId": "EG002", "numAffected": 2, "numAtRisk": 454}]}, {"term": "Dyspnoea exertional", "organSystem": "Respiratory, thoracic and mediastinal disorders", "sourceVocabulary": "MedDRA (21.1)", "assessmentType": "SYSTEMATIC_ASSESSMENT", "stats": [{"groupId": "EG000", "numAffected": 0, "numAtRisk": 233}, {"groupId": "EG001", "numAffected": 0, "numAtRisk": 231}, {"groupId": "EG002", "numAffected": 1, "numAtRisk": 454}]}, {"term": "Respiratory failure", "organSystem": "Respiratory, thoracic and mediastinal disorders", "sourceVocabulary": "MedDRA (21.1)", "assessmentType": "SYSTEMATIC_ASSESSMENT", "stats": [{"groupId": "EG000", "numAffected": 2, "numAtRisk": 233}, {"groupId": "EG001", "numAffected": 0, "numAtRisk": 231}, {"groupId": "EG002", "numAffected": 2, "numAtRisk": 454}]}, {"term": "Deep vein thrombosis", "organSystem": "Vascular disorders", "sourceVocabulary": "MedDRA (21.1)", "assessmentType": "SYSTEMATIC_ASSESSMENT", "stats": [{"groupId": "EG000", "numAffected": 0, "numAtRisk": 233}, {"groupId": "EG001", "numAffected": 1, "numAtRisk": 231}, {"groupId": "EG002", "numAffected": 0, "numAtRisk": 454}]}, {"term": "Dry gangrene", "organSystem": "Vascular disorders", "sourceVocabulary": "MedDRA (21.1)", "assessmentType": "SYSTEMATIC_ASSESSMENT", "stats": [{"groupId": "EG000", "numAffected": 1, "numAtRisk": 233}, {"groupId": "EG001", "numAffected": 0, "numAtRisk": 231}, {"groupId": "EG002", "numAffected": 0, "numAtRisk": 454}]}, {"term": "Hypotension", "organSystem": "Vascular disorders", "sourceVocabulary": "MedDRA (21.1)", "assessmentType": "SYSTEMATIC_ASSESSMENT", "stats": [{"groupId": "EG000", "numAffected": 0, "numAtRisk": 233}, {"groupId": "EG001", "numAffected": 0, "numAtRisk": 231}, {"groupId": "EG002", "numAffected": 1, "numAtRisk": 454}]}, {"term": "Lymphoedema", "organSystem": "Vascular disorders", "sourceVocabulary": "MedDRA (21.1)", "assessmentType": "SYSTEMATIC_ASSESSMENT", "stats": [{"groupId": "EG000", "numAffected": 0, "numAtRisk": 233}, {"groupId": "EG001", "numAffected": 0, "numAtRisk": 231}, {"groupId": "EG002", "numAffected": 1, "numAtRisk": 454}]}], "otherEvents": [{"term": "Hyperkalaemia", "organSystem": "Metabolism and nutrition disorders", "sourceVocabulary": "MedDRA (21.1)", "assessmentType": "SYSTEMATIC_ASSESSMENT", "stats": [{"groupId": "EG000", "numAffected": 13, "numAtRisk": 233}, {"groupId": "EG001", "numAffected": 17, "numAtRisk": 231}, {"groupId": "EG002", "numAffected": 12, "numAtRisk": 454}]}, {"term": "Dizziness", "organSystem": "Nervous system disorders", "sourceVocabulary": "MedDRA (21.1)", "assessmentType": "SYSTEMATIC_ASSESSMENT", "stats": [{"groupId": "EG000", "numAffected": 9, "numAtRisk": 233}, {"groupId": "EG001", "numAffected": 13, "numAtRisk": 231}, {"groupId": "EG002", "numAffected": 15, "numAtRisk": 454}]}, {"term": "Hypotension", "organSystem": "Vascular disorders", "sourceVocabulary": "MedDRA (21.1)", "assessmentType": "SYSTEMATIC_ASSESSMENT", "stats": [{"groupId": "EG000", "numAffected": 13, "numAtRisk": 233}, {"groupId": "EG001", "numAffected": 19, "numAtRisk": 231}, {"groupId": "EG002", "numAffected": 16, "numAtRisk": 454}]}]}, "moreInfoModule": {"certainAgreement": {"piSponsorEmployee": false, "restrictionType": "OTHER", "restrictiveAgreement": true, "otherDetails": "The terms and conditions of Novartis' agreements with its investigators may vary. However, Novartis does not prohibit any investigator from publishing. Any publications from a single-site are postponed until the publication of the pooled data (ie, data from all sites) in the clinical trial."}, "pointOfContact": {"title": "Study Director", "organization": "Novartis Pharmaceuticals", "email": "Novartis.email@novartis.com", "phone": "862-778-8300"}}}, "documentSection": {"largeDocumentModule": {"largeDocs": [{"typeAbbrev": "Prot", "hasProtocol": true, "hasSap": false, "hasIcf": false, "label": "Study Protocol", "date": "2019-03-15", "uploadDate": "2020-01-21T13:26", "filename": "Prot_000.pdf", "size": 1022961}, {"typeAbbrev": "SAP", "hasProtocol": false, "hasSap": true, "hasIcf": false, "label": "Statistical Analysis Plan", "date": "2019-03-26", "uploadDate": "2020-01-21T13:26", "filename": "SAP_001.pdf", "size": 605083}]}}, "derivedSection": {"miscInfoModule": {"versionHolder": "2024-06-24"}, "conditionBrowseModule": {"meshes": [{"id": "D000006333", "term": "Heart Failure"}], "ancestors": [{"id": "D000006331", "term": "Heart Diseases"}, {"id": "D000002318", "term": "Cardiovascular Diseases"}], "browseLeaves": [{"id": "M9421", "name": "Heart Failure", "asFound": "Heart Failure", "relevance": "HIGH"}, {"id": "M9419", "name": "Heart Diseases", "relevance": "LOW"}], "browseBranches": [{"abbrev": "BC14", "name": "Heart and Blood Diseases"}, {"abbrev": "All", "name": "All Conditions"}]}, "interventionBrowseModule": {"meshes": [{"id": "D000068756", "term": "Valsartan"}, {"id": "D000004656", "term": "Enalapril"}, {"id": "D000015773", "term": "Enalaprilat"}, {"id": "C000549068", "term": "Sacubitril and valsartan sodium hydrate drug combination"}], "ancestors": [{"id": "D000000959", "term": "Antihypertensive Agents"}, {"id": "D000047228", "term": "Angiotensin II Type 1 Receptor Blockers"}, {"id": "D000057911", "term": "Angiotensin Receptor Antagonists"}, {"id": "D000045504", "term": "Molecular Mechanisms of Pharmacological Action"}, {"id": "D000000806", "term": "Angiotensin-Converting Enzyme Inhibitors"}, {"id": "D000011480", "term": "Protease Inhibitors"}, {"id": "D000004791", "term": "Enzyme Inhibitors"}], "browseLeaves": [{"id": "M301", "name": "Valsartan", "asFound": "Urinary", "relevance": "HIGH"}, {"id": "M350410", "name": "Sacubitril and valsartan sodium hydrate drug combination", "asFound": "Allopurinol", "relevance": "HIGH"}, {"id": "M7822", "name": "Enalapril", "asFound": "Transmission", "relevance": "HIGH"}, {"id": "M18330", "name": "Enalaprilat", "asFound": "Transmission", "relevance": "HIGH"}, {"id": "M4277", "name": "Antihypertensive Agents", "relevance": "LOW"}, {"id": "M4132", "name": "Angiotensin II", "relevance": "LOW"}, {"id": "M289354", "name": "Giapreza", "relevance": "LOW"}, {"id": "M4135", "name": "Angiotensinogen", "relevance": "LOW"}, {"id": "M25789", "name": "Angiotensin II Type 1 Receptor Blockers", "relevance": "LOW"}, {"id": "M28916", "name": "Angiotensin Receptor Antagonists", "relevance": "LOW"}, {"id": "M7951", "name": "Enzyme Inhibitors", "relevance": "LOW"}, {"id": "M4134", "name": "Angiotensin-Converting Enzyme Inhibitors", "relevance": "LOW"}, {"id": "M19609", "name": "HIV Protease Inhibitors", "relevance": "LOW"}, {"id": "M14343", "name": "Protease Inhibitors", "relevance": "LOW"}], "browseBranches": [{"abbrev": "AnAg", "name": "Antihypertensive Agents"}, {"abbrev": "All", "name": "All Drugs and Chemicals"}, {"abbrev": "VaCoAg", "name": "Vasoconstrictor Agents"}, {"abbrev": "Infe", "name": "Anti-Infective Agents"}]}}, "hasResults": true}