{"protocolSection": {"identificationModule": {"nctId": "NCT01147848", "orgStudyIdInfo": {"id": "113091"}, "organization": {"fullName": "GlaxoSmithKline", "class": "INDUSTRY"}, "briefTitle": "HZA113091 Efficacy and Safety of Fluticasone Furoate/Vilanterol (GW642444) in Adults and Adolescents", "officialTitle": "A Randomised, Double-blind, Double-dummy, Parallel-group Multicentre Study to Assess Efficacy and Safety of Fluticasone Furoate/GW642444 Inhalation Powder and Fluticasone Propionate/Salmeterol Inhalation Powder in the Treatment of Persistent Asthma in Adults and Adolescents"}, "statusModule": {"statusVerifiedDate": "2016-11", "overallStatus": "COMPLETED", "expandedAccessInfo": {"hasExpandedAccess": false}, "startDateStruct": {"date": "2010-06"}, "primaryCompletionDateStruct": {"date": "2011-07", "type": "ACTUAL"}, "completionDateStruct": {"date": "2011-07", "type": "ACTUAL"}, "studyFirstSubmitDate": "2010-05-27", "studyFirstSubmitQcDate": "2010-06-17", "studyFirstPostDateStruct": {"date": "2010-06-22", "type": "ESTIMATED"}, "resultsFirstSubmitDate": "2013-06-06", "resultsFirstSubmitQcDate": "2013-06-27", "resultsFirstPostDateStruct": {"date": "2013-09-05", "type": "ESTIMATED"}, "dispFirstSubmitDate": "2012-03-01", "dispFirstSubmitQcDate": "2012-03-01", "dispFirstPostDateStruct": {"date": "2012-03-05", "type": "ESTIMATED"}, "lastUpdateSubmitDate": "2016-11-30", "lastUpdatePostDateStruct": {"date": "2017-01-18", "type": "ESTIMATED"}}, "sponsorCollaboratorsModule": {"responsibleParty": {"type": "SPONSOR"}, "leadSponsor": {"name": "GlaxoSmithKline", "class": "INDUSTRY"}}, "oversightModule": {"oversightHasDmc": false}, "descriptionModule": {"briefSummary": "The purpose of the study is to compare the efficacy and safety of fluticasone furoate/vilanterol (GW642444) inhalation powder administered once daily with fluticasone propionate/salmeterol administered twice daily in adolescent and adult subjects 12 years of age and older with persistent bronchial asthma over a 24-week period."}, "conditionsModule": {"conditions": ["Asthma"], "keywords": ["Salmeterol", "fluticasone furoate", "Vilanterol", "fluticasone propionate", "GW642444"]}, "designModule": {"studyType": "INTERVENTIONAL", "phases": ["PHASE3"], "designInfo": {"allocation": "RANDOMIZED", "interventionModel": "PARALLEL", "primaryPurpose": "TREATMENT", "maskingInfo": {"masking": "DOUBLE", "whoMasked": ["PARTICIPANT", "INVESTIGATOR"]}}, "enrollmentInfo": {"count": 810, "type": "ACTUAL"}}, "armsInterventionsModule": {"armGroups": [{"label": "Fluticasone furoate/Vilanterol (GW642444)", "type": "EXPERIMENTAL", "description": "Fluticasone furoate/vilanterol inhalation powder once daily + placebo inhalation powder twice daily for 24 weeks", "interventionNames": ["Drug: Fluticasone furoate/Vilanterol Inhalation Powder", "Drug: Placebo (2)"]}, {"label": "Fluticasone propionate/salmeterol", "type": "ACTIVE_COMPARATOR", "description": "Fluticasone propionate/salmeterol inhalation powder twice daily + placebo inhalation powder once daily for 24 weeks", "interventionNames": ["Drug: Fluticasone propionate/salmeterol Inhalation Powder", "Drug: Placebo (1)"]}], "interventions": [{"type": "DRUG", "name": "Fluticasone furoate/Vilanterol Inhalation Powder", "description": "Fluticasone furoate/Vilanterol Inhalation Powder inhaled orally once daily for 24 weeks", "armGroupLabels": ["Fluticasone furoate/Vilanterol (GW642444)"]}, {"type": "DRUG", "name": "Fluticasone propionate/salmeterol Inhalation Powder", "description": "Fluticasone propionate/salmeterol Inhalation Powder inhaled orally twice daily for 24 weeks", "armGroupLabels": ["Fluticasone propionate/salmeterol"]}, {"type": "DRUG", "name": "Placebo (1)", "description": "Inhalation powder inhaled orally once daily for 24 weeks", "armGroupLabels": ["Fluticasone propionate/salmeterol"]}, {"type": "DRUG", "name": "Placebo (2)", "description": "Inhalation powder inhaled orally twice daily for 24 weeks", "armGroupLabels": ["Fluticasone furoate/Vilanterol (GW642444)"]}]}, "outcomesModule": {"primaryOutcomes": [{"measure": "Change From Baseline in Weighted-mean 24 Hour Serial FEV1 on Day 168/Week 24", "description": "Pulmonary function was measured by FEV1, defined as the maximal amount of air that can be forcefully exhaled in one second. The weighted mean was calculated from the pre-dose FEV1 and post-dose FEV1 measurements at 5, 15, and 30 minutes (min) and at 1, 2, 3, 4, 11, 12, 12.5, 13, 14, 16, 20, 23, and 24 hours, respectively, on Day 168/Week 24. Change from Baseline was calculated as the weighted mean of the 24-hour serial FEV1 measures on Day 168/Week 24 minus the Baseline value. Baseline was the pre-dose measurement on Day 1. Analysis was performed using analysis of covariance (ANCOVA) with covariates of Baseline FEV1, region, sex, age, and treatment.", "timeFrame": "Baseline and Day 168/Week 24"}], "secondaryOutcomes": [{"measure": "Serial FEV1 (0-24 Hours)", "description": "Pulmonary function was measured by FEV1, defined as the maximal amount of air that can be forcefully exhaled in one second . The pre-dose FEV1 assessment and the individual serial FEV1 assessments at Day 168/Week 24 at the indicated time points (pre-dose, 5 minutes, 15 minutes, 30 minutes, 1 hour, 2 hours, 3 hours, 4 hours, 11 hours, 12 hours, 12.5 hours, 13 hours, 14 hours, 16 hours, 20 hours, 23 hours, and 24 hour s) were summarized.", "timeFrame": "Day 168"}, {"measure": "Number of Participants With the Indicated Time to Onset of Bronchodilator Effect at Day 1", "description": "Time to onset of bronchodilator effect at Day 1 is defined as the actual time during the 4-hour serial FEV1 (the maximal amount of air that can be forcefully exhaled in one second) measurements that the participant first meets or exceeds a 12% and 200 mL increase over Baseline and was derived at Day 1 only. Time to onset was calculated over 0 to 4 hours (5 minutes, 15 minutes, 30 minutes, 1 hour, 2 hours, 3 hours, and 4 hours) post-dose. Participants who never exceeded a 12% and 200 mL increase over Baseline were censored at the actual time of their last FEV1 measurement.", "timeFrame": "Baseline to Day 1"}, {"measure": "Change From Baseline in Weighted Mean Serial FEV1 Over 0-4 Hours Post First Dose (at Randomization)", "description": "The weighted mean serial FEV1 (the maximal amount of air that can be forcefully exhaled in one second) over 0-4 hours post-dose at Baseline was derived using actual times and using the pre-dose assessment as the 0 hour measurement. Change from Baseline was calculated as the weighted mean of the 4-hour serial FEV1 measures on Day 1 minus the Baseline value. Baseline was the pre-dose measurement on Day 1. Analysis was performed using ANCOVA with covariates of Baseline FEV1, region, sex, age, and treatment.", "timeFrame": "Baseline and Randomization"}, {"measure": "Change From Baseline in Weighted Mean Serial FEV1 Over 0-4 Hours at Day 168", "description": "The weighted mean serial FEV1 (the maximal amount of air that can be forcefully exhaled in one second) over 0-4 hours post-dose at Baseline and Day 168 was derived using actual times and using the pre-dose assessment as the 0 hour measurement. Change from Baseline was calculated as the weighted mean of the 4-hour serial FEV1 measures on Day 168/Week 24 minus the Baseline value. Baseline was the pre-dose measurement on Day 1. Analysis was performed using ANCOVA with covariates of Baseline FEV1, region, sex, age, and treatment.", "timeFrame": "Baseline and Day 168"}, {"measure": "Number of Participants Obtaining a >=12% and >=200 mL Increase From Baseline in FEV1", "description": "The number of participants obtaining a \\>=12% and \\>=200 mL increase from Baseline in FEV1 (the maximal amount of air that can be forcefully exhaled in one second) was evaluated at 12-hours post-dose and at 24-hours post-dose on Day 168.", "timeFrame": "Baseline and Day 168"}, {"measure": "Change From Baseline in Trough FEV1 at Day 168", "description": "Pulmonary function was measured by FEV1, defined as the maximal amount of air that can be forcefully exhaled in one second . Trough FEV1 is defined as the pre-dose measurement on Day 168/Week 24. Any missing data at Day 168/Week 24 was imputed using the last observation carried forward (LOCF). Baseline was the pre-dose measurement on Day 1. Change from Baseline was calculated as the pre-dose measurement on Day 168/Week 24 minus the Baseline value.", "timeFrame": "Baseline and Day 168"}], "otherOutcomes": [{"measure": "Baseline FEV1 by Completion Status", "description": "Pulmonary function was measured by FEV1, defined as the maximal amount of air that can be forcefully exhaled in one second . Baseline is defined as the mean of the two assessments made 30 minutes pre-dose and 5 minutes pre-dose on Treatment Day 1.", "timeFrame": "Baseline"}, {"measure": "Change From Baseline in Asthma Control Test (ACT) Scores at Day 168", "description": "The ACT is a 5-item questionnaire developed as a measure of the participant's asthma control. Questions are designed to be self-completed by the participant and include the following: In the past 4 weeks, \"How much of the time did your asthma keep you from getting as much done at work, school or at home?\", \"How often have you had shortness of breath?\", \"How often did your asthma symptoms wake you up at night or earlier than usual in the morning?\", \"How often have you used your rescue inhaler or nebulizer medication (such as albuterol)?\" and \"How would you rate your asthma control\"? The ACT total score is defined as the sum of the scores from all 5 questions, provided all questions have been answered; thus, the total score ranges from 5 (poor control of asthma) to 25 (complete control of asthma). A score of 20 or higher indicates well-controlled asthma. Change from Baseline was calculated as the Day 168 value minus the Baseline value.", "timeFrame": "Baseline and Day 168"}, {"measure": "Number of Healthcare Contacts Related to Asthma or the Treatment of Asthma From Baseline to Day 168", "description": "All unscheduled asthma-related visits to a physician's office, visits to urgent care, visits to the emergency department, and hospitalizations (to the general ward \\[GW\\] or the intensive care unit \\[ICU\\]) that were associated with asthma exacerbations were recorded.", "timeFrame": "Baseline to Day 168"}, {"measure": "Change From Baseline in Asthma Quality of Life Questionnaire (AQLQ) Total Score for Participants 12 Years of Age and Older (AQLQ + 12)", "description": "The AQLQ is a disease-specific, self-administered quality of life (QOL) questionnaire developed to evaluate the impact of asthma treatments on the QOL of asthma sufferers. The AQLQ contains 32 items in four domains: activity limitation (11 items), symptoms (12 items), emotional function (5 items), and environmental stimuli (4 items). The response format consists of a 7-point scale: a value of 1 indicates \"total impairment\"; a value of 7 indicates \"no impairment.\" The AQLQ total score is defined as the average of the scores from all 32 questions, provided at least 90% of the questions have been answered; thus, the total score ranges from 1 (indicates \"total impairment\") to 7 (indicates \"no impairment\"). Change from Baseline was calculated as the Day 168 value minus the Baseline value. Analysis was performed using ANCOVA with covariates of Baseline total AQLQ score, country, sex, age, and treatment.", "timeFrame": "Baseline and Day 168"}, {"measure": "Percentage of Participants With \"No Problems\" in the EQ-5D Descriptive System Dimensions at Day 168/Week 24", "description": "The EQ-5D is a standardized, 2-part, self-assessment instrument, designed for self-completion, used to measure health outcome. The first part consists of 5 items covering 5 dimensions (mobility, self care, usual activities, pain/discomfort, and anxiety/depression). Each dimension is measured by a three-point Likert scale (1=no problems, 2=some problems and 3=severe problems). Respondents are asked to choose one level that reflects their \"own health state today\" for each of the five dimensions.", "timeFrame": "Day 168/Week 24"}, {"measure": "Change From Baseline in EQ-5D Visual Analog Scale (VAS) Score at Day 168", "description": "The EQ-5D is a standardized, 2-part, self-assessment instrument, designed for self-completion, used to measure health outcome. The first part consists of 5 items covering 5 dimensions (mobility, self care, usual activities, pain/discomfort, and anxiety/depression). The second part is a 20 centimeter VAS that has endpoints labelled \"best imaginable health state\" and \"worst imaginable health state\" anchored at 100 and 0, respectively. Participants were asked to indicate how they rate their own health by drawing a line from an anchor box to that point on the EQ-VAS that best represents their own health on that day. Analysis was performed using ANCOVA with covariates of Baseline VAS score, country, sex, age, and treatment.", "timeFrame": "Baseline and Day 168"}]}, "eligibilityModule": {"eligibilityCriteria": "Inclusion Criteria:\n\n* Clinical diagnosis of asthma\n* Reversibility of at least 12% and at least 200mLs within 10-40 minutes following 2-4 inhalations of albuterol\n* FEV1 of 40-85% predicted normal\n* Currently using inhaled corticosteroid therapy\n\nExclusion Criteria:\n\n* History of life-threatening asthma within previous 5 years (requiring intubation and/or was associated with hypercapnoea, respiratory arrest or hypoxic seizures)\n* Respiratory infection or oral candidiasis\n* Asthma exacerbation requiring oral corticosteroids or that resulted in overnight hospitalisation requiring additional asthma treatment\n* Uncontrolled disease or clinical abnormality\n* Allergies\n* Taking another investigational medication or prohibited medication\n* Night shift workers\n* Current smokers or subjects with smoking history of at least 10 pack years", "healthyVolunteers": false, "sex": "ALL", "minimumAge": "12 Years", "stdAges": ["CHILD", "ADULT", "OLDER_ADULT"]}, "contactsLocationsModule": {"overallOfficials": [{"name": "GSK Clinical Trials", "affiliation": "GlaxoSmithKline", "role": "STUDY_DIRECTOR"}], "locations": [{"facility": "GSK Investigational Site", "city": "Huntington Beach", "state": "California", "zip": "92647", "country": "United States", "geoPoint": {"lat": 33.6603, "lon": -117.99923}}, {"facility": "GSK Investigational Site", "city": "Los Angeles", "state": "California", "zip": "90025", "country": "United States", "geoPoint": {"lat": 34.05223, "lon": -118.24368}}, {"facility": "GSK Investigational Site", "city": "Los Angeles", "state": "California", "zip": "90048", "country": "United States", "geoPoint": {"lat": 34.05223, "lon": -118.24368}}, {"facility": "GSK Investigational Site", "city": "Riverside", "state": "California", "zip": "92506", "country": "United States", "geoPoint": {"lat": 33.95335, "lon": -117.39616}}, {"facility": "GSK Investigational Site", "city": "Rolling Hills Estates", "state": "California", "zip": "90274", "country": "United States", "geoPoint": {"lat": 33.78779, "lon": -118.35813}}, {"facility": "GSK Investigational Site", "city": "San Diego", "state": "California", "zip": "92117", "country": "United States", "geoPoint": {"lat": 32.71533, "lon": -117.15726}}, {"facility": "GSK Investigational Site", "city": "Centennial", "state": "Colorado", "zip": "80112", "country": "United States", "geoPoint": {"lat": 39.57916, "lon": -104.87692}}, {"facility": "GSK Investigational Site", "city": "Denver", "state": "Colorado", "zip": "80230", "country": "United States", "geoPoint": {"lat": 39.73915, "lon": -104.9847}}, {"facility": "GSK Investigational Site", "city": "Cocoa", "state": "Florida", "zip": "32927", "country": "United States", "geoPoint": {"lat": 28.38612, "lon": -80.742}}, {"facility": "GSK Investigational Site", "city": "Bethesda", "state": "Maryland", "zip": "20814", "country": "United States", "geoPoint": {"lat": 38.98067, "lon": -77.10026}}, {"facility": "GSK Investigational Site", "city": "Wheaton", "state": "Maryland", "zip": "20902", "country": "United States", "geoPoint": {"lat": 39.03983, "lon": -77.05526}}, {"facility": "GSK Investigational Site", "city": "Rolla", "state": "Missouri", "zip": "65401", "country": "United States", "geoPoint": {"lat": 37.95143, "lon": -91.77127}}, {"facility": "GSK Investigational Site", "city": "St. Louis", "state": "Missouri", "zip": "63141", "country": "United States", "geoPoint": {"lat": 38.62727, "lon": -90.19789}}, {"facility": "GSK Investigational Site", "city": "Cherry Hill", "state": "New Jersey", "zip": "08003", "country": "United States", "geoPoint": {"lat": 39.93484, "lon": -75.03073}}, {"facility": "GSK Investigational Site", "city": "Skillman", "state": "New Jersey", "zip": "08558", "country": "United States", "geoPoint": {"lat": 40.42011, "lon": -74.7146}}, {"facility": "GSK Investigational Site", "city": "Raleigh", "state": "North Carolina", "zip": "27607", "country": "United States", "geoPoint": {"lat": 35.7721, "lon": -78.63861}}, {"facility": "GSK Investigational Site", "city": "Cincinnati", "state": "Ohio", "zip": "45231", "country": "United States", "geoPoint": {"lat": 39.12713, "lon": -84.51435}}, {"facility": "GSK Investigational Site", "city": "Oklahoma City", "state": "Oklahoma", "zip": "73103", "country": "United States", "geoPoint": {"lat": 35.46756, "lon": -97.51643}}, {"facility": "GSK Investigational Site", "city": "Medford", "state": "Oregon", "zip": "97504", "country": "United States", "geoPoint": {"lat": 42.32652, "lon": -122.87559}}, {"facility": "GSK Investigational Site", "city": "Greenville", "state": "South Carolina", "zip": "29615", "country": "United States", "geoPoint": {"lat": 34.85262, "lon": -82.39401}}, {"facility": "GSK Investigational Site", "city": "Orangeburg", "state": "South Carolina", "zip": "29118", "country": "United States", "geoPoint": {"lat": 33.49182, "lon": -80.85565}}, {"facility": "GSK Investigational Site", "city": "Spartanburg", "state": "South Carolina", "zip": "29303", "country": "United States", "geoPoint": {"lat": 34.94957, "lon": -81.93205}}, {"facility": "GSK Investigational Site", "city": "Austin", "state": "Texas", "zip": "78750", "country": "United States", "geoPoint": {"lat": 30.26715, "lon": -97.74306}}, {"facility": "GSK Investigational Site", "city": "San Antonio", "state": "Texas", "zip": "78229", "country": "United States", "geoPoint": {"lat": 29.42412, "lon": -98.49363}}, {"facility": "GSK Investigational Site", "city": "Waco", "state": "Texas", "zip": "76712", "country": "United States", "geoPoint": {"lat": 31.54933, "lon": -97.14667}}, {"facility": "GSK Investigational Site", "city": "Quilmes", "state": "Buenos Aires", "zip": "B1878FNR", "country": "Argentina", "geoPoint": {"lat": -34.72904, "lon": -58.26374}}, {"facility": "GSK Investigational Site", "city": "Parana", "state": "Entre R\u00edos", "zip": "E3100BHK", "country": "Argentina", "geoPoint": {"lat": -31.73197, "lon": -60.5238}}, {"facility": "GSK Investigational Site", "city": "Rosario", "state": "Santa Fe", "zip": "S2000DSR", "country": "Argentina", "geoPoint": {"lat": -32.94682, "lon": -60.63932}}, {"facility": "GSK Investigational Site", "city": "Rosario", "state": "Santa Fe", "zip": "S2000JKR", "country": "Argentina", "geoPoint": {"lat": -32.94682, "lon": -60.63932}}, {"facility": "GSK Investigational Site", "city": "Buenos Aires", "zip": "1425", "country": "Argentina", "geoPoint": {"lat": -34.61315, "lon": -58.37723}}, {"facility": "GSK Investigational Site", "city": "Buenos Aires", "zip": "C1424BSF", "country": "Argentina", "geoPoint": {"lat": -34.61315, "lon": -58.37723}}, {"facility": "GSK Investigational Site", "city": "Buenos Aires", "zip": "C1425BEN", "country": "Argentina", "geoPoint": {"lat": -34.61315, "lon": -58.37723}}, {"facility": "GSK Investigational Site", "city": "Ciudad Aut\u00f3noma de Buenos Aires", "zip": "C1426ABP", "country": "Argentina", "geoPoint": {"lat": -34.61315, "lon": -58.37723}}, {"facility": "GSK Investigational Site", "city": "Mendoza", "zip": "M5500CCG", "country": "Argentina", "geoPoint": {"lat": -32.89084, "lon": -68.82717}}, {"facility": "GSK Investigational Site", "city": "San Miguel de Tucum\u00e1n", "zip": "4000", "country": "Argentina", "geoPoint": {"lat": -26.82414, "lon": -65.2226}}, {"facility": "GSK Investigational Site", "city": "Rancagua", "state": "Reg Del Libert Bern Ohiggins", "zip": "2841959", "country": "Chile", "geoPoint": {"lat": -34.17083, "lon": -70.74444}}, {"facility": "GSK Investigational Site", "city": "Puente Alto - Santiago", "state": "Regi\u00f3n Metro De Santiago", "zip": "8207257", "country": "Chile"}, {"facility": "GSK Investigational Site", "city": "Santiago", "state": "Regi\u00f3n Metro De Santiago", "zip": "7500691", "country": "Chile", "geoPoint": {"lat": -33.45694, "lon": -70.64827}}, {"facility": "GSK Investigational Site", "city": "Santiago", "state": "Regi\u00f3n Metro De Santiago", "zip": "7601003", "country": "Chile", "geoPoint": {"lat": -33.45694, "lon": -70.64827}}, {"facility": "GSK Investigational Site", "city": "Santiago", "state": "Regi\u00f3n Metro De Santiago", "country": "Chile", "geoPoint": {"lat": -33.45694, "lon": -70.64827}}, {"facility": "GSK Investigational Site", "city": "Valparaiso", "state": "Valpara\u00edso", "zip": "2341131", "country": "Chile", "geoPoint": {"lat": -33.03932, "lon": -71.62725}}, {"facility": "GSK Investigational Site", "city": "Vi\u00f1a del Mar", "state": "Valpara\u00edso", "country": "Chile", "geoPoint": {"lat": -33.02457, "lon": -71.55183}}, {"facility": "GSK Investigational Site", "city": "Cheongju, Chungcheongbuk-do", "zip": "361-711", "country": "Korea, Republic of"}, {"facility": "GSK Investigational Site", "city": "Incheon", "zip": "400-711", "country": "Korea, Republic of", "geoPoint": {"lat": 37.45646, "lon": 126.70515}}, {"facility": "GSK Investigational Site", "city": "Kangwon-do", "zip": "220-701", "country": "Korea, Republic of"}, {"facility": "GSK Investigational Site", "city": "Seoul", "zip": "110-744", "country": "Korea, Republic of", "geoPoint": {"lat": 37.566, "lon": 126.9784}}, {"facility": "GSK Investigational Site", "city": "Seoul", "zip": "135-710", "country": "Korea, Republic of", "geoPoint": {"lat": 37.566, "lon": 126.9784}}, {"facility": "GSK Investigational Site", "city": "Seoul", "zip": "138-736", "country": "Korea, Republic of", "geoPoint": {"lat": 37.566, "lon": 126.9784}}, {"facility": "GSK Investigational Site", "city": "Suwon, Kyonggi-do", "zip": "443-721", "country": "Korea, Republic of", "geoPoint": {"lat": 37.29111, "lon": 127.00889}}, {"facility": "GSK Investigational Site", "city": "Almelo", "zip": "7609 PP", "country": "Netherlands", "geoPoint": {"lat": 52.35667, "lon": 6.6625}}, {"facility": "GSK Investigational Site", "city": "Breda", "zip": "4819 EV", "country": "Netherlands", "geoPoint": {"lat": 51.58656, "lon": 4.77596}}, {"facility": "GSK Investigational Site", "city": "Dordrecht", "zip": "3318 AT", "country": "Netherlands", "geoPoint": {"lat": 51.81, "lon": 4.67361}}, {"facility": "GSK Investigational Site", "city": "Eindhoven", "zip": "5623 EJ", "country": "Netherlands", "geoPoint": {"lat": 51.44083, "lon": 5.47778}}, {"facility": "GSK Investigational Site", "city": "Harderwijk", "zip": "3844 DG", "country": "Netherlands", "geoPoint": {"lat": 52.34167, "lon": 5.62083}}, {"facility": "GSK Investigational Site", "city": "Heerlen", "zip": "6419 PC", "country": "Netherlands", "geoPoint": {"lat": 50.88365, "lon": 5.98154}}, {"facility": "GSK Investigational Site", "city": "Hoorn", "zip": "1624 NP", "country": "Netherlands", "geoPoint": {"lat": 52.6425, "lon": 5.05978}}, {"facility": "GSK Investigational Site", "city": "Veldhoven", "zip": "5504 DB", "country": "Netherlands", "geoPoint": {"lat": 51.41833, "lon": 5.40278}}, {"facility": "GSK Investigational Site", "city": "Cabanatuan City, Nueva Ecija", "zip": "3100", "country": "Philippines"}, {"facility": "GSK Investigational Site", "city": "Cebu City", "zip": "6000", "country": "Philippines", "geoPoint": {"lat": 10.31672, "lon": 123.89071}}, {"facility": "GSK Investigational Site", "city": "Dasmari\u00f1as, Cavite", "zip": "4114", "country": "Philippines"}, {"facility": "GSK Investigational Site", "city": "Manila", "zip": "1000", "country": "Philippines", "geoPoint": {"lat": 14.6042, "lon": 120.9822}}, {"facility": "GSK Investigational Site", "city": "Marilao, Bulacan", "zip": "3019", "country": "Philippines"}, {"facility": "GSK Investigational Site", "city": "Quezon City", "zip": "1100", "country": "Philippines", "geoPoint": {"lat": 14.6488, "lon": 121.0509}}]}, "referencesModule": {"references": [{"pmid": "23846316", "type": "DERIVED", "citation": "Woodcock A, Bleecker ER, Lotvall J, O'Byrne PM, Bateman ED, Medley H, Ellsworth A, Jacques L, Busse WW. Efficacy and safety of fluticasone furoate/vilanterol compared with fluticasone propionate/salmeterol combination in adult and adolescent patients with persistent asthma: a randomized trial. Chest. 2013 Oct;144(4):1222-1229. doi: 10.1378/chest.13-0178."}], "seeAlsoLinks": [{"label": "Researchers can use this site to request access to anonymised patient level data and/or supporting documents from clinical studies to conduct further research.", "url": "https://www.clinicalstudydatarequest.com"}], "availIpds": [{"id": "113091", "type": "Dataset Specification", "url": "https://www.clinicalstudydatarequest.com", "comment": "For additional information about this study please refer to the GSK Clinical Study Register"}, {"id": "113091", "type": "Annotated Case Report Form", "url": "https://www.clinicalstudydatarequest.com", "comment": "For additional information about this study please refer to the GSK Clinical Study Register"}, {"id": "113091", "type": "Informed Consent Form", "url": "https://www.clinicalstudydatarequest.com", "comment": "For additional information about this study please refer to the GSK Clinical Study Register"}, {"id": "113091", "type": "Study Protocol", "url": "https://www.clinicalstudydatarequest.com", "comment": "For additional information about this study please refer to the GSK Clinical Study Register"}, {"id": "113091", "type": "Statistical Analysis Plan", "url": "https://www.clinicalstudydatarequest.com", "comment": "For additional information about this study please refer to the GSK Clinical Study Register"}, {"id": "113091", "type": "Clinical Study Report", "url": "https://www.clinicalstudydatarequest.com", "comment": "For additional information about this study please refer to the GSK Clinical Study Register"}, {"id": "113091", "type": "Individual Participant Data Set", "url": "https://www.clinicalstudydatarequest.com", "comment": "For additional information about this study please refer to the GSK Clinical Study Register"}]}, "ipdSharingStatementModule": {"ipdSharing": "YES", "description": "Patient-level data for this study will be made available through www.clinicalstudydatarequest.com following the timelines and process described on this site."}}, "resultsSection": {"participantFlowModule": {"groups": [{"id": "FG000", "title": "Fluticasone Propionate 250 \u00b5g BID", "description": "Participants received Fluticasone Propionate 250 micrograms (\u00b5g) twice a day (BID) and salbutamol/albuterol as required to control symptoms."}, {"id": "FG001", "title": "Fluticasone Furoate/Vilanterol 100/25 \u00b5g OD", "description": "Participants received Fluticasone Furoate (FF)/Vilanterol (VI) 100/25 \u00b5g once daily (OD) in the evening, plus placebo inhalation powder twice daily (BID; in the morning and evening) for a period of 24 weeks."}, {"id": "FG002", "title": "Fluticasone Propionate/Salmeterol 250/50 \u00b5g BID", "description": "Participants received Fluticasone Propionate (FP)/Salmeterol 250/50 \u00b5g inhalation powder BID (in the morning and evening), plus placebo inhalation powder OD in the evening for a period of 24 weeks."}], "periods": [{"title": "Run-in Period", "milestones": [{"type": "STARTED", "achievements": [{"groupId": "FG000", "numSubjects": "1564"}, {"groupId": "FG001", "numSubjects": "0"}, {"groupId": "FG002", "numSubjects": "0"}]}, {"type": "COMPLETED", "achievements": [{"groupId": "FG000", "numSubjects": "806"}, {"groupId": "FG001", "numSubjects": "0"}, {"groupId": "FG002", "numSubjects": "0"}]}, {"type": "NOT COMPLETED", "achievements": [{"groupId": "FG000", "numSubjects": "758"}, {"groupId": "FG001", "numSubjects": "0"}, {"groupId": "FG002", "numSubjects": "0"}]}], "dropWithdraws": [{"type": "Screen Failure", "reasons": [{"groupId": "FG000", "numSubjects": "623"}, {"groupId": "FG001", "numSubjects": "0"}, {"groupId": "FG002", "numSubjects": "0"}]}, {"type": "Run-in Failure", "reasons": [{"groupId": "FG000", "numSubjects": "135"}, {"groupId": "FG001", "numSubjects": "0"}, {"groupId": "FG002", "numSubjects": "0"}]}]}, {"title": "Randomized Phase", "milestones": [{"type": "STARTED", "achievements": [{"groupId": "FG000", "numSubjects": "0"}, {"groupId": "FG001", "numSubjects": "403"}, {"groupId": "FG002", "numSubjects": "403"}]}, {"type": "COMPLETED", "achievements": [{"groupId": "FG000", "numSubjects": "0"}, {"groupId": "FG001", "numSubjects": "358"}, {"groupId": "FG002", "numSubjects": "357"}]}, {"type": "NOT COMPLETED", "achievements": [{"groupId": "FG000", "numSubjects": "0"}, {"groupId": "FG001", "numSubjects": "45"}, {"groupId": "FG002", "numSubjects": "46"}]}], "dropWithdraws": [{"type": "Adverse Event", "reasons": [{"groupId": "FG000", "numSubjects": "0"}, {"groupId": "FG001", "numSubjects": "6"}, {"groupId": "FG002", "numSubjects": "8"}]}, {"type": "Lack of Efficacy", "reasons": [{"groupId": "FG000", "numSubjects": "0"}, {"groupId": "FG001", "numSubjects": "20"}, {"groupId": "FG002", "numSubjects": "11"}]}, {"type": "Protocol Violation", "reasons": [{"groupId": "FG000", "numSubjects": "0"}, {"groupId": "FG001", "numSubjects": "7"}, {"groupId": "FG002", "numSubjects": "10"}]}, {"type": "Lost to Follow-up", "reasons": [{"groupId": "FG000", "numSubjects": "0"}, {"groupId": "FG001", "numSubjects": "5"}, {"groupId": "FG002", "numSubjects": "7"}]}, {"type": "Physician Decision", "reasons": [{"groupId": "FG000", "numSubjects": "0"}, {"groupId": "FG001", "numSubjects": "0"}, {"groupId": "FG002", "numSubjects": "1"}]}, {"type": "Withdrawal by Subject", "reasons": [{"groupId": "FG000", "numSubjects": "0"}, {"groupId": "FG001", "numSubjects": "7"}, {"groupId": "FG002", "numSubjects": "9"}]}]}]}, "baselineCharacteristicsModule": {"groups": [{"id": "BG000", "title": "Fluticasone Furoate/Vilanterol 100/25 \u00b5g OD", "description": "Participants received Fluticasone Furoate (FF)/Vilanterol (VI) 100/25 \u00b5g once daily (OD) in the evening, plus placebo inhalation powder twice daily (BID; in the morning and evening) for a period of 24 weeks."}, {"id": "BG001", "title": "Fluticasone Propionate/Salmeterol 250/50 \u00b5g BID", "description": "Participants received Fluticasone Propionate (FP)/Salmeterol 250/50 \u00b5g inhalation powder BID (in the morning and evening), plus placebo inhalation powder OD in the evening for a period of 24 weeks."}, {"id": "BG002", "title": "Total", "description": "Total of all reporting groups"}], "denoms": [{"units": "Participants", "counts": [{"groupId": "BG000", "value": "403"}, {"groupId": "BG001", "value": "403"}, {"groupId": "BG002", "value": "806"}]}], "measures": [{"title": "Age, Continuous", "paramType": "MEAN", "dispersionType": "STANDARD_DEVIATION", "unitOfMeasure": "Years", "classes": [{"categories": [{"measurements": [{"groupId": "BG000", "value": "43.8", "spread": "15.86"}, {"groupId": "BG001", "value": "41.9", "spread": "16.90"}, {"groupId": "BG002", "value": "42.8", "spread": "16.41"}]}]}]}, {"title": "Gender", "paramType": "COUNT_OF_PARTICIPANTS", "unitOfMeasure": "Participants", "classes": [{"categories": [{"title": "Female", "measurements": [{"groupId": "BG000", "value": "244"}, {"groupId": "BG001", "value": "245"}, {"groupId": "BG002", "value": "489"}]}, {"title": "Male", "measurements": [{"groupId": "BG000", "value": "159"}, {"groupId": "BG001", "value": "158"}, {"groupId": "BG002", "value": "317"}]}]}]}, {"title": "Race/Ethnicity, Customized", "paramType": "NUMBER", "unitOfMeasure": "participants", "classes": [{"title": "African American/African Heritage", "categories": [{"measurements": [{"groupId": "BG000", "value": "36"}, {"groupId": "BG001", "value": "43"}, {"groupId": "BG002", "value": "79"}]}]}, {"title": "Asian - Central/South Asian Heritage", "categories": [{"measurements": [{"groupId": "BG000", "value": "1"}, {"groupId": "BG001", "value": "0"}, {"groupId": "BG002", "value": "1"}]}]}, {"title": "Asian - East Asian Heritage", "categories": [{"measurements": [{"groupId": "BG000", "value": "40"}, {"groupId": "BG001", "value": "46"}, {"groupId": "BG002", "value": "86"}]}]}, {"title": "Asian - Japanese Heritage", "categories": [{"measurements": [{"groupId": "BG000", "value": "1"}, {"groupId": "BG001", "value": "0"}, {"groupId": "BG002", "value": "1"}]}]}, {"title": "Asian - South East Asian Heritage", "categories": [{"measurements": [{"groupId": "BG000", "value": "81"}, {"groupId": "BG001", "value": "79"}, {"groupId": "BG002", "value": "160"}]}]}, {"title": "Asian - Mixed Race", "categories": [{"measurements": [{"groupId": "BG000", "value": "1"}, {"groupId": "BG001", "value": "0"}, {"groupId": "BG002", "value": "1"}]}]}, {"title": "Native Hawaiian or Other Pacific Islander", "categories": [{"measurements": [{"groupId": "BG000", "value": "1"}, {"groupId": "BG001", "value": "1"}, {"groupId": "BG002", "value": "2"}]}]}, {"title": "White - Arabic/North African Heritage", "categories": [{"measurements": [{"groupId": "BG000", "value": "1"}, {"groupId": "BG001", "value": "0"}, {"groupId": "BG002", "value": "1"}]}]}, {"title": "White - White/Caucasian/European Heritage", "categories": [{"measurements": [{"groupId": "BG000", "value": "241"}, {"groupId": "BG001", "value": "232"}, {"groupId": "BG002", "value": "473"}]}]}, {"title": "Mixed Race", "categories": [{"measurements": [{"groupId": "BG000", "value": "0"}, {"groupId": "BG001", "value": "2"}, {"groupId": "BG002", "value": "2"}]}]}]}]}, "outcomeMeasuresModule": {"outcomeMeasures": [{"type": "PRIMARY", "title": "Change From Baseline in Weighted-mean 24 Hour Serial FEV1 on Day 168/Week 24", "description": "Pulmonary function was measured by FEV1, defined as the maximal amount of air that can be forcefully exhaled in one second. The weighted mean was calculated from the pre-dose FEV1 and post-dose FEV1 measurements at 5, 15, and 30 minutes (min) and at 1, 2, 3, 4, 11, 12, 12.5, 13, 14, 16, 20, 23, and 24 hours, respectively, on Day 168/Week 24. Change from Baseline was calculated as the weighted mean of the 24-hour serial FEV1 measures on Day 168/Week 24 minus the Baseline value. Baseline was the pre-dose measurement on Day 1. Analysis was performed using analysis of covariance (ANCOVA) with covariates of Baseline FEV1, region, sex, age, and treatment.", "populationDescription": "Intent-to-Treat (ITT) Population: all participants randomized to treatment who received at least 1 dose of double-blind medication. Randomized participants were assumed to have received double-blind medication unless definitive evidence to the contrary existed. Only those participants available at the indicated time point were assessed.", "reportingStatus": "POSTED", "paramType": "LEAST_SQUARES_MEAN", "dispersionType": "Standard Error", "unitOfMeasure": "Liters", "timeFrame": "Baseline and Day 168/Week 24", "groups": [{"id": "OG000", "title": "Fluticasone Furoate/Vilanterol 100/25 \u00b5g OD", "description": "Participants received Fluticasone Furoate (FF)/Vilanterol (VI) 100/25 \u00b5g once daily (OD) in the evening, plus placebo inhalation powder twice daily (BID; in the morning and evening) for a period of 24 weeks."}, {"id": "OG001", "title": "Fluticasone Propionate/Salmeterol 250/50 \u00b5g BID", "description": "Participants received Fluticasone Propionate (FP)/Salmeterol 250/50 \u00b5g inhalation powder BID (in the morning and evening), plus placebo inhalation powder OD in the evening for a period of 24 weeks."}], "denoms": [{"units": "Participants", "counts": [{"groupId": "OG000", "value": "352"}, {"groupId": "OG001", "value": "347"}]}], "classes": [{"categories": [{"measurements": [{"groupId": "OG000", "value": "0.341", "spread": "0.0184"}, {"groupId": "OG001", "value": "0.377", "spread": "0.0185"}]}]}], "analyses": [{"groupIds": ["OG000", "OG001"], "testedNonInferiority": false, "nonInferiorityType": "SUPERIORITY_OR_OTHER", "pValue": "0.162", "statisticalMethod": "ANCOVA", "paramType": "Least Squares Mean Difference", "paramValue": "-0.037", "ciPctValue": "95", "ciNumSides": "TWO_SIDED", "ciLowerLimit": "-0.088", "ciUpperLimit": "0.015", "estimateComment": "Analysis was performed using ANCOVA with covariates of Baseline FEV1, region, sex, age, and treatment."}]}, {"type": "SECONDARY", "title": "Serial FEV1 (0-24 Hours)", "description": "Pulmonary function was measured by FEV1, defined as the maximal amount of air that can be forcefully exhaled in one second . The pre-dose FEV1 assessment and the individual serial FEV1 assessments at Day 168/Week 24 at the indicated time points (pre-dose, 5 minutes, 15 minutes, 30 minutes, 1 hour, 2 hours, 3 hours, 4 hours, 11 hours, 12 hours, 12.5 hours, 13 hours, 14 hours, 16 hours, 20 hours, 23 hours, and 24 hour s) were summarized.", "populationDescription": "ITT Population. Only those participants available at the indicated time points were assessed.", "reportingStatus": "POSTED", "paramType": "MEAN", "dispersionType": "Standard Deviation", "unitOfMeasure": "Liters", "timeFrame": "Day 168", "groups": [{"id": "OG000", "title": "Fluticasone Furoate/Vilanterol 100/25 \u00b5g OD", "description": "Participants received Fluticasone Furoate (FF)/Vilanterol (VI) 100/25 \u00b5g once daily (OD) in the evening, plus placebo inhalation powder twice daily (BID; in the morning and evening) for a period of 24 weeks."}, {"id": "OG001", "title": "Fluticasone Propionate/Salmeterol 250/50 \u00b5g BID", "description": "Participants received Fluticasone Propionate (FP)/Salmeterol 250/50 \u00b5g inhalation powder BID (in the morning and evening), plus placebo inhalation powder OD in the evening for a period of 24 weeks."}], "denoms": [{"units": "Participants", "counts": [{"groupId": "OG000", "value": "359"}, {"groupId": "OG001", "value": "354"}]}], "classes": [{"title": "Pre-dose, n=359,353", "categories": [{"measurements": [{"groupId": "OG000", "value": "0.304", "spread": "0.3575"}, {"groupId": "OG001", "value": "0.323", "spread": "0.4289"}]}]}, {"title": "5 minutes, n=356, 344", "categories": [{"measurements": [{"groupId": "OG000", "value": "0.320", "spread": "0.3573"}, {"groupId": "OG001", "value": "0.339", "spread": "0.4146"}]}]}, {"title": "15 minutes, n=355, 347", "categories": [{"measurements": [{"groupId": "OG000", "value": "0.323", "spread": "0.3565"}, {"groupId": "OG001", "value": "0.354", "spread": "0.4054"}]}]}, {"title": "30 minutes, n=357, 351", "categories": [{"measurements": [{"groupId": "OG000", "value": "0.339", "spread": "0.3614"}, {"groupId": "OG001", "value": "0.366", "spread": "0.4184"}]}]}, {"title": "1 hour, n=358, 353", "categories": [{"measurements": [{"groupId": "OG000", "value": "0.344", "spread": "0.3760"}, {"groupId": "OG001", "value": "0.390", "spread": "0.4227"}]}]}, {"title": "2 hours, n=359, 353", "categories": [{"measurements": [{"groupId": "OG000", "value": "0.362", "spread": "0.3749"}, {"groupId": "OG001", "value": "0.409", "spread": "0.4204"}]}]}, {"title": "3 hours, n=357, 353", "categories": [{"measurements": [{"groupId": "OG000", "value": "0.373", "spread": "0.3764"}, {"groupId": "OG001", "value": "0.419", "spread": "0.4173"}]}]}, {"title": "4 hours, n=357, 354", "categories": [{"measurements": [{"groupId": "OG000", "value": "0.356", "spread": "0.3695"}, {"groupId": "OG001", "value": "0.417", "spread": "0.4254"}]}]}, {"title": "11 hours, n=359, 347", "categories": [{"measurements": [{"groupId": "OG000", "value": "0.305", "spread": "0.3761"}, {"groupId": "OG001", "value": "0.319", "spread": "0.4099"}]}]}, {"title": "12 hours, n=356, 354", "categories": [{"measurements": [{"groupId": "OG000", "value": "0.330", "spread": "0.3691"}, {"groupId": "OG001", "value": "0.338", "spread": "0.4142"}]}]}, {"title": "12.5 hours, n=357, 352", "categories": [{"measurements": [{"groupId": "OG000", "value": "0.330", "spread": "0.3682"}, {"groupId": "OG001", "value": "0.380", "spread": "0.4117"}]}]}, {"title": "13 hours, n=354, 354", "categories": [{"measurements": [{"groupId": "OG000", "value": "0.343", "spread": "0.3602"}, {"groupId": "OG001", "value": "0.396", "spread": "0.4139"}]}]}, {"title": "14 hours, n=356, 353", "categories": [{"measurements": [{"groupId": "OG000", "value": "0.357", "spread": "0.3643"}, {"groupId": "OG001", "value": "0.426", "spread": "0.4201"}]}]}, {"title": "16 hours, n=354, 350", "categories": [{"measurements": [{"groupId": "OG000", "value": "0.351", "spread": "0.3672"}, {"groupId": "OG001", "value": "0.419", "spread": "0.4152"}]}]}, {"title": "20 hours, n=355, 352", "categories": [{"measurements": [{"groupId": "OG000", "value": "0.321", "spread": "0.3757"}, {"groupId": "OG001", "value": "0.376", "spread": "0.4150"}]}]}, {"title": "23 hours, n=354, 353", "categories": [{"measurements": [{"groupId": "OG000", "value": "0.310", "spread": "0.3814"}, {"groupId": "OG001", "value": "0.344", "spread": "0.4141"}]}]}, {"title": "24 hours, n=354, 354", "categories": [{"measurements": [{"groupId": "OG000", "value": "0.304", "spread": "0.3725"}, {"groupId": "OG001", "value": "0.340", "spread": "0.4032"}]}]}]}, {"type": "SECONDARY", "title": "Number of Participants With the Indicated Time to Onset of Bronchodilator Effect at Day 1", "description": "Time to onset of bronchodilator effect at Day 1 is defined as the actual time during the 4-hour serial FEV1 (the maximal amount of air that can be forcefully exhaled in one second) measurements that the participant first meets or exceeds a 12% and 200 mL increase over Baseline and was derived at Day 1 only. Time to onset was calculated over 0 to 4 hours (5 minutes, 15 minutes, 30 minutes, 1 hour, 2 hours, 3 hours, and 4 hours) post-dose. Participants who never exceeded a 12% and 200 mL increase over Baseline were censored at the actual time of their last FEV1 measurement.", "populationDescription": "ITT Population. Only those participants available at the indicated time points were assessed.", "reportingStatus": "POSTED", "paramType": "NUMBER", "unitOfMeasure": "participants", "timeFrame": "Baseline to Day 1", "groups": [{"id": "OG000", "title": "Fluticasone Furoate/Vilanterol 100/25 \u00b5g OD", "description": "Participants received Fluticasone Furoate (FF)/Vilanterol (VI) 100/25 \u00b5g once daily (OD) in the evening, plus placebo inhalation powder twice daily (BID; in the morning and evening) for a period of 24 weeks."}, {"id": "OG001", "title": "Fluticasone Propionate/Salmeterol 250/50 \u00b5g BID", "description": "Participants received Fluticasone Propionate (FP)/Salmeterol 250/50 \u00b5g inhalation powder BID (in the morning and evening), plus placebo inhalation powder OD in the evening for a period of 24 weeks."}], "denoms": [{"units": "Participants", "counts": [{"groupId": "OG000", "value": "400"}, {"groupId": "OG001", "value": "401"}]}], "classes": [{"title": "5 minutes", "categories": [{"measurements": [{"groupId": "OG000", "value": "100"}, {"groupId": "OG001", "value": "85"}]}]}, {"title": "15 minutes", "categories": [{"measurements": [{"groupId": "OG000", "value": "41"}, {"groupId": "OG001", "value": "51"}]}]}, {"title": "30 minutes", "categories": [{"measurements": [{"groupId": "OG000", "value": "40"}, {"groupId": "OG001", "value": "55"}]}]}, {"title": "1 hour", "categories": [{"measurements": [{"groupId": "OG000", "value": "32"}, {"groupId": "OG001", "value": "39"}]}]}, {"title": "2 hours", "categories": [{"measurements": [{"groupId": "OG000", "value": "19"}, {"groupId": "OG001", "value": "29"}]}]}, {"title": "3 hours", "categories": [{"measurements": [{"groupId": "OG000", "value": "17"}, {"groupId": "OG001", "value": "12"}]}]}, {"title": "4 hours", "categories": [{"measurements": [{"groupId": "OG000", "value": "11"}, {"groupId": "OG001", "value": "12"}]}]}, {"title": "Censored", "categories": [{"measurements": [{"groupId": "OG000", "value": "140"}, {"groupId": "OG001", "value": "118"}]}]}]}, {"type": "SECONDARY", "title": "Change From Baseline in Weighted Mean Serial FEV1 Over 0-4 Hours Post First Dose (at Randomization)", "description": "The weighted mean serial FEV1 (the maximal amount of air that can be forcefully exhaled in one second) over 0-4 hours post-dose at Baseline was derived using actual times and using the pre-dose assessment as the 0 hour measurement. Change from Baseline was calculated as the weighted mean of the 4-hour serial FEV1 measures on Day 1 minus the Baseline value. Baseline was the pre-dose measurement on Day 1. Analysis was performed using ANCOVA with covariates of Baseline FEV1, region, sex, age, and treatment.", "populationDescription": "ITT Population. Only those participants available at the indicated time point were assessed.", "reportingStatus": "POSTED", "paramType": "LEAST_SQUARES_MEAN", "dispersionType": "Standard Error", "unitOfMeasure": "Liters", "timeFrame": "Baseline and Randomization", "groups": [{"id": "OG000", "title": "FFluticasone Furoate/Vilanterol 100/25 \u00b5g OD", "description": "Participants received Fluticasone Furoate (FF)/Vilanterol (VI) 100/25 \u00b5g once daily (OD) in the evening, plus placebo inhalation powder twice daily (BID; in the morning and evening) for a period of 24 weeks."}, {"id": "OG001", "title": "Fluticasone Propionate/Salmeterol 250/50 \u00b5g BID", "description": "Participants received Fluticasone Propionate (FP)/Salmeterol 250/50 \u00b5g inhalation powder BID (in the morning and evening), plus placebo inhalation powder OD in the evening for a period of 24 weeks."}], "denoms": [{"units": "Participants", "counts": [{"groupId": "OG000", "value": "398"}, {"groupId": "OG001", "value": "398"}]}], "classes": [{"categories": [{"measurements": [{"groupId": "OG000", "value": "0.316", "spread": "0.0149"}, {"groupId": "OG001", "value": "0.346", "spread": "0.0149"}]}]}]}, {"type": "SECONDARY", "title": "Change From Baseline in Weighted Mean Serial FEV1 Over 0-4 Hours at Day 168", "description": "The weighted mean serial FEV1 (the maximal amount of air that can be forcefully exhaled in one second) over 0-4 hours post-dose at Baseline and Day 168 was derived using actual times and using the pre-dose assessment as the 0 hour measurement. Change from Baseline was calculated as the weighted mean of the 4-hour serial FEV1 measures on Day 168/Week 24 minus the Baseline value. Baseline was the pre-dose measurement on Day 1. Analysis was performed using ANCOVA with covariates of Baseline FEV1, region, sex, age, and treatment.", "populationDescription": "ITT Population. Only those participants available at the indicated time point were assessed.", "reportingStatus": "POSTED", "paramType": "MEAN", "dispersionType": "Standard Deviation", "unitOfMeasure": "Liters", "timeFrame": "Baseline and Day 168", "groups": [{"id": "OG000", "title": "Fluticasone Furoate/Vilanterol 100/25 \u00b5g OD", "description": "Participants received Fluticasone Furoate (FF)/Vilanterol (VI) 100/25 \u00b5g once daily (OD) in the evening, plus placebo inhalation powder twice daily (BID; in the morning and evening) for a period of 24 weeks."}, {"id": "OG001", "title": "Fluticasone Propionate/Salmeterol 250/50 \u00b5g BID", "description": "Participants received Fluticasone Propionate (FP)/Salmeterol 250/50 \u00b5g inhalation powder BID (in the morning and evening), plus placebo inhalation powder OD in the evening for a period of 24 weeks."}], "denoms": [{"units": "Participants", "counts": [{"groupId": "OG000", "value": "356"}, {"groupId": "OG001", "value": "347"}]}], "classes": [{"categories": [{"measurements": [{"groupId": "OG000", "value": "0.360", "spread": "0.0184"}, {"groupId": "OG001", "value": "0.394", "spread": "0.0186"}]}]}]}, {"type": "SECONDARY", "title": "Number of Participants Obtaining a >=12% and >=200 mL Increase From Baseline in FEV1", "description": "The number of participants obtaining a \\>=12% and \\>=200 mL increase from Baseline in FEV1 (the maximal amount of air that can be forcefully exhaled in one second) was evaluated at 12-hours post-dose and at 24-hours post-dose on Day 168.", "populationDescription": "ITT Population. Only those participants available at the indicated time points were assessed.", "reportingStatus": "POSTED", "paramType": "NUMBER", "unitOfMeasure": "participants", "timeFrame": "Baseline and Day 168", "groups": [{"id": "OG000", "title": "Fluticasone Furoate/Vilanterol 100/25 \u00b5g OD", "description": "Participants received Fluticasone Furoate (FF)/Vilanterol (VI) 100/25 \u00b5g once daily (OD) in the evening, plus placebo inhalation powder twice daily (BID; in the morning and evening) for a period of 24 weeks."}, {"id": "OG001", "title": "Fluticasone Propionate/Salmeterol 250/50 \u00b5g BID", "description": "Participants received Fluticasone Propionate (FP)/Salmeterol 250/50 \u00b5g inhalation powder BID (in the morning and evening), plus placebo inhalation powder OD in the evening for a period of 24 weeks."}], "denoms": [{"units": "Participants", "counts": [{"groupId": "OG000", "value": "356"}, {"groupId": "OG001", "value": "354"}]}], "classes": [{"title": "12 hours post-dose, n=356,354", "categories": [{"measurements": [{"groupId": "OG000", "value": "199"}, {"groupId": "OG001", "value": "178"}]}]}, {"title": "24 hours post-dose, n=354, 354", "categories": [{"measurements": [{"groupId": "OG000", "value": "181"}, {"groupId": "OG001", "value": "176"}]}]}]}, {"type": "SECONDARY", "title": "Change From Baseline in Trough FEV1 at Day 168", "description": "Pulmonary function was measured by FEV1, defined as the maximal amount of air that can be forcefully exhaled in one second . Trough FEV1 is defined as the pre-dose measurement on Day 168/Week 24. Any missing data at Day 168/Week 24 was imputed using the last observation carried forward (LOCF). Baseline was the pre-dose measurement on Day 1. Change from Baseline was calculated as the pre-dose measurement on Day 168/Week 24 minus the Baseline value.", "populationDescription": "ITT Population. Only those participants available at the indicated time point were assessed.", "reportingStatus": "POSTED", "paramType": "LEAST_SQUARES_MEAN", "dispersionType": "Standard Error", "unitOfMeasure": "Liters", "timeFrame": "Baseline and Day 168", "groups": [{"id": "OG000", "title": "Fluticasone Furoate/Vilanterol 100/25 \u00b5g OD", "description": "Participants received Fluticasone Furoate (FF)/Vilanterol (VI) 100/25 \u00b5g once daily (OD) in the evening, plus placebo inhalation powder twice daily (BID; in the morning and evening) for a period of 24 weeks."}, {"id": "OG001", "title": "Fluticasone Propionate/Salmeterol 250/50 \u00b5g BID", "description": "Participants received Fluticasone Propionate (FP)/Salmeterol 250/50 \u00b5g inhalation powder BID (in the morning and evening), plus placebo inhalation powder OD in the evening for a period of 24 weeks."}], "denoms": [{"units": "Participants", "counts": [{"groupId": "OG000", "value": "397"}, {"groupId": "OG001", "value": "389"}]}], "classes": [{"categories": [{"measurements": [{"groupId": "OG000", "value": "0.281", "spread": "0.0191"}, {"groupId": "OG001", "value": "0.300", "spread": "0.0193"}]}]}]}, {"type": "OTHER_PRE_SPECIFIED", "title": "Baseline FEV1 by Completion Status", "description": "Pulmonary function was measured by FEV1, defined as the maximal amount of air that can be forcefully exhaled in one second . Baseline is defined as the mean of the two assessments made 30 minutes pre-dose and 5 minutes pre-dose on Treatment Day 1.", "populationDescription": "ITT Population. Only those participants available at the indicated time point were assessed.", "reportingStatus": "POSTED", "paramType": "MEAN", "dispersionType": "Standard Deviation", "unitOfMeasure": "Liters", "timeFrame": "Baseline", "groups": [{"id": "OG000", "title": "Fluticasone Furoate/Vilanterol 100/25 \u00b5g OD", "description": "Participants received Fluticasone Furoate (FF)/Vilanterol (VI) 100/25 \u00b5g once daily (OD) in the evening, plus placebo inhalation powder twice daily (BID; in the morning and evening) for a period of 24 weeks."}, {"id": "OG001", "title": "Fluticasone Propionate/Salmeterol 250/50 \u00b5g BID", "description": "Participants received Fluticasone Propionate (FP)/Salmeterol 250/50 \u00b5g inhalation powder BID (in the morning and evening), plus placebo inhalation powder OD in the evening for a period of 24 weeks."}], "denoms": [{"units": "Participants", "counts": [{"groupId": "OG000", "value": "401"}, {"groupId": "OG001", "value": "401"}]}], "classes": [{"title": "All Participants, n=401, 401", "categories": [{"measurements": [{"groupId": "OG000", "value": "2.011", "spread": "0.6389"}, {"groupId": "OG001", "value": "2.048", "spread": "0.6246"}]}]}, {"title": "Completers, n=359, 355", "categories": [{"measurements": [{"groupId": "OG000", "value": "2.013", "spread": "0.6530"}, {"groupId": "OG001", "value": "2.043", "spread": "0.6378"}]}]}, {"title": "Withdrawals, n=42, 46", "categories": [{"measurements": [{"groupId": "OG000", "value": "1.996", "spread": "0.5081"}, {"groupId": "OG001", "value": "2.091", "spread": "0.5145"}]}]}]}, {"type": "OTHER_PRE_SPECIFIED", "title": "Change From Baseline in Asthma Control Test (ACT) Scores at Day 168", "description": "The ACT is a 5-item questionnaire developed as a measure of the participant's asthma control. Questions are designed to be self-completed by the participant and include the following: In the past 4 weeks, \"How much of the time did your asthma keep you from getting as much done at work, school or at home?\", \"How often have you had shortness of breath?\", \"How often did your asthma symptoms wake you up at night or earlier than usual in the morning?\", \"How often have you used your rescue inhaler or nebulizer medication (such as albuterol)?\" and \"How would you rate your asthma control\"? The ACT total score is defined as the sum of the scores from all 5 questions, provided all questions have been answered; thus, the total score ranges from 5 (poor control of asthma) to 25 (complete control of asthma). A score of 20 or higher indicates well-controlled asthma. Change from Baseline was calculated as the Day 168 value minus the Baseline value.", "populationDescription": "ITT Population. Only those participants available at the indicated time point were assessed. Analysis was performed using ANCOVA with covariates of Baseline total ACT score, country, sex, age, and treatment.", "reportingStatus": "POSTED", "paramType": "LEAST_SQUARES_MEAN", "dispersionType": "Standard Error", "unitOfMeasure": "Scores on a scale", "timeFrame": "Baseline and Day 168", "groups": [{"id": "OG000", "title": "Fluticasone Furoate/Vilanterol 100/25 \u00b5g OD", "description": "Participants received Fluticasone Furoate (FF)/Vilanterol (VI) 100/25 \u00b5g once daily (OD) in the evening, plus placebo inhalation powder twice daily (BID; in the morning and evening) for a period of 24 weeks."}, {"id": "OG001", "title": "Fluticasone Propionate/Salmeterol 250/50 \u00b5g BID", "description": "Participants received Fluticasone Propionate (FP)/Salmeterol 250/50 \u00b5g inhalation powder BID (in the morning and evening), plus placebo inhalation powder OD in the evening for a period of 24 weeks."}], "denoms": [{"units": "Participants", "counts": [{"groupId": "OG000", "value": "354"}, {"groupId": "OG001", "value": "348"}]}], "classes": [{"categories": [{"measurements": [{"groupId": "OG000", "value": "2.3", "spread": "0.16"}, {"groupId": "OG001", "value": "2.0", "spread": "0.16"}]}]}]}, {"type": "OTHER_PRE_SPECIFIED", "title": "Number of Healthcare Contacts Related to Asthma or the Treatment of Asthma From Baseline to Day 168", "description": "All unscheduled asthma-related visits to a physician's office, visits to urgent care, visits to the emergency department, and hospitalizations (to the general ward \\[GW\\] or the intensive care unit \\[ICU\\]) that were associated with asthma exacerbations were recorded.", "populationDescription": "ITT Population. Only those participants available at the indicated time point were assessed.", "reportingStatus": "POSTED", "paramType": "MEAN", "dispersionType": "Standard Deviation", "unitOfMeasure": "visits per participant", "timeFrame": "Baseline to Day 168", "groups": [{"id": "OG000", "title": "Fluticasone Furoate/Vilanterol 100/25 \u00b5g OD", "description": "Participants received Fluticasone Furoate (FF)/Vilanterol (VI) 100/25 \u00b5g once daily (OD) in the evening, plus placebo inhalation powder twice daily (BID; in the morning and evening) for a period of 24 weeks."}, {"id": "OG001", "title": "Fluticasone Propionate/Salmeterol 250/50 \u00b5g BID", "description": "Participants received Fluticasone Propionate (FP)/Salmeterol 250/50 \u00b5g inhalation powder BID (in the morning and evening), plus placebo inhalation powder OD in the evening for a period of 24 weeks."}], "denoms": [{"units": "Participants", "counts": [{"groupId": "OG000", "value": "403"}, {"groupId": "OG001", "value": "403"}]}], "classes": [{"title": "Number of Home Visits during the Day", "categories": [{"measurements": [{"groupId": "OG000", "value": "0.0", "spread": "0.0"}, {"groupId": "OG001", "value": "0.0", "spread": "0.05"}]}]}, {"title": "Number of Home Visits during the Night", "categories": [{"measurements": [{"groupId": "OG000", "value": "0.0", "spread": "0.0"}, {"groupId": "OG001", "value": "0.0", "spread": "0.0"}]}]}, {"title": "Number of Physician Office/Practice Visits", "categories": [{"measurements": [{"groupId": "OG000", "value": "0.0", "spread": "0.29"}, {"groupId": "OG001", "value": "0.0", "spread": "0.18"}]}]}, {"title": "Number of Urgent Care/Outpatient Clinic Visits", "categories": [{"measurements": [{"groupId": "OG000", "value": "0.0", "spread": "0.05"}, {"groupId": "OG001", "value": "0.0", "spread": "0.05"}]}]}, {"title": "Number of Emergency Room Visits", "categories": [{"measurements": [{"groupId": "OG000", "value": "0.0", "spread": "0.15"}, {"groupId": "OG001", "value": "0.0", "spread": "0.14"}]}]}, {"title": "Number of Inpatient Hospitalization (ICU) Days", "categories": [{"measurements": [{"groupId": "OG000", "value": "0.0", "spread": "0.00"}, {"groupId": "OG001", "value": "0.0", "spread": "0.0"}]}]}, {"title": "Number of Inpatient Hospitalization (GW) Days", "categories": [{"measurements": [{"groupId": "OG000", "value": "0.0", "spread": "0.20"}, {"groupId": "OG001", "value": "0.0", "spread": "0.39"}]}]}]}, {"type": "OTHER_PRE_SPECIFIED", "title": "Change From Baseline in Asthma Quality of Life Questionnaire (AQLQ) Total Score for Participants 12 Years of Age and Older (AQLQ + 12)", "description": "The AQLQ is a disease-specific, self-administered quality of life (QOL) questionnaire developed to evaluate the impact of asthma treatments on the QOL of asthma sufferers. The AQLQ contains 32 items in four domains: activity limitation (11 items), symptoms (12 items), emotional function (5 items), and environmental stimuli (4 items). The response format consists of a 7-point scale: a value of 1 indicates \"total impairment\"; a value of 7 indicates \"no impairment.\" The AQLQ total score is defined as the average of the scores from all 32 questions, provided at least 90% of the questions have been answered; thus, the total score ranges from 1 (indicates \"total impairment\") to 7 (indicates \"no impairment\"). Change from Baseline was calculated as the Day 168 value minus the Baseline value. Analysis was performed using ANCOVA with covariates of Baseline total AQLQ score, country, sex, age, and treatment.", "populationDescription": "ITT Population. Only those participants available at the indicated time point were assessed.", "reportingStatus": "POSTED", "paramType": "LEAST_SQUARES_MEAN", "dispersionType": "Standard Error", "unitOfMeasure": "Scores on a scale", "timeFrame": "Baseline and Day 168", "groups": [{"id": "OG000", "title": "Fluticasone Furoate/Vilanterol 100/25 \u00b5g OD", "description": "Participants received Fluticasone Furoate (FF)/Vilanterol (VI) 100/25 \u00b5g once daily (OD) in the evening, plus placebo inhalation powder twice daily (BID; in the morning and evening) for a period of 24 weeks."}, {"id": "OG001", "title": "Fluticasone Propionate/Salmeterol 250/50 \u00b5g BID", "description": "Participants received Fluticasone Propionate (FP)/Salmeterol 250/50 \u00b5g inhalation powder BID (in the morning and evening), plus placebo inhalation powder OD in the evening for a period of 24 weeks."}], "denoms": [{"units": "Participants", "counts": [{"groupId": "OG000", "value": "342"}, {"groupId": "OG001", "value": "335"}]}], "classes": [{"categories": [{"measurements": [{"groupId": "OG000", "value": "0.46", "spread": "0.043"}, {"groupId": "OG001", "value": "0.37", "spread": "0.043"}]}]}]}, {"type": "OTHER_PRE_SPECIFIED", "title": "Percentage of Participants With \"No Problems\" in the EQ-5D Descriptive System Dimensions at Day 168/Week 24", "description": "The EQ-5D is a standardized, 2-part, self-assessment instrument, designed for self-completion, used to measure health outcome. The first part consists of 5 items covering 5 dimensions (mobility, self care, usual activities, pain/discomfort, and anxiety/depression). Each dimension is measured by a three-point Likert scale (1=no problems, 2=some problems and 3=severe problems). Respondents are asked to choose one level that reflects their \"own health state today\" for each of the five dimensions.", "populationDescription": "ITT Population. Only those participants available at the indicated time point were assessed.", "reportingStatus": "POSTED", "paramType": "NUMBER", "unitOfMeasure": "percentage of participants", "timeFrame": "Day 168/Week 24", "groups": [{"id": "OG000", "title": "Fluticasone Furoate/Vilanterol 100/25 \u00b5g OD", "description": "Participants received Fluticasone Furoate (FF)/Vilanterol (VI) 100/25 \u00b5g once daily (OD) in the evening, plus placebo inhalation powder twice daily (BID; in the morning and evening) for a period of 24 weeks."}, {"id": "OG001", "title": "Fluticasone Propionate/Salmeterol 250/50 \u00b5g BID", "description": "Participants received Fluticasone Propionate (FP)/Salmeterol 250/50 \u00b5g inhalation powder BID (in the morning and evening), plus placebo inhalation powder OD in the evening for a period of 24 weeks."}], "denoms": [{"units": "Participants", "counts": [{"groupId": "OG000", "value": "403"}, {"groupId": "OG001", "value": "403"}]}], "classes": [{"title": "Mobility", "categories": [{"measurements": [{"groupId": "OG000", "value": "86"}, {"groupId": "OG001", "value": "84"}]}]}, {"title": "Self care", "categories": [{"measurements": [{"groupId": "OG000", "value": "98"}, {"groupId": "OG001", "value": "98"}]}]}, {"title": "Usual activities", "categories": [{"measurements": [{"groupId": "OG000", "value": "86"}, {"groupId": "OG001", "value": "82"}]}]}, {"title": "Pain/Discomfort", "categories": [{"measurements": [{"groupId": "OG000", "value": "70"}, {"groupId": "OG001", "value": "66"}]}]}, {"title": "Anxiety/Depression", "categories": [{"measurements": [{"groupId": "OG000", "value": "78"}, {"groupId": "OG001", "value": "81"}]}]}]}, {"type": "OTHER_PRE_SPECIFIED", "title": "Change From Baseline in EQ-5D Visual Analog Scale (VAS) Score at Day 168", "description": "The EQ-5D is a standardized, 2-part, self-assessment instrument, designed for self-completion, used to measure health outcome. The first part consists of 5 items covering 5 dimensions (mobility, self care, usual activities, pain/discomfort, and anxiety/depression). The second part is a 20 centimeter VAS that has endpoints labelled \"best imaginable health state\" and \"worst imaginable health state\" anchored at 100 and 0, respectively. Participants were asked to indicate how they rate their own health by drawing a line from an anchor box to that point on the EQ-VAS that best represents their own health on that day. Analysis was performed using ANCOVA with covariates of Baseline VAS score, country, sex, age, and treatment.", "populationDescription": "ITT Population. Only those participants available at the indicated time point were assessed.", "reportingStatus": "POSTED", "paramType": "LEAST_SQUARES_MEAN", "dispersionType": "Standard Error", "unitOfMeasure": "scores on a scale", "timeFrame": "Baseline and Day 168", "groups": [{"id": "OG000", "title": "Fluticasone Furoate/Vilanterol 100/25 \u00b5g OD", "description": "Participants received Fluticasone Furoate (FF)/Vilanterol (VI) 100/25 \u00b5g once daily (OD) in the evening, plus placebo inhalation powder twice daily (BID; in the morning and evening) for a period of 24 weeks."}, {"id": "OG001", "title": "Fluticasone Propionate/Salmeterol 250/50 \u00b5g BID", "description": "Participants received Fluticasone Propionate (FP)/Salmeterol 250/50 \u00b5g inhalation powder BID (in the morning and evening), plus placebo inhalation powder OD in the evening for a period of 24 weeks."}], "denoms": [{"units": "Participants", "counts": [{"groupId": "OG000", "value": "343"}, {"groupId": "OG001", "value": "349"}]}], "classes": [{"categories": [{"measurements": [{"groupId": "OG000", "value": "5.5", "spread": "0.60"}, {"groupId": "OG001", "value": "4.1", "spread": "0.60"}]}]}]}]}, "adverseEventsModule": {"frequencyThreshold": "3", "timeFrame": "Serious adverse events (SAEs) and non-serious AEs were collected from the start of the study medication until Follow-up (up to 544 days).", "description": "All AEs and SAEs were followed until resolution, until the condition stabilized, until the event was otherwise explained, or until the participant was lost to follow-up.", "eventGroups": [{"id": "EG000", "title": "Fluticasone Furoate/Vilanterol 100/25 \u00b5g OD", "description": "Participants received Fluticasone Furoate (FF)/Vilanterol (VI) 100/25 \u00b5g once daily (OD) in the evening, plus placebo inhalation powder twice daily (BID; in the morning and evening) for a period of 24 weeks.", "seriousNumAffected": 4, "seriousNumAtRisk": 403, "otherNumAffected": 110, "otherNumAtRisk": 403}, {"id": "EG001", "title": "Fluticasone Propionate/Salmeterol 250/50 \u00b5g BID", "description": "Participants received Fluticasone Propionate (FP)/Salmeterol 250/50 \u00b5g inhalation powder BID (in the morning and evening), plus placebo inhalation powder OD in the evening for a period of 24 weeks.", "seriousNumAffected": 5, "seriousNumAtRisk": 403, "otherNumAffected": 106, "otherNumAtRisk": 403}], "seriousEvents": [{"term": "Pneumonia", "organSystem": "Infections and infestations", "sourceVocabulary": "MedDRA", "assessmentType": "SYSTEMATIC_ASSESSMENT", "stats": [{"groupId": "EG000", "numAffected": 0, "numAtRisk": 403}, {"groupId": "EG001", "numAffected": 1, "numAtRisk": 403}]}, {"term": "Upper respiratory tract infection", "organSystem": "Infections and infestations", "sourceVocabulary": "MedDRA", "assessmentType": "SYSTEMATIC_ASSESSMENT", "stats": [{"groupId": "EG000", "numAffected": 1, "numAtRisk": 403}, {"groupId": "EG001", "numAffected": 0, "numAtRisk": 403}]}, {"term": "Urinary tract infection", "organSystem": "Infections and infestations", "sourceVocabulary": "MedDRA", "assessmentType": "SYSTEMATIC_ASSESSMENT", "stats": [{"groupId": "EG000", "numAffected": 0, "numAtRisk": 403}, {"groupId": "EG001", "numAffected": 1, "numAtRisk": 403}]}, {"term": "Asthma", "organSystem": "Respiratory, thoracic and mediastinal disorders", "sourceVocabulary": "MedDRA", "assessmentType": "SYSTEMATIC_ASSESSMENT", "stats": [{"groupId": "EG000", "numAffected": 1, "numAtRisk": 403}, {"groupId": "EG001", "numAffected": 2, "numAtRisk": 403}]}, {"term": "Myocardial ischaemia", "organSystem": "Cardiac disorders", "sourceVocabulary": "MedDRA", "assessmentType": "SYSTEMATIC_ASSESSMENT", "stats": [{"groupId": "EG000", "numAffected": 1, "numAtRisk": 403}, {"groupId": "EG001", "numAffected": 0, "numAtRisk": 403}]}, {"term": "Cholelithiasis", "organSystem": "Hepatobiliary disorders", "sourceVocabulary": "MedDRA", "assessmentType": "SYSTEMATIC_ASSESSMENT", "stats": [{"groupId": "EG000", "numAffected": 1, "numAtRisk": 403}, {"groupId": "EG001", "numAffected": 0, "numAtRisk": 403}]}, {"term": "Carbon monoxide poisoning", "organSystem": "Injury, poisoning and procedural complications", "sourceVocabulary": "MedDRA", "assessmentType": "SYSTEMATIC_ASSESSMENT", "stats": [{"groupId": "EG000", "numAffected": 0, "numAtRisk": 403}, {"groupId": "EG001", "numAffected": 1, "numAtRisk": 403}]}, {"term": "Disorientation", "organSystem": "Psychiatric disorders", "sourceVocabulary": "MedDRA", "assessmentType": "SYSTEMATIC_ASSESSMENT", "stats": [{"groupId": "EG000", "numAffected": 0, "numAtRisk": 403}, {"groupId": "EG001", "numAffected": 1, "numAtRisk": 403}]}], "otherEvents": [{"term": "Nasopharyngitis", "organSystem": "Infections and infestations", "sourceVocabulary": "MedDRA", "assessmentType": "SYSTEMATIC_ASSESSMENT", "stats": [{"groupId": "EG000", "numAffected": 46, "numAtRisk": 403}, {"groupId": "EG001", "numAffected": 46, "numAtRisk": 403}]}, {"term": "Upper respiratory tract infection", "organSystem": "Infections and infestations", "sourceVocabulary": "MedDRA", "assessmentType": "SYSTEMATIC_ASSESSMENT", "stats": [{"groupId": "EG000", "numAffected": 25, "numAtRisk": 403}, {"groupId": "EG001", "numAffected": 16, "numAtRisk": 403}]}, {"term": "Headache", "organSystem": "Nervous system disorders", "sourceVocabulary": "MedDRA", "assessmentType": "SYSTEMATIC_ASSESSMENT", "stats": [{"groupId": "EG000", "numAffected": 34, "numAtRisk": 403}, {"groupId": "EG001", "numAffected": 41, "numAtRisk": 403}]}, {"term": "Cough", "organSystem": "Respiratory, thoracic and mediastinal disorders", "sourceVocabulary": "MedDRA", "assessmentType": "SYSTEMATIC_ASSESSMENT", "stats": [{"groupId": "EG000", "numAffected": 15, "numAtRisk": 403}, {"groupId": "EG001", "numAffected": 13, "numAtRisk": 403}]}, {"term": "Pyrexia", "organSystem": "General disorders", "sourceVocabulary": "MedDRA", "assessmentType": "SYSTEMATIC_ASSESSMENT", "stats": [{"groupId": "EG000", "numAffected": 13, "numAtRisk": 403}, {"groupId": "EG001", "numAffected": 5, "numAtRisk": 403}]}]}, "moreInfoModule": {"certainAgreement": {"piSponsorEmployee": false, "restrictionType": "OTHER", "restrictiveAgreement": true, "otherDetails": "GSK agreements may vary with individual investigators, but will not prohibit any investigator from publishing. GSK supports the publication of results from all centers of a multi-center trial but requests that reports based on single-site data not precede the primary publication of the entire clinical trial."}, "pointOfContact": {"title": "GSK Response Center", "organization": "GlaxoSmithKline", "phone": "866-435-7343"}}}, "derivedSection": {"miscInfoModule": {"versionHolder": "2024-06-24"}, "conditionBrowseModule": {"meshes": [{"id": "D000001249", "term": "Asthma"}], "ancestors": [{"id": "D000001982", "term": "Bronchial Diseases"}, {"id": "D000012140", "term": "Respiratory Tract Diseases"}, {"id": "D000008173", "term": "Lung Diseases, Obstructive"}, {"id": "D000008171", "term": "Lung Diseases"}, {"id": "D000012130", "term": "Respiratory Hypersensitivity"}, {"id": "D000006969", "term": "Hypersensitivity, Immediate"}, {"id": "D000006967", "term": "Hypersensitivity"}, {"id": "D000007154", "term": "Immune System Diseases"}], "browseLeaves": [{"id": "M27137", "name": "Respiratory Aspiration", "relevance": "LOW"}, {"id": "M4556", "name": "Asthma", "asFound": "Asthma", "relevance": "HIGH"}, {"id": "M5258", "name": "Bronchial Diseases", "relevance": "LOW"}, {"id": "M14977", "name": "Respiratory Tract Diseases", "relevance": "LOW"}, {"id": "M11168", "name": "Lung Diseases", "relevance": "LOW"}, {"id": "M11170", "name": "Lung Diseases, Obstructive", "relevance": "LOW"}, {"id": "M10018", "name": "Hypersensitivity", "relevance": "LOW"}, {"id": "M14967", "name": "Respiratory Hypersensitivity", "relevance": "LOW"}, {"id": "M10020", "name": "Hypersensitivity, Immediate", "relevance": "LOW"}, {"id": "M10200", "name": "Immune System Diseases", "relevance": "LOW"}], "browseBranches": [{"abbrev": "BC08", "name": "Respiratory Tract (Lung and Bronchial) Diseases"}, {"abbrev": "BC23", "name": "Symptoms and General Pathology"}, {"abbrev": "All", "name": "All Conditions"}, {"abbrev": "BC20", "name": "Immune System Diseases"}]}, "interventionBrowseModule": {"meshes": [{"id": "D000068298", "term": "Fluticasone"}, {"id": "C000716389", "term": "Xhance"}, {"id": "D000068299", "term": "Salmeterol Xinafoate"}], "ancestors": [{"id": "D000000893", "term": "Anti-Inflammatory Agents"}, {"id": "D000001993", "term": "Bronchodilator Agents"}, {"id": "D000001337", "term": "Autonomic Agents"}, {"id": "D000018373", "term": "Peripheral Nervous System Agents"}, {"id": "D000045505", "term": "Physiological Effects of Drugs"}, {"id": "D000018927", "term": "Anti-Asthmatic Agents"}, {"id": "D000019141", "term": "Respiratory System Agents"}, {"id": "D000003879", "term": "Dermatologic Agents"}, {"id": "D000018926", "term": "Anti-Allergic Agents"}, {"id": "D000058666", "term": "Adrenergic beta-2 Receptor Agonists"}, {"id": "D000000318", "term": "Adrenergic beta-Agonists"}, {"id": "D000000322", "term": "Adrenergic Agonists"}, {"id": "D000018663", "term": "Adrenergic Agents"}, {"id": "D000018377", "term": "Neurotransmitter Agents"}, {"id": "D000045504", "term": "Molecular Mechanisms of Pharmacological Action"}], "browseLeaves": [{"id": "M250", "name": "Fluticasone", "asFound": "Pembrolizumab", "relevance": "HIGH"}, {"id": "M353494", "name": "Xhance", "asFound": "Pembrolizumab", "relevance": "HIGH"}, {"id": "M251", "name": "Salmeterol Xinafoate", "asFound": "Metabolism", "relevance": "HIGH"}, {"id": "M4217", "name": "Anti-Inflammatory Agents", "relevance": "LOW"}, {"id": "M5269", "name": "Bronchodilator Agents", "relevance": "LOW"}, {"id": "M20963", "name": "Anti-Asthmatic Agents", "relevance": "LOW"}, {"id": "M21137", "name": "Respiratory System Agents", "relevance": "LOW"}, {"id": "M7074", "name": "Dermatologic Agents", "relevance": "LOW"}, {"id": "M20962", "name": "Anti-Allergic Agents", "relevance": "LOW"}, {"id": "M20746", "name": "Adrenergic Agents", "relevance": "LOW"}, {"id": "M3670", "name": "Adrenergic beta-Agonists", "relevance": "LOW"}, {"id": "M3673", "name": "Adrenergic Agonists", "relevance": "LOW"}, {"id": "M20504", "name": "Neurotransmitter Agents", "relevance": "LOW"}], "browseBranches": [{"abbrev": "AAll", "name": "Anti-Allergic Agents"}, {"abbrev": "Infl", "name": "Anti-Inflammatory Agents"}, {"abbrev": "Derm", "name": "Dermatologic Agents"}, {"abbrev": "Resp", "name": "Respiratory System Agents"}, {"abbrev": "All", "name": "All Drugs and Chemicals"}]}}, "hasResults": true}