{"protocolSection": {"identificationModule": {"nctId": "NCT01444430", "orgStudyIdInfo": {"id": "D5896C00027"}, "secondaryIdInfos": [{"id": "2011-002790-28", "type": "EUDRACT_NUMBER"}], "organization": {"fullName": "AstraZeneca", "class": "INDUSTRY"}, "briefTitle": "A 6 Month Safety Study Comparing Symbicort With Inhaled Corticosteroid Only in Asthmatic Adults and Adolescents", "officialTitle": "A 26 Week, Randomized, Double-blind, Parallel-group, Active Controlled, Multicenter, Multinational Safety Study Evaluating the Risk of Serious Asthma-related Events During Treatment With Symbicort\u00ae, a Fixed Combination of Inhaled Corticosteroid (ICS) (Budesonide) and a Long Acting \u03b22-agonist (LABA) (Formoterol) as Compared to Treatment With ICS (Budesonide) Alone in Adult and Adolescent (\u226512 Years of Age) Patients With Asthma"}, "statusModule": {"statusVerifiedDate": "2016-11", "overallStatus": "COMPLETED", "expandedAccessInfo": {"hasExpandedAccess": false}, "startDateStruct": {"date": "2011-12"}, "primaryCompletionDateStruct": {"date": "2015-10", "type": "ACTUAL"}, "completionDateStruct": {"date": "2015-10", "type": "ACTUAL"}, "studyFirstSubmitDate": "2011-09-23", "studyFirstSubmitQcDate": "2011-09-28", "studyFirstPostDateStruct": {"date": "2011-09-30", "type": "ESTIMATED"}, "resultsFirstSubmitDate": "2016-04-08", "resultsFirstSubmitQcDate": "2016-11-29", "resultsFirstPostDateStruct": {"date": "2016-12-15", "type": "ESTIMATED"}, "lastUpdateSubmitDate": "2016-11-29", "lastUpdatePostDateStruct": {"date": "2016-12-15", "type": "ESTIMATED"}}, "sponsorCollaboratorsModule": {"responsibleParty": {"type": "SPONSOR"}, "leadSponsor": {"name": "AstraZeneca", "class": "INDUSTRY"}}, "descriptionModule": {"briefSummary": "The purpose of the study is to evaluate the safety of Symbicort compared to inhaled corticosteroid alone during 6 months in adult and adolescent patients with asthma", "detailedDescription": "A 26 week, randomized, double-blind, parallel-group, active controlled, multicenter, multinational safety study evaluating the risk of serious asthma-related events during treatment with Symbicort\u00ae, a fixed combination of inhaled corticosteroid (ICS) (budesonide) and a long acting \u03b22-agonist (LABA) (formoterol) as compared to treatment with ICS (budesonide) alone in adult and adolescent (\u226512 years of age) patients with asthma."}, "conditionsModule": {"conditions": ["Asthma"], "keywords": ["Symbicort pMDI", "Asthma", "safety", "budesonide"]}, "designModule": {"studyType": "INTERVENTIONAL", "phases": ["PHASE3"], "designInfo": {"allocation": "RANDOMIZED", "interventionModel": "PARALLEL", "primaryPurpose": "TREATMENT", "maskingInfo": {"masking": "QUADRUPLE", "whoMasked": ["PARTICIPANT", "CARE_PROVIDER", "INVESTIGATOR", "OUTCOMES_ASSESSOR"]}}, "enrollmentInfo": {"count": 12460, "type": "ACTUAL"}}, "armsInterventionsModule": {"armGroups": [{"label": "1", "type": "EXPERIMENTAL", "description": "Symbicort", "interventionNames": ["Drug: Symbicort pMDI"]}, {"label": "2", "type": "ACTIVE_COMPARATOR", "description": "budesonide", "interventionNames": ["Drug: budesonide pMDI"]}], "interventions": [{"type": "DRUG", "name": "Symbicort pMDI", "description": "Patients were randomized to Symbicort and assigned to one of the following treatments (based upon ACQ at baseline and prior asthma therapy): Symbicort pMDI 80/4.5 \u03bcg x 2 actuations bid (morning and evening) or Symbicort pMDI 160/4.5 \u03bcg x 2 actuations bid (morning and evening), for oral inhalation.", "armGroupLabels": ["1"]}, {"type": "DRUG", "name": "budesonide pMDI", "description": "Patients were randomized to budesonide and assigned to one of the following treatments (based upon ACQ at baseline and prior asthma therapy): budesonide pMDI 80 \u03bcg x 2 actuations bid (morning and evening) or budesonide pMDI 160 \u03bcg x 2 actuations bid (morning and evening), for oral inhalation.", "armGroupLabels": ["2"]}]}, "outcomesModule": {"primaryOutcomes": [{"measure": "Number of Participants Experiencing an Event in the Composite Endpoint (Asthma-related Death, Asthma-related Intubation or Asthma-related Hospitalization)", "description": "Number of participants experiencing an event in the composite endpoint (asthma-related death, asthma-related intubation or asthma-related hospitalization), using events adjudicated and confirmed by the Joint Adjudication Committee. Cox proportional hazards model with terms for randomized treatment and strata for incoming control/asthma treatment was used to compare Symbicort and budesonide. Hazard ratios and 95% confidence intervals were estimated.", "timeFrame": "Up to 27 weeks"}, {"measure": "Number of Participants Experiencing an Event Included in the Definition of Asthma Exacerbation", "description": "Number of participants experiencing an event included in the definition of asthma exacerbation. An asthma exacerbation was defined as a deterioration of asthma requiring systemic corticosteroids for at least 3 days or an inpatient hospitalization or emergency room visit due to asthma that required systemic corticosteroids. Cox proportional hazards model with terms for randomized treatment and strata for incoming control/asthma treatment was used to compare Symbicort and budesonide. Hazard ratios and 95% confidence intervals were estimated.", "timeFrame": "Up to 26 weeks"}], "secondaryOutcomes": [{"measure": "Percent of Days With no Asthma Symptoms", "description": "Percent of days with no asthma symptoms during the randomized treatment period. Analysis of variance (ANOVA) model including the fixed factors of treatment and strata by incoming control/asthma treatment was used to compare Symbicort and budesonide.", "timeFrame": "Daily up to 26 weeks"}, {"measure": "Percent of Days With Activity Limitation Due to Asthma", "description": "Percent of days with activity limitation due to asthma during the randomized treatment period. Analysis of variance (ANOVA) model including the fixed factors of treatment and strata by incoming control/asthma treatment was used to compare Symbicort and budesonide.", "timeFrame": "Daily up to 26 weeks"}, {"measure": "Mean Number of Puffs of Rescue Medication Per 24 Hours", "description": "Mean number of puffs of rescue medication per day (24 hours) during the randomized treatment period. Analysis of variance (ANOVA) model including the fixed factors of treatment and strata by incoming control/asthma treatment was used to compare Symbicort and budesonide.", "timeFrame": "Daily up to 26 weeks"}, {"measure": "Asthma Control Questionnaire (ACQ6)", "description": "The outcome variable for ACQ6 was the difference between the average of values recorded during the treatment period (day 28, day 84 and day 182) and the baseline measure. Analysis of covariance (ANCOVA) model, including the fixed factors of treatment and strata by incoming control/asthma treatment and baseline ACQ6 as covariate was used to compare Symbicort and budesonide.\n\nThe asthma control questionnaire, ACQ6, consists of six questions; all assessed on a 7-point scale from 0 to 6, where 0 represents good control and 6 represents poor control. The overall score is the mean of the responses to each of the six questions.", "timeFrame": "baseline, day 28, day 84, day 182"}, {"measure": "Percent of Nights With Awakening(s) Due to Asthma", "description": "Percent of nights with awakening(s) due to asthma during the randomized treatment period. Analysis of variance (ANOVA) model including the fixed factors of treatment and strata by incoming control/asthma treatment was used to compare Symbicort and budesonide.", "timeFrame": "Daily up to 26 weeks"}, {"measure": "Number of Participants Experiencing Discontinuation of Investigational Product Due to a Protocol Defined Asthma Exacerbation", "description": "Number of participants experiencing discontinuation of investigational product due to a protocol defined asthma exacerbation. An asthma exacerbation was defined as a deterioration of asthma requiring systemic corticosteroids for at least 3 days or an inpatient hospitalization or emergency room visit due to asthma that required systemic corticosteroids. Cox proportional hazards model with terms for randomized treatment and strata for incoming control/asthma treatment was used to compare Symbicort and budesonide. Hazard ratios and 95% confidence intervals were estimated.", "timeFrame": "Up to 26 weeks"}]}, "eligibilityModule": {"eligibilityCriteria": "Inclusion Criteria:\n\n* Provision of signed informed consent/ paediatric assent (if applicable) prior to any study specific procedures including medication withdrawal\n* Male or Female, \u226512 years of age\n* Documented clinical diagnosis of asthma for at least 1 year prior to Visit 2\n* Patient must have history of at least 1 asthma exacerbation including one of the following:\n\n  * requiring treatment with systemic corticosteroids\n  * an asthma-related hospitalization between 4 weeks and 12 months prior to randomization\n* Current Asthma Therapy: Patients must be appropriately using one of the treatments for asthma listed in the protocol combined with achieving certain results when recording an Asthma Control Questionnaire\n\nExclusion Criteria:\n\n* Patient has a history of life-threatening asthma. Defined for this protocol as an asthma episode that required intubation and/or was associated with hypercapnea requiring non-invasive ventilatory support.\n* Patient has required treatment with systemic corticosteroids (tablets, suspensions or injectable) for any reason within 4 weeks prior to Visit 2\n* Patient has an ongoing exacerbation, defined as a worsening of asthma that requires treatment with systemic corticosteroids (tablets, suspension, or injectable)\n* An asthma exacerbation within 4 weeks of randomization or more than 4 separate exacerbations in the 12 months preceding randomization or more than 2 hospitalizations for treatment of asthma in the 12 months preceding randomization\n* Patient has a respiratory infection or other viral/bacterial illness, or is recovering from such an illness at the time of Visit 2 that, in the investigator's opinion, will interfere with the patient's lung function\n* Patient must not meet unstable asthma severity criteria as listed in the protocol\n* Peak expiratory flow must not be below 50% o predicted normal\n* Pregnancy, breast-feeding or planned pregnancy during the study", "healthyVolunteers": false, "sex": "ALL", "minimumAge": "12 Years", "maximumAge": "130 Years", "stdAges": ["CHILD", "ADULT", "OLDER_ADULT"]}, "contactsLocationsModule": {"overallOfficials": [{"name": "Carin Jorup", "affiliation": "AstraZeneca Pepparedsleden 1, 431 83 M\u00f6lndal", "role": "STUDY_DIRECTOR"}], "locations": [{"facility": "Research Site", "city": "Birmingham", "state": "Alabama", "country": "United States", "geoPoint": {"lat": 33.52066, "lon": -86.80249}}, {"facility": "Research Site", "city": "Huntsville", "state": "Alabama", "country": "United States", "geoPoint": {"lat": 34.7304, "lon": -86.58594}}, {"facility": "Research Site", "city": "Anchorage", "state": "Alaska", "country": "United States", "geoPoint": {"lat": 61.21806, "lon": -149.90028}}, {"facility": "Research Site", "city": "Gilbert", "state": "Arizona", "country": "United States", "geoPoint": {"lat": 33.35283, "lon": -111.78903}}, {"facility": "Research Site", "city": "Glendale", "state": "Arizona", "country": "United States", "geoPoint": {"lat": 33.53865, "lon": -112.18599}}, {"facility": "Research Site", "city": "Mesa", "state": "Arizona", "country": "United States", "geoPoint": {"lat": 33.42227, "lon": -111.82264}}, {"facility": "Research Site", "city": "Tucson", "state": "Arizona", "country": "United States", "geoPoint": {"lat": 32.22174, "lon": -110.92648}}, {"facility": "Research Site", "city": "Fort Smith", "state": "Arkansas", "country": "United States", "geoPoint": {"lat": 35.38592, "lon": -94.39855}}, {"facility": "Research Site", "city": "Little Rock", "state": "Arkansas", "country": "United States", "geoPoint": {"lat": 34.74648, "lon": -92.28959}}, {"facility": "Research Site", "city": "Alhambra", "state": "California", "country": "United States", "geoPoint": {"lat": 34.09529, "lon": -118.12701}}, {"facility": "Research Site", "city": "Anaheim", "state": "California", "country": "United States", "geoPoint": {"lat": 33.83529, "lon": -117.9145}}, {"facility": "Research Site", "city": "Arvin", "state": "California", "country": "United States", "geoPoint": {"lat": 35.20913, "lon": -118.82843}}, {"facility": "Research Site", "city": "Bellflower", "state": "California", "country": "United States", "geoPoint": {"lat": 33.88168, "lon": -118.11701}}, {"facility": "Research Site", "city": "Buena Park", "state": "California", "country": "United States", "geoPoint": {"lat": 33.86751, "lon": -117.99812}}, {"facility": "Research Site", "city": "Costa Mesa", "state": "California", "country": "United States", "geoPoint": {"lat": 33.64113, "lon": -117.91867}}, {"facility": "Research Site", "city": "Encinitas", "state": "California", "country": "United States", "geoPoint": {"lat": 33.03699, "lon": -117.29198}}, {"facility": "Research Site", "city": "Escondido", "state": "California", "country": "United States", "geoPoint": {"lat": 33.11921, "lon": -117.08642}}, {"facility": "Research Site", "city": "Fountain Valley", "state": "California", "country": "United States", "geoPoint": {"lat": 33.70918, "lon": -117.95367}}, {"facility": "Research Site", "city": "Glendale", "state": "California", "country": "United States", "geoPoint": {"lat": 34.14251, "lon": -118.25508}}, {"facility": "Research Site", "city": "Long Beach", "state": "California", "country": "United States", "geoPoint": {"lat": 33.76696, "lon": -118.18923}}, {"facility": "Research Site", "city": "Los Angeles", "state": "California", "country": "United States", "geoPoint": {"lat": 34.05223, "lon": -118.24368}}, {"facility": "Research Site", "city": "Newport Beach", "state": "California", "country": "United States", "geoPoint": {"lat": 33.61891, "lon": -117.92895}}, {"facility": "Research Site", "city": "Northridge", "state": "California", "country": "United States", "geoPoint": {"lat": 34.22834, "lon": -118.53675}}, {"facility": "Research Site", "city": "Palmdale", "state": "California", "country": "United States", "geoPoint": {"lat": 34.57943, "lon": -118.11646}}, {"facility": "Research Site", "city": "Pasadena", "state": "California", "country": "United States", "geoPoint": {"lat": 34.14778, "lon": -118.14452}}, {"facility": "Research Site", "city": "Poway", "state": "California", "country": "United States", "geoPoint": {"lat": 32.96282, "lon": -117.03586}}, {"facility": "Research Site", "city": "Riverside", "state": "California", "country": "United States", "geoPoint": {"lat": 33.95335, "lon": -117.39616}}, {"facility": "Research Site", "city": "Roseville", "state": "California", "country": "United States", "geoPoint": {"lat": 38.75212, "lon": -121.28801}}, {"facility": "Research Site", "city": "San Diego", "state": "California", "country": "United States", "geoPoint": {"lat": 32.71533, "lon": -117.15726}}, {"facility": "Research Site", "city": "San Jose", "state": "California", "country": "United States", "geoPoint": {"lat": 37.33939, "lon": -121.89496}}, {"facility": "Research Site", "city": "Santa Ana", "state": "California", "country": "United States", "geoPoint": {"lat": 33.74557, "lon": -117.86783}}, {"facility": "Research Site", "city": "Stockton", "state": "California", "country": "United States", "geoPoint": {"lat": 37.9577, "lon": -121.29078}}, {"facility": "Research Site", "city": "Tustin", "state": "California", "country": "United States", "geoPoint": {"lat": 33.74585, "lon": -117.82617}}, {"facility": "Research Site", "city": "Walnut Creek", "state": "California", "country": "United States", "geoPoint": {"lat": 37.90631, "lon": -122.06496}}, {"facility": "Research Site", "city": "Denver", "state": "Colorado", "country": "United States", "geoPoint": {"lat": 39.73915, "lon": -104.9847}}, {"facility": "Research Site", "city": "Thornton", "state": "Colorado", "country": "United States", "geoPoint": {"lat": 39.86804, "lon": -104.97192}}, {"facility": "Research Site", "city": "Norwalk", "state": "Connecticut", "country": "United States", "geoPoint": {"lat": 41.1176, "lon": -73.4079}}, {"facility": "Research Site", "city": "Waterbury", "state": "Connecticut", "country": "United States", "geoPoint": {"lat": 41.55815, "lon": -73.0515}}, {"facility": "Research Site", "city": "Altamonte Springs", "state": "Florida", "country": "United States", "geoPoint": {"lat": 28.66111, "lon": -81.36562}}, {"facility": "Research Site", "city": "Clearwater", "state": "Florida", "country": "United States", "geoPoint": {"lat": 27.96585, "lon": -82.8001}}, {"facility": "Research Site", "city": "DeLand", "state": "Florida", "country": "United States", "geoPoint": {"lat": 29.02832, "lon": -81.30312}}, {"facility": "Research Site", "city": "Fort Lauderdale", "state": "Florida", "country": "United States", "geoPoint": {"lat": 26.12231, "lon": -80.14338}}, {"facility": "Research Site", "city": "Fort Myers", "state": "Florida", "country": "United States", "geoPoint": {"lat": 26.62168, "lon": -81.84059}}, {"facility": "Research Site", "city": "Gainesville", "state": "Florida", "country": "United States", "geoPoint": {"lat": 29.65163, "lon": -82.32483}}, {"facility": "Research Site", "city": "Hialeah", "state": "Florida", "country": "United States", "geoPoint": {"lat": 25.8576, "lon": -80.27811}}, {"facility": "Research Site", "city": "Jacksonville", "state": "Florida", "country": "United States", "geoPoint": {"lat": 30.33218, "lon": -81.65565}}, {"facility": "Research Site", "city": "Kissimmee", "state": "Florida", "country": "United States", "geoPoint": {"lat": 28.30468, "lon": -81.41667}}, {"facility": "Research Site", "city": "Leesburg", "state": "Florida", "country": "United States", "geoPoint": {"lat": 28.81082, "lon": -81.87786}}, {"facility": "Research Site", "city": "Lehigh Acres", "state": "Florida", "country": "United States", "geoPoint": {"lat": 26.62535, "lon": -81.6248}}, {"facility": "Research Site", "city": "Lynn Haven", "state": "Florida", "country": "United States", "geoPoint": {"lat": 30.24548, "lon": -85.64826}}, {"facility": "Research Site", "city": "Miami Beach", "state": "Florida", "country": "United States", "geoPoint": {"lat": 25.79065, "lon": -80.13005}}, {"facility": "Research Site", "city": "Miami", "state": "Florida", "country": "United States", "geoPoint": {"lat": 25.77427, "lon": -80.19366}}, {"facility": "Research Site", "city": "Ocoee", "state": "Florida", "country": "United States", "geoPoint": {"lat": 28.56917, "lon": -81.54396}}, {"facility": "Research Site", "city": "Opalocka", "state": "Florida", "country": "United States", "geoPoint": {"lat": 25.90232, "lon": -80.25033}}, {"facility": "Research Site", "city": "Orlando", "state": "Florida", "country": "United States", "geoPoint": {"lat": 28.53834, "lon": -81.37924}}, {"facility": "Research Site", "city": "Pembroke Pines", "state": "Florida", "country": "United States", "geoPoint": {"lat": 26.00315, "lon": -80.22394}}, {"facility": "Research Site", "city": "Royal Palm Beach", "state": "Florida", "country": "United States", "geoPoint": {"lat": 26.7084, "lon": -80.2306}}, {"facility": "Research Site", "city": "Tampa", "state": "Florida", "country": "United States", "geoPoint": {"lat": 27.94752, "lon": -82.45843}}, {"facility": "Research Site", "city": "Calhoun", "state": "Georgia", "country": "United States", "geoPoint": {"lat": 34.50259, "lon": -84.95105}}, {"facility": "Research Site", "city": "Conyers", "state": "Georgia", "country": "United States", "geoPoint": {"lat": 33.66761, "lon": -84.01769}}, {"facility": "Research Site", "city": "Decatur", "state": "Georgia", "country": "United States", "geoPoint": {"lat": 33.77483, "lon": -84.29631}}, {"facility": "Research Site", "city": "Gainesville", "state": "Georgia", "country": "United States", "geoPoint": {"lat": 34.29788, "lon": -83.82407}}, {"facility": "Research Site", "city": "Savannah", "state": "Georgia", "country": "United States", "geoPoint": {"lat": 32.08354, "lon": -81.09983}}, {"facility": "Research Site", "city": "Hayden Lake", "state": "Idaho", "country": "United States", "geoPoint": {"lat": 47.75879, "lon": -116.75686}}, {"facility": "Research Site", "city": "Meridan", "state": "Idaho", "country": "United States", "geoPoint": {"lat": 43.61211, "lon": -116.39151}}, {"facility": "Research Site", "city": "Kenilworth", "state": "Illinois", "country": "United States", "geoPoint": {"lat": 42.08586, "lon": -87.71756}}, {"facility": "Research Site", "city": "Springfield", "state": "Illinois", "country": "United States", "geoPoint": {"lat": 39.80172, "lon": -89.64371}}, {"facility": "Research Site", "city": "Anderson", "state": "Indiana", "country": "United States", "geoPoint": {"lat": 40.10532, "lon": -85.68025}}, {"facility": "Research Site", "city": "Evansville", "state": "Indiana", "country": "United States", "geoPoint": {"lat": 37.97476, "lon": -87.55585}}, {"facility": "Research Site", "city": "Michigan City", "state": "Indiana", "country": "United States", "geoPoint": {"lat": 41.70754, "lon": -86.89503}}, {"facility": "Research Site", "city": "Ames", "state": "Iowa", "country": "United States", "geoPoint": {"lat": 42.03471, "lon": -93.61994}}, {"facility": "Research Site", "city": "Council Bluffs", "state": "Iowa", "country": "United States", "geoPoint": {"lat": 41.26194, "lon": -95.86083}}, {"facility": "Research Site", "city": "Fort Mitchell", "state": "Kentucky", "country": "United States", "geoPoint": {"lat": 39.0595, "lon": -84.54744}}, {"facility": "Research Site", "city": "Lexington", "state": "Kentucky", "country": "United States", "geoPoint": {"lat": 37.98869, "lon": -84.47772}}, {"facility": "Research Site", "city": "Owensboro", "state": "Kentucky", "country": "United States", "geoPoint": {"lat": 37.77422, "lon": -87.11333}}, {"facility": "Research Site", "city": "Lafayette", "state": "Louisiana", "country": "United States", "geoPoint": {"lat": 30.22409, "lon": -92.01984}}, {"facility": "Research Site", "city": "Lake Charles", "state": "Louisiana", "country": "United States", "geoPoint": {"lat": 30.21309, "lon": -93.2044}}, {"facility": "Research Site", "city": "Shreveport", "state": "Louisiana", "country": "United States", "geoPoint": {"lat": 32.52515, "lon": -93.75018}}, {"facility": "Research Site", "city": "Baltimore", "state": "Maryland", "country": "United States", "geoPoint": {"lat": 39.29038, "lon": -76.61219}}, {"facility": "Research Site", "city": "Lanham", "state": "Maryland", "country": "United States", "geoPoint": {"lat": 38.96875, "lon": -76.8634}}, {"facility": "Research Site", "city": "Watertown", "state": "Massachusetts", "country": "United States", "geoPoint": {"lat": 42.37093, "lon": -71.18283}}, {"facility": "Research Site", "city": "Kalamazoo", "state": "Michigan", "country": "United States", "geoPoint": {"lat": 42.29171, "lon": -85.58723}}, {"facility": "Research Site", "city": "Madison Hgts", "state": "Michigan", "country": "United States"}, {"facility": "Research Site", "city": "Port Huron", "state": "Michigan", "country": "United States", "geoPoint": {"lat": 42.97086, "lon": -82.42491}}, {"facility": "Research Site", "city": "Southfield", "state": "Michigan", "country": "United States", "geoPoint": {"lat": 42.47337, "lon": -83.22187}}, {"facility": "Research Site", "city": "Sterling Heights", "state": "Michigan", "country": "United States", "geoPoint": {"lat": 42.58031, "lon": -83.0302}}, {"facility": "Research Site", "city": "Ypsilanti", "state": "Michigan", "country": "United States", "geoPoint": {"lat": 42.24115, "lon": -83.61299}}, {"facility": "Research Site", "city": "Duluth", "state": "Minnesota", "country": "United States", "geoPoint": {"lat": 46.78327, "lon": -92.10658}}, {"facility": "Research Site", "city": "Edina", "state": "Minnesota", "country": "United States", "geoPoint": {"lat": 44.88969, "lon": -93.34995}}, {"facility": "Research Site", "city": "Biloxi", "state": "Mississippi", "country": "United States", "geoPoint": {"lat": 30.39603, "lon": -88.88531}}, {"facility": "Research Site", "city": "Jackson", "state": "Mississippi", "country": "United States", "geoPoint": {"lat": 32.29876, "lon": -90.18481}}, {"facility": "Research Site", "city": "Vicksburg", "state": "Mississippi", "country": "United States", "geoPoint": {"lat": 32.35265, "lon": -90.87788}}, {"facility": "Research Site", "city": "Bridgeton", "state": "Missouri", "country": "United States", "geoPoint": {"lat": 38.767, "lon": -90.41151}}, {"facility": "Research Site", "city": "Chesterfield", "state": "Missouri", "country": "United States", "geoPoint": {"lat": 38.66311, "lon": -90.57707}}, {"facility": "Research Site", "city": "Kansas City", "state": "Missouri", "country": "United States", "geoPoint": {"lat": 39.09973, "lon": -94.57857}}, {"facility": "Research Site", "city": "Springfield", "state": "Missouri", "country": "United States", "geoPoint": {"lat": 37.21533, "lon": -93.29824}}, {"facility": "Research Site", "city": "St Louis", "state": "Missouri", "country": "United States", "geoPoint": {"lat": 38.62727, "lon": -90.19789}}, {"facility": "Research Site", "city": "Bellevue", "state": "Nebraska", "country": "United States", "geoPoint": {"lat": 41.13667, "lon": -95.89084}}, {"facility": "Research Site", "city": "Grand Island", "state": "Nebraska", "country": "United States", "geoPoint": {"lat": 40.92501, "lon": -98.34201}}, {"facility": "Research Site", "city": "Omaha", "state": "Nebraska", "country": "United States", "geoPoint": {"lat": 41.25626, "lon": -95.94043}}, {"facility": "Research Site", "city": "Verona", "state": "New Jersey", "country": "United States", "geoPoint": {"lat": 40.82982, "lon": -74.24015}}, {"facility": "Research Site", "city": "Bronx", "state": "New York", "country": "United States", "geoPoint": {"lat": 40.84985, "lon": -73.86641}}, {"facility": "Research Site", "city": "Great Neck", "state": "New York", "country": "United States", "geoPoint": {"lat": 40.80066, "lon": -73.72846}}, {"facility": "Research Site", "city": "Hopewell Jct", "state": "New York", "country": "United States"}, {"facility": "Research Site", "city": "New York", "state": "New York", "country": "United States", "geoPoint": {"lat": 40.71427, "lon": -74.00597}}, {"facility": "Research Site", "city": "Rochester", "state": "New York", "country": "United States", "geoPoint": {"lat": 43.15478, "lon": -77.61556}}, {"facility": "Research Site", "city": "Rockville Centre", "state": "New York", "country": "United States", "geoPoint": {"lat": 40.65871, "lon": -73.64124}}, {"facility": "Research Site", "city": "Watertown", "state": "New York", "country": "United States", "geoPoint": {"lat": 43.97478, "lon": -75.91076}}, {"facility": "Research Site", "city": "Cary", "state": "North Carolina", "country": "United States", "geoPoint": {"lat": 35.79154, "lon": -78.78112}}, {"facility": "Research Site", "city": "Charlotte", "state": "North Carolina", "country": "United States", "geoPoint": {"lat": 35.22709, "lon": -80.84313}}, {"facility": "Research Site", "city": "Greensboro", "state": "North Carolina", "country": "United States", "geoPoint": {"lat": 36.07264, "lon": -79.79198}}, {"facility": "Research Site", "city": "Salisbury", "state": "North Carolina", "country": "United States", "geoPoint": {"lat": 35.67097, "lon": -80.47423}}, {"facility": "Research Site", "city": "Wilmington", "state": "North Carolina", "country": "United States", "geoPoint": {"lat": 34.22573, "lon": -77.94471}}, {"facility": "Research Site", "city": "Winston-Salem", "state": "North Carolina", "country": "United States", "geoPoint": {"lat": 36.09986, "lon": -80.24422}}, {"facility": "Research Site", "city": "Fargo", "state": "North Dakota", "country": "United States", "geoPoint": {"lat": 46.87719, "lon": -96.7898}}, {"facility": "Research Site", "city": "Cincinnati", "state": "Ohio", "country": "United States", "geoPoint": {"lat": 39.12713, "lon": -84.51435}}, {"facility": "Research Site", "city": "Miamishburg", "state": "Ohio", "country": "United States", "geoPoint": {"lat": 39.64284, "lon": -84.28661}}, {"facility": "Research Site", "city": "Stow", "state": "Ohio", "country": "United States", "geoPoint": {"lat": 41.1595, "lon": -81.44039}}, {"facility": "Research Site", "city": "Oklahoma City", "state": "Oklahoma", "country": "United States", "geoPoint": {"lat": 35.46756, "lon": -97.51643}}, {"facility": "Research Site", "city": "Bend", "state": "Oregon", "country": "United States", "geoPoint": {"lat": 44.05817, "lon": -121.31531}}, {"facility": "Research Site", "city": "Abington", "state": "Pennsylvania", "country": "United States", "geoPoint": {"lat": 40.12067, "lon": -75.11795}}, {"facility": "Research Site", "city": "Bryn Mawr", "state": "Pennsylvania", "country": "United States", "geoPoint": {"lat": 40.30396, "lon": -80.08672}}, {"facility": "Research Site", "city": "Doylestown", "state": "Pennsylvania", "country": "United States", "geoPoint": {"lat": 40.31011, "lon": -75.12989}}, {"facility": "Research Site", "city": "Phoenixville", "state": "Pennsylvania", "country": "United States", "geoPoint": {"lat": 40.13038, "lon": -75.51491}}, {"facility": "Research Site", "city": "Pittsburgh", "state": "Pennsylvania", "country": "United States", "geoPoint": {"lat": 40.44062, "lon": -79.99589}}, {"facility": "Research Site", "city": "Wyomissing", "state": "Pennsylvania", "country": "United States", "geoPoint": {"lat": 40.32954, "lon": -75.96521}}, {"facility": "Research Site", "city": "Warwick", "state": "Rhode Island", "country": "United States", "geoPoint": {"lat": 41.7001, "lon": -71.41617}}, {"facility": "Research Site", "city": "Charleston", "state": "South Carolina", "country": "United States", "geoPoint": {"lat": 32.77657, "lon": -79.93092}}, {"facility": "Research Site", "city": "Greeneville", "state": "South Carolina", "country": "United States", "geoPoint": {"lat": 34.85262, "lon": -82.39401}}, {"facility": "Research Site", "city": "Greenville", "state": "South Carolina", "country": "United States", "geoPoint": {"lat": 34.85262, "lon": -82.39401}}, {"facility": "Research Site", "city": "Greer", "state": "South Carolina", "country": "United States", "geoPoint": {"lat": 34.93873, "lon": -82.22706}}, {"facility": "Research Site", "city": "Indian Land", "state": "South Carolina", "country": "United States", "geoPoint": {"lat": 35.00067, "lon": -80.87914}}, {"facility": "Research Site", "city": "Summerville", "state": "South Carolina", "country": "United States", "geoPoint": {"lat": 33.0185, "lon": -80.17565}}, {"facility": "Research Site", "city": "Knoxville", "state": "Tennessee", "country": "United States", "geoPoint": {"lat": 35.96064, "lon": -83.92074}}, {"facility": "Research Site", "city": "Nashville", "state": "Tennessee", "country": "United States", "geoPoint": {"lat": 36.16589, "lon": -86.78444}}, {"facility": "Research Site", "city": "Austin", "state": "Texas", "country": "United States", "geoPoint": {"lat": 30.26715, "lon": -97.74306}}, {"facility": "Research Site", "city": "Baytown", "state": "Texas", "country": "United States", "geoPoint": {"lat": 29.7355, "lon": -94.97743}}, {"facility": "Research Site", "city": "Dallas", "state": "Texas", "country": "United States", "geoPoint": {"lat": 32.78306, "lon": -96.80667}}, {"facility": "Research Site", "city": "Fort Worth", "state": "Texas", "country": "United States", "geoPoint": {"lat": 32.72541, "lon": -97.32085}}, {"facility": "Research Site", "city": "Georgetown", "state": "Texas", "country": "United States", "geoPoint": {"lat": 30.63269, "lon": -97.67723}}, {"facility": "Research Site", "city": "Houston", "state": "Texas", "country": "United States", "geoPoint": {"lat": 29.76328, "lon": -95.36327}}, {"facility": "Research Site", "city": "Killeen", "state": "Texas", "country": "United States", "geoPoint": {"lat": 31.11712, "lon": -97.7278}}, {"facility": "Research Site", "city": "McKinney", "state": "Texas", "country": "United States", "geoPoint": {"lat": 33.19762, "lon": -96.61527}}, {"facility": "Research Site", "city": "Pharr", "state": "Texas", "country": "United States", "geoPoint": {"lat": 26.1948, "lon": -98.18362}}, {"facility": "Research Site", "city": "Plano", "state": "Texas", "country": "United States", "geoPoint": {"lat": 33.01984, "lon": -96.69889}}, {"facility": "Research Site", "city": "San Antonio", "state": "Texas", "country": "United States", "geoPoint": {"lat": 29.42412, "lon": -98.49363}}, {"facility": "Research Site", "city": "Spring", "state": "Texas", "country": "United States", "geoPoint": {"lat": 30.07994, "lon": -95.41716}}, {"facility": "Research Site", "city": "Sugar Land", "state": "Texas", "country": "United States", "geoPoint": {"lat": 29.61968, "lon": -95.63495}}, {"facility": "Research Site", "city": "Sugarland", "state": "Texas", "country": "United States", "geoPoint": {"lat": 29.61968, "lon": -95.63495}}, {"facility": "Research Site", "city": "Waco", "state": "Texas", "country": "United States", "geoPoint": {"lat": 31.54933, "lon": -97.14667}}, {"facility": "Research Site", "city": "Layton", "state": "Utah", "country": "United States", "geoPoint": {"lat": 41.06022, "lon": -111.97105}}, {"facility": "Research Site", "city": "South Burlington", "state": "Vermont", "country": "United States", "geoPoint": {"lat": 44.46699, "lon": -73.17096}}, {"facility": "Research Site", "city": "Danville", "state": "Virginia", "country": "United States", "geoPoint": {"lat": 36.58597, "lon": -79.39502}}, {"facility": "Research Site", "city": "Vienna", "state": "Virginia", "country": "United States", "geoPoint": {"lat": 38.90122, "lon": -77.26526}}, {"facility": "Research Site", "city": "Virginia Beach", "state": "Virginia", "country": "United States", "geoPoint": {"lat": 36.85293, "lon": -75.97799}}, {"facility": "Research Site", "city": "Seattle", "state": "Washington", "country": "United States", "geoPoint": {"lat": 47.60621, "lon": -122.33207}}, {"facility": "Research Site", "city": "Spokane", "state": "Washington", "country": "United States", "geoPoint": {"lat": 47.65966, "lon": -117.42908}}, {"facility": "Research Site", "city": "Tacoma", "state": "Washington", "country": "United States", "geoPoint": {"lat": 47.25288, "lon": -122.44429}}, {"facility": "Research Site", "city": "La Crosse", "state": "Wisconsin", "country": "United States", "geoPoint": {"lat": 43.80136, "lon": -91.23958}}, {"facility": "Research Site", "city": "Milwaukee", "state": "Wisconsin", "country": "United States", "geoPoint": {"lat": 43.0389, "lon": -87.90647}}, {"facility": "Research Site", "city": "Buenos Aires", "country": "Argentina", "geoPoint": {"lat": -34.61315, "lon": -58.37723}}, {"facility": "Research Site", "city": "Ciudad de Buenos Aires", "country": "Argentina", "geoPoint": {"lat": -34.61315, "lon": -58.37723}}, {"facility": "Research Site", "city": "C\u00f3rdoba", "country": "Argentina", "geoPoint": {"lat": -31.4135, "lon": -64.18105}}, {"facility": "Research Site", "city": "Mar del Plata", "country": "Argentina", "geoPoint": {"lat": -38.00228, "lon": -57.55754}}, {"facility": "Research Site", "city": "Monte Grande", "country": "Argentina"}, {"facility": "Research Site", "city": "Quilmes", "country": "Argentina", "geoPoint": {"lat": -34.72904, "lon": -58.26374}}, {"facility": "Research Site", "city": "Ranelagh", "country": "Argentina", "geoPoint": {"lat": -34.79591, "lon": -58.1977}}, {"facility": "Research Site", "city": "San Miguel de Tucuman", "country": "Argentina", "geoPoint": {"lat": -26.82414, "lon": -65.2226}}, {"facility": "Research Site", "city": "San Miguel de Tucum\u00e1n", "country": "Argentina", "geoPoint": {"lat": -26.82414, "lon": -65.2226}}, {"facility": "Research Site", "city": "Barueri", "country": "Brazil", "geoPoint": {"lat": -23.51056, "lon": -46.87611}}, {"facility": "Research Site", "city": "Botucatu", "country": "Brazil", "geoPoint": {"lat": -22.88583, "lon": -48.445}}, {"facility": "Research Site", "city": "Goiania", "country": "Brazil", "geoPoint": {"lat": -16.67861, "lon": -49.25389}}, {"facility": "Research Site", "city": "Juiz de Fora", "country": "Brazil", "geoPoint": {"lat": -21.76417, "lon": -43.35028}}, {"facility": "Research Site", "city": "Porto Alegre", "country": "Brazil", "geoPoint": {"lat": -30.03306, "lon": -51.23}}, {"facility": "Research Site", "city": "Santo Andr\u00e9", "country": "Brazil", "geoPoint": {"lat": -23.66389, "lon": -46.53833}}, {"facility": "Research Site", "city": "Sao Paulo", "country": "Brazil", "geoPoint": {"lat": -23.5475, "lon": -46.63611}}, {"facility": "Research Site", "city": "Gotse Delchev", "country": "Bulgaria", "geoPoint": {"lat": 41.56667, "lon": 23.73333}}, {"facility": "Research Site", "city": "Kozloduy", "country": "Bulgaria", "geoPoint": {"lat": 43.77867, "lon": 23.72067}}, {"facility": "Research Site", "city": "Petrich", "country": "Bulgaria", "geoPoint": {"lat": 41.39847, "lon": 23.20705}}, {"facility": "Research Site", "city": "Pleven", "country": "Bulgaria", "geoPoint": {"lat": 43.41667, "lon": 24.61667}}, {"facility": "Research Site", "city": "Razgrad", "country": "Bulgaria", "geoPoint": {"lat": 43.53333, "lon": 26.51667}}, {"facility": "Research Site", "city": "Razlog", "country": "Bulgaria", "geoPoint": {"lat": 41.8863, "lon": 23.46714}}, {"facility": "Research Site", "city": "Ruse", "country": "Bulgaria", "geoPoint": {"lat": 43.85639, "lon": 25.97083}}, {"facility": "Research Site", "city": "Sandanski", "country": "Bulgaria", "geoPoint": {"lat": 41.56667, "lon": 23.28333}}, {"facility": "Research Site", "city": "Sevlievo", "country": "Bulgaria", "geoPoint": {"lat": 43.02583, "lon": 25.11361}}, {"facility": "Research Site", "city": "Sofia", "country": "Bulgaria", "geoPoint": {"lat": 42.69751, "lon": 23.32415}}, {"facility": "Research Site", "city": "Stara Zagora", "country": "Bulgaria", "geoPoint": {"lat": 42.43278, "lon": 25.64194}}, {"facility": "Research Site", "city": "Varna", "country": "Bulgaria", "geoPoint": {"lat": 43.21667, "lon": 27.91667}}, {"facility": "Research Site", "city": "Vidin", "country": "Bulgaria", "geoPoint": {"lat": 43.99, "lon": 22.8725}}, {"facility": "Research Site", "city": "Quillota", "country": "Chile", "geoPoint": {"lat": -32.88341, "lon": -71.24882}}, {"facility": "Research Site", "city": "Santiago", "country": "Chile", "geoPoint": {"lat": -33.45694, "lon": -70.64827}}, {"facility": "Research Site", "city": "Vina del Mar", "country": "Chile", "geoPoint": {"lat": -33.02457, "lon": -71.55183}}, {"facility": "Research Site", "city": "Bogot\u00e1", "country": "Colombia", "geoPoint": {"lat": 4.60971, "lon": -74.08175}}, {"facility": "Research Site", "city": "Cali", "country": "Colombia", "geoPoint": {"lat": 3.43722, "lon": -76.5225}}, {"facility": "Research Site", "city": "Manizales", "country": "Colombia", "geoPoint": {"lat": 5.06889, "lon": -75.51738}}, {"facility": "Research Site", "city": "Beroun", "country": "Czech Republic", "geoPoint": {"lat": 49.96382, "lon": 14.072}}, {"facility": "Research Site", "city": "Breclav", "country": "Czech Republic", "geoPoint": {"lat": 48.75897, "lon": 16.88203}}, {"facility": "Research Site", "city": "Krnov", "country": "Czech Republic", "geoPoint": {"lat": 50.08967, "lon": 17.70385}}, {"facility": "Research Site", "city": "Kutna Hora", "country": "Czech Republic", "geoPoint": {"lat": 49.94839, "lon": 15.26816}}, {"facility": "Research Site", "city": "Litomerice", "country": "Czech Republic", "geoPoint": {"lat": 50.53348, "lon": 14.1318}}, {"facility": "Research Site", "city": "Ostrava", "country": "Czech Republic", "geoPoint": {"lat": 49.83465, "lon": 18.28204}}, {"facility": "Research Site", "city": "Plzen", "country": "Czech Republic", "geoPoint": {"lat": 49.74747, "lon": 13.37759}}, {"facility": "Research Site", "city": "Praha 10", "country": "Czech Republic", "geoPoint": {"lat": 50.08804, "lon": 14.42076}}, {"facility": "Research Site", "city": "Praha 4", "country": "Czech Republic", "geoPoint": {"lat": 50.08804, "lon": 14.42076}}, {"facility": "Research Site", "city": "Praha 8", "country": "Czech Republic", "geoPoint": {"lat": 50.08804, "lon": 14.42076}}, {"facility": "Research Site", "city": "Rokycany", "country": "Czech Republic", "geoPoint": {"lat": 49.7427, "lon": 13.59459}}, {"facility": "Research Site", "city": "Angers", "country": "France", "geoPoint": {"lat": 47.46667, "lon": -0.55}}, {"facility": "Research Site", "city": "Perpignan", "country": "France", "geoPoint": {"lat": 42.69764, "lon": 2.89541}}, {"facility": "Research Site", "city": "Tierce", "country": "France", "geoPoint": {"lat": 47.61587, "lon": -0.46609}}, {"facility": "Research Site", "city": "Berlin", "country": "Germany", "geoPoint": {"lat": 52.52437, "lon": 13.41053}}, {"facility": "Research Site", "city": "Hamburg", "country": "Germany", "geoPoint": {"lat": 53.57532, "lon": 10.01534}}, {"facility": "Research Site", "city": "Leipzig", "country": "Germany", "geoPoint": {"lat": 51.33962, "lon": 12.37129}}, {"facility": "Research Site", "city": "Marburg", "country": "Germany", "geoPoint": {"lat": 50.80904, "lon": 8.77069}}, {"facility": "Research Site", "city": "Bangalore", "country": "India", "geoPoint": {"lat": 12.97194, "lon": 77.59369}}, {"facility": "Research Site", "city": "Calicut", "country": "India", "geoPoint": {"lat": 11.24802, "lon": 75.7804}}, {"facility": "Research Site", "city": "Coimbatore", "country": "India", "geoPoint": {"lat": 11.00555, "lon": 76.96612}}, {"facility": "Research Site", "city": "Goa", "country": "India"}, {"facility": "Research Site", "city": "Hyderabad", "country": "India", "geoPoint": {"lat": 17.38405, "lon": 78.45636}}, {"facility": "Research Site", "city": "Mangalore", "country": "India", "geoPoint": {"lat": 12.91723, "lon": 74.85603}}, {"facility": "Research Site", "city": "Mysore", "country": "India", "geoPoint": {"lat": 12.29791, "lon": 76.63925}}, {"facility": "Research Site", "city": "Nagpur", "country": "India", "geoPoint": {"lat": 21.14631, "lon": 79.08491}}, {"facility": "Research Site", "city": "New Delhi", "country": "India", "geoPoint": {"lat": 28.63576, "lon": 77.22445}}, {"facility": "Research Site", "city": "Trivandrum", "country": "India", "geoPoint": {"lat": 8.4855, "lon": 76.94924}}, {"facility": "Research Site", "city": "Benevento", "country": "Italy", "geoPoint": {"lat": 41.1307, "lon": 14.77816}}, {"facility": "Research Site", "city": "Bologna", "country": "Italy", "geoPoint": {"lat": 44.49381, "lon": 11.33875}}, {"facility": "Research Site", "city": "Catanzaro", "country": "Italy", "geoPoint": {"lat": 38.88247, "lon": 16.60086}}, {"facility": "Research Site", "city": "Ferrara", "country": "Italy", "geoPoint": {"lat": 44.83804, "lon": 11.62057}}, {"facility": "Research Site", "city": "Genova", "country": "Italy", "geoPoint": {"lat": 44.40478, "lon": 8.94438}}, {"facility": "Research Site", "city": "Napoli", "country": "Italy", "geoPoint": {"lat": 40.85216, "lon": 14.26811}}, {"facility": "Research Site", "city": "Padova", "country": "Italy", "geoPoint": {"lat": 45.40797, "lon": 11.88586}}, {"facility": "Research Site", "city": "Palermo", "country": "Italy", "geoPoint": {"lat": 38.13205, "lon": 13.33561}}, {"facility": "Research Site", "city": "Roma", "country": "Italy", "geoPoint": {"lat": 41.89193, "lon": 12.51133}}, {"facility": "Research Site", "city": "Ansan-si", "country": "Korea, Republic of", "geoPoint": {"lat": 37.32361, "lon": 126.82194}}, {"facility": "Research Site", "city": "Cheonan-si", "country": "Korea, Republic of"}, {"facility": "Research Site", "city": "Cheongju-si", "country": "Korea, Republic of", "geoPoint": {"lat": 36.63722, "lon": 127.48972}}, {"facility": "Research Site", "city": "Jinju-si", "country": "Korea, Republic of", "geoPoint": {"lat": 35.19278, "lon": 128.08472}}, {"facility": "Research Site", "city": "Seongnam-si", "country": "Korea, Republic of", "geoPoint": {"lat": 37.43861, "lon": 127.13778}}, {"facility": "Research Site", "city": "Seoul", "country": "Korea, Republic of", "geoPoint": {"lat": 37.566, "lon": 126.9784}}, {"facility": "Research Site", "city": "Durango", "country": "Mexico", "geoPoint": {"lat": 24.02032, "lon": -104.65756}}, {"facility": "Research Site", "city": "Guadalajara", "country": "Mexico", "geoPoint": {"lat": 20.66682, "lon": -103.39182}}, {"facility": "Research Site", "city": "Mexico", "country": "Mexico", "geoPoint": {"lat": 19.42847, "lon": -99.12766}}, {"facility": "Research Site", "city": "Monterey", "country": "Mexico"}, {"facility": "Research Site", "city": "Monterrey", "country": "Mexico", "geoPoint": {"lat": 25.67507, "lon": -100.31847}}, {"facility": "Research Site", "city": "Morelia", "country": "Mexico", "geoPoint": {"lat": 19.70078, "lon": -101.18443}}, {"facility": "Research Site", "city": "M\u00e9xico", "country": "Mexico", "geoPoint": {"lat": 19.42847, "lon": -99.12766}}, {"facility": "Research Site", "city": "Santiago de Quer\u00e9taro", "country": "Mexico", "geoPoint": {"lat": 20.58806, "lon": -100.38806}}, {"facility": "Research Site", "city": "Villahermosa", "country": "Mexico", "geoPoint": {"lat": 17.98689, "lon": -92.93028}}, {"facility": "Research Site", "city": "Zapopan", "country": "Mexico", "geoPoint": {"lat": 20.72356, "lon": -103.38479}}, {"facility": "Research Site", "city": "Ciudad de Panama", "country": "Panama", "geoPoint": {"lat": 8.9936, "lon": -79.51973}}, {"facility": "Research Site", "city": "Cusco", "country": "Peru", "geoPoint": {"lat": -13.52264, "lon": -71.96734}}, {"facility": "Research Site", "city": "Lima", "country": "Peru", "geoPoint": {"lat": -12.04318, "lon": -77.02824}}, {"facility": "Research Site", "city": "Iloilo City", "country": "Philippines", "geoPoint": {"lat": 10.69694, "lon": 122.56444}}, {"facility": "Research Site", "city": "Lipa City", "country": "Philippines", "geoPoint": {"lat": 13.9411, "lon": 121.1631}}, {"facility": "Research Site", "city": "Manila", "country": "Philippines", "geoPoint": {"lat": 14.6042, "lon": 120.9822}}, {"facility": "Research Site", "city": "Pasig City", "country": "Philippines", "geoPoint": {"lat": 14.58691, "lon": 121.0614}}, {"facility": "Research Site", "city": "Quezon City", "country": "Philippines", "geoPoint": {"lat": 14.6488, "lon": 121.0509}}, {"facility": "Research Site", "city": "Bia\u0142ystok", "country": "Poland", "geoPoint": {"lat": 53.13333, "lon": 23.16433}}, {"facility": "Research Site", "city": "Bydgoszcz", "country": "Poland", "geoPoint": {"lat": 53.1235, "lon": 18.00762}}, {"facility": "Research Site", "city": "Ch\u0119ciny", "country": "Poland", "geoPoint": {"lat": 50.80021, "lon": 20.46229}}, {"facility": "Research Site", "city": "Gorz\u00f3w Wlkp", "country": "Poland"}, {"facility": "Research Site", "city": "Karpacz", "country": "Poland", "geoPoint": {"lat": 50.77669, "lon": 15.75594}}, {"facility": "Research Site", "city": "Krak\u00f3w", "country": "Poland", "geoPoint": {"lat": 50.06143, "lon": 19.93658}}, {"facility": "Research Site", "city": "Ostr\u00f3w Wielkopolski", "country": "Poland", "geoPoint": {"lat": 51.65501, "lon": 17.80686}}, {"facility": "Research Site", "city": "Skar\u017cysko Kamienna", "country": "Poland", "geoPoint": {"lat": 51.11311, "lon": 20.87162}}, {"facility": "Research Site", "city": "Strzelce Opolskie", "country": "Poland", "geoPoint": {"lat": 50.5107, "lon": 18.30056}}, {"facility": "Research Site", "city": "Szczecin", "country": "Poland", "geoPoint": {"lat": 53.42894, "lon": 14.55302}}, {"facility": "Research Site", "city": "Tarn\u00f3w", "country": "Poland", "geoPoint": {"lat": 50.01381, "lon": 20.98698}}, {"facility": "Research Site", "city": "Turek", "country": "Poland", "geoPoint": {"lat": 52.01548, "lon": 18.50055}}, {"facility": "Research Site", "city": "Urszulin", "country": "Poland", "geoPoint": {"lat": 51.3939, "lon": 23.1948}}, {"facility": "Research Site", "city": "Wroc\u0142aw", "country": "Poland", "geoPoint": {"lat": 51.1, "lon": 17.03333}}, {"facility": "Research Site", "city": "Caguas", "country": "Puerto Rico", "geoPoint": {"lat": 18.23412, "lon": -66.0485}}, {"facility": "Research Site", "city": "San Juan", "country": "Puerto Rico", "geoPoint": {"lat": 18.46633, "lon": -66.10572}}, {"facility": "Research Site", "city": "Toa Baja", "country": "Puerto Rico", "geoPoint": {"lat": 18.44384, "lon": -66.25961}}, {"facility": "Research Site", "city": "Bragadiru", "country": "Romania", "geoPoint": {"lat": 44.37111, "lon": 25.9775}}, {"facility": "Research Site", "city": "Brasov", "country": "Romania", "geoPoint": {"lat": 45.64861, "lon": 25.60613}}, {"facility": "Research Site", "city": "Bucharest", "country": "Romania", "geoPoint": {"lat": 44.43225, "lon": 26.10626}}, {"facility": "Research Site", "city": "Bucuresti", "country": "Romania", "geoPoint": {"lat": 44.42802, "lon": 26.09665}}, {"facility": "Research Site", "city": "Cluj Napoca", "country": "Romania", "geoPoint": {"lat": 46.76667, "lon": 23.6}}, {"facility": "Research Site", "city": "Constanta", "country": "Romania", "geoPoint": {"lat": 44.18073, "lon": 28.63432}}, {"facility": "Research Site", "city": "Craiova", "country": "Romania", "geoPoint": {"lat": 44.31667, "lon": 23.8}}, {"facility": "Research Site", "city": "Deva", "country": "Romania", "geoPoint": {"lat": 45.88333, "lon": 22.9}}, {"facility": "Research Site", "city": "Iasi", "country": "Romania", "geoPoint": {"lat": 47.16667, "lon": 27.6}}, {"facility": "Research Site", "city": "Tg. Mures", "country": "Romania"}, {"facility": "Research Site", "city": "Ekaterinburg", "country": "Russian Federation", "geoPoint": {"lat": 56.8519, "lon": 60.6122}}, {"facility": "Research Site", "city": "Kazan", "country": "Russian Federation", "geoPoint": {"lat": 55.78874, "lon": 49.12214}}, {"facility": "Research Site", "city": "Moscow", "country": "Russian Federation", "geoPoint": {"lat": 55.75222, "lon": 37.61556}}, {"facility": "Research Site", "city": "Novosibirsk", "country": "Russian Federation", "geoPoint": {"lat": 55.0415, "lon": 82.9346}}, {"facility": "Research Site", "city": "Penza", "country": "Russian Federation", "geoPoint": {"lat": 53.20066, "lon": 45.00464}}, {"facility": "Research Site", "city": "Saint Petersburg", "country": "Russian Federation", "geoPoint": {"lat": 59.93863, "lon": 30.31413}}, {"facility": "Research Site", "city": "Saint-Petersburg", "country": "Russian Federation", "geoPoint": {"lat": 59.93863, "lon": 30.31413}}, {"facility": "Research Site", "city": "Saratov", "country": "Russian Federation", "geoPoint": {"lat": 51.54056, "lon": 46.00861}}, {"facility": "Research Site", "city": "St-Petersburg", "country": "Russian Federation", "geoPoint": {"lat": 59.93863, "lon": 30.31413}}, {"facility": "Research Site", "city": "St. Petersburg", "country": "Russian Federation", "geoPoint": {"lat": 59.93863, "lon": 30.31413}}, {"facility": "Research Site", "city": "StPetersburg", "country": "Russian Federation", "geoPoint": {"lat": 59.93863, "lon": 30.31413}}, {"facility": "Research Site", "city": "Vladikavkaz", "country": "Russian Federation", "geoPoint": {"lat": 43.03667, "lon": 44.66778}}, {"facility": "Research Site", "city": "Volgograd", "country": "Russian Federation", "geoPoint": {"lat": 48.71939, "lon": 44.50183}}, {"facility": "Research Site", "city": "Yaroslavl", "country": "Russian Federation", "geoPoint": {"lat": 57.62987, "lon": 39.87368}}, {"facility": "Research Site", "city": "Yekaterinburg", "country": "Russian Federation", "geoPoint": {"lat": 56.8519, "lon": 60.6122}}, {"facility": "Research Site", "city": "Bardejov", "country": "Slovakia", "geoPoint": {"lat": 49.29175, "lon": 21.27271}}, {"facility": "Research Site", "city": "Bratislava", "country": "Slovakia", "geoPoint": {"lat": 48.14816, "lon": 17.10674}}, {"facility": "Research Site", "city": "Dunajska Streda", "country": "Slovakia", "geoPoint": {"lat": 47.99268, "lon": 17.61211}}, {"facility": "Research Site", "city": "Komarno", "country": "Slovakia", "geoPoint": {"lat": 47.76356, "lon": 18.12263}}, {"facility": "Research Site", "city": "Kosice", "country": "Slovakia", "geoPoint": {"lat": 48.71395, "lon": 21.25808}}, {"facility": "Research Site", "city": "Liptovsky Mikulas", "country": "Slovakia", "geoPoint": {"lat": 49.08061, "lon": 19.62218}}, {"facility": "Research Site", "city": "Nitra", "country": "Slovakia", "geoPoint": {"lat": 48.30763, "lon": 18.08453}}, {"facility": "Research Site", "city": "Presov", "country": "Slovakia", "geoPoint": {"lat": 48.99839, "lon": 21.23393}}, {"facility": "Research Site", "city": "Ruzomberok", "country": "Slovakia", "geoPoint": {"lat": 49.0748, "lon": 19.30751}}, {"facility": "Research Site", "city": "Skalica", "country": "Slovakia", "geoPoint": {"lat": 48.8449, "lon": 17.22635}}, {"facility": "Research Site", "city": "Zilina", "country": "Slovakia", "geoPoint": {"lat": 49.22315, "lon": 18.73941}}, {"facility": "Research Site", "city": "Zvolen", "country": "Slovakia", "geoPoint": {"lat": 48.57442, "lon": 19.15324}}, {"facility": "Research Site", "city": "Boksburg North", "country": "South Africa", "geoPoint": {"lat": -26.20535, "lon": 28.25392}}, {"facility": "Research Site", "city": "Breyton", "country": "South Africa"}, {"facility": "Research Site", "city": "Cape Town", "country": "South Africa", "geoPoint": {"lat": -33.92584, "lon": 18.42322}}, {"facility": "Research Site", "city": "Durban", "country": "South Africa", "geoPoint": {"lat": -29.8579, "lon": 31.0292}}, {"facility": "Research Site", "city": "Johannesburg", "country": "South Africa", "geoPoint": {"lat": -26.20227, "lon": 28.04363}}, {"facility": "Research Site", "city": "Lenasia", "country": "South Africa", "geoPoint": {"lat": -26.32052, "lon": 27.83564}}, {"facility": "Research Site", "city": "Lyttleton", "country": "South Africa"}, {"facility": "Research Site", "city": "Pretoria", "country": "South Africa", "geoPoint": {"lat": -25.74486, "lon": 28.18783}}, {"facility": "Research Site", "city": "Umkomaas", "country": "South Africa", "geoPoint": {"lat": -30.20674, "lon": 30.79776}}, {"facility": "Research Site", "city": "Verulam", "country": "South Africa", "geoPoint": {"lat": -29.6434, "lon": 31.04709}}, {"facility": "Research Site", "city": "Bangkok", "country": "Thailand", "geoPoint": {"lat": 13.75398, "lon": 100.50144}}, {"facility": "Research Site", "city": "Hat Yai", "country": "Thailand", "geoPoint": {"lat": 7.00836, "lon": 100.47668}}, {"facility": "Research Site", "city": "Khon Kaen", "country": "Thailand", "geoPoint": {"lat": 16.44671, "lon": 102.833}}, {"facility": "Research Site", "city": "Muang,", "country": "Thailand"}, {"facility": "Research Site", "city": "Naimuang", "country": "Thailand"}, {"facility": "Research Site", "city": "Dnipropetrovsk", "country": "Ukraine", "geoPoint": {"lat": 48.4593, "lon": 35.03864}}, {"facility": "Research Site", "city": "Donetsk", "country": "Ukraine", "geoPoint": {"lat": 48.023, "lon": 37.80224}}, {"facility": "Research Site", "city": "Ivano-Frankivsk", "country": "Ukraine", "geoPoint": {"lat": 48.9215, "lon": 24.70972}}, {"facility": "Research Site", "city": "Kharkiv", "country": "Ukraine", "geoPoint": {"lat": 49.98081, "lon": 36.25272}}, {"facility": "Research Site", "city": "Kiev", "country": "Ukraine", "geoPoint": {"lat": 50.45466, "lon": 30.5238}}, {"facility": "Research Site", "city": "Odesa", "country": "Ukraine", "geoPoint": {"lat": 46.47747, "lon": 30.73262}}, {"facility": "Research Site", "city": "Poltava", "country": "Ukraine", "geoPoint": {"lat": 49.59373, "lon": 34.54073}}, {"facility": "Research Site", "city": "Uzhgorod", "country": "Ukraine", "geoPoint": {"lat": 48.61667, "lon": 22.3}}, {"facility": "Research Site", "city": "Vinnitsa", "country": "Ukraine", "geoPoint": {"lat": 49.84639, "lon": 37.71861}}, {"facility": "Research Site", "city": "Zaporozye", "country": "Ukraine", "geoPoint": {"lat": 50.60727, "lon": 31.78792}}, {"facility": "Research Site", "city": "Bath", "country": "United Kingdom", "geoPoint": {"lat": 51.3751, "lon": -2.36172}}, {"facility": "Research Site", "city": "Belfast", "country": "United Kingdom", "geoPoint": {"lat": 54.59682, "lon": -5.92541}}, {"facility": "Research Site", "city": "Blackpool", "country": "United Kingdom", "geoPoint": {"lat": 53.81667, "lon": -3.05}}, {"facility": "Research Site", "city": "Canterbury", "country": "United Kingdom", "geoPoint": {"lat": 51.27904, "lon": 1.07992}}, {"facility": "Research Site", "city": "Chippenham", "country": "United Kingdom", "geoPoint": {"lat": 51.46, "lon": -2.12472}}, {"facility": "Research Site", "city": "Coventry", "country": "United Kingdom", "geoPoint": {"lat": 52.40656, "lon": -1.51217}}, {"facility": "Research Site", "city": "Crawley", "country": "United Kingdom", "geoPoint": {"lat": 51.11303, "lon": -0.18312}}, {"facility": "Research Site", "city": "Leamington Spa", "country": "United Kingdom", "geoPoint": {"lat": 52.3, "lon": -1.53333}}, {"facility": "Research Site", "city": "Leicester", "country": "United Kingdom", "geoPoint": {"lat": 52.6386, "lon": -1.13169}}, {"facility": "Research Site", "city": "Stockport", "country": "United Kingdom", "geoPoint": {"lat": 53.40979, "lon": -2.15761}}, {"facility": "Research Site", "city": "Trowbridge", "country": "United Kingdom", "geoPoint": {"lat": 51.31889, "lon": -2.20861}}, {"facility": "Research Site", "city": "Watford", "country": "United Kingdom", "geoPoint": {"lat": 51.65531, "lon": -0.39602}}, {"facility": "Research Site", "city": "Westbury", "country": "United Kingdom", "geoPoint": {"lat": 51.26, "lon": -2.1875}}, {"facility": "Research Site", "city": "Hanoi", "country": "Vietnam", "geoPoint": {"lat": 21.0245, "lon": 105.84117}}, {"facility": "Research Site", "city": "Ho Chi Minh", "country": "Vietnam", "geoPoint": {"lat": 10.82302, "lon": 106.62965}}]}, "referencesModule": {"references": [{"pmid": "27579635", "type": "DERIVED", "citation": "Peters SP, Bleecker ER, Canonica GW, Park YB, Ramirez R, Hollis S, Fjallbrant H, Jorup C, Martin UJ. Serious Asthma Events with Budesonide plus Formoterol vs. Budesonide Alone. N Engl J Med. 2016 Sep 1;375(9):850-60. doi: 10.1056/NEJMoa1511190."}], "seeAlsoLinks": [{"label": "D5896C00027_Protocol_redacted.pdf", "url": "http://filehosting.pharmacm.com/DownloadService.ashx?client=CTR_MED_7111&studyid=541&filename=D5896C00027_Protocol_redacted.pdf"}]}}, "resultsSection": {"participantFlowModule": {"preAssignmentDetails": "Eligible adult and adolescent patients were stratified based upon assessment of ACQ and prior asthma therapy and randomized 1:1 to double-blind Symbicort or budesonide. 12460 patients were enrolled (informed consent received) and 11693 were randomized.", "recruitmentDetails": "This study started with an assessment visit where inclusion/exclusion criteria were reviewed and informed consent obtained. Eligible patients were randomized at the next visit. Patients then entered a 26 weeks double-blind treatment period followed by a 1 week follow-up telephone contact. Patients were recruited in 25 countries with 25% in the US.", "groups": [{"id": "FG000", "title": "Symbicort", "description": "Patients were randomized to Symbicort and assigned to one of the following treatments (based upon ACQ at baseline and prior asthma therapy): Symbicort pMDI 80/4.5 \u03bcg x 2 actuations bid (morning and evening) or Symbicort pMDI 160/4.5 \u03bcg x 2 actuations bid (morning and evening)."}, {"id": "FG001", "title": "Budesonide", "description": "Patients were randomized to budesonide and assigned to one of the following treatments (based upon ACQ at baseline and prior asthma therapy): budesonide pMDI 80 \u03bcg x 2 actuations bid (morning and evening) or budesonide pMDI 160 \u03bcg x 2 actuations bid (morning and evening)."}], "periods": [{"title": "Overall Study", "milestones": [{"type": "STARTED", "achievements": [{"groupId": "FG000", "numSubjects": "5846"}, {"groupId": "FG001", "numSubjects": "5847"}]}, {"type": "COMPLETED", "achievements": [{"groupId": "FG000", "numSubjects": "5785"}, {"groupId": "FG001", "numSubjects": "5766"}]}, {"type": "NOT COMPLETED", "achievements": [{"groupId": "FG000", "numSubjects": "61"}, {"groupId": "FG001", "numSubjects": "81"}]}], "dropWithdraws": [{"type": "Withdrawal by Subject", "reasons": [{"groupId": "FG000", "numSubjects": "53"}, {"groupId": "FG001", "numSubjects": "72"}]}, {"type": "Death", "reasons": [{"groupId": "FG000", "numSubjects": "6"}, {"groupId": "FG001", "numSubjects": "8"}]}, {"type": "Lost to Follow-up", "reasons": [{"groupId": "FG000", "numSubjects": "2"}, {"groupId": "FG001", "numSubjects": "0"}]}, {"type": "CRF termination module not completed.", "reasons": [{"groupId": "FG000", "numSubjects": "0"}, {"groupId": "FG001", "numSubjects": "1"}]}]}]}, "baselineCharacteristicsModule": {"groups": [{"id": "BG000", "title": "Symbicort", "description": "Patients were randomized to Symbicort and assigned to one of the following treatments (based upon ACQ at baseline and prior asthma therapy): Symbicort pMDI 80/4.5 \u03bcg x 2 actuations bid (morning and evening) or Symbicort pMDI 160/4.5 \u03bcg x 2 actuations bid (morning and evening)."}, {"id": "BG001", "title": "Budesonide", "description": "Patients were randomized to budesonide and assigned to one of the following treatments (based upon ACQ at baseline and prior asthma therapy): budesonide pMDI 80 \u03bcg x 2 actuations bid (morning and evening) or budesonide pMDI 160 \u03bcg x 2 actuations bid (morning and evening)."}, {"id": "BG002", "title": "Total", "description": "Total of all reporting groups"}], "denoms": [{"units": "Participants", "counts": [{"groupId": "BG000", "value": "5846"}, {"groupId": "BG001", "value": "5847"}, {"groupId": "BG002", "value": "11693"}]}], "measures": [{"title": "Age, Continuous", "paramType": "MEAN", "dispersionType": "STANDARD_DEVIATION", "unitOfMeasure": "Years", "classes": [{"categories": [{"measurements": [{"groupId": "BG000", "value": "43.4", "spread": "17.4"}, {"groupId": "BG001", "value": "43.5", "spread": "17.3"}, {"groupId": "BG002", "value": "43.5", "spread": "17.3"}]}]}]}, {"title": "Gender", "paramType": "COUNT_OF_PARTICIPANTS", "unitOfMeasure": "Participants", "classes": [{"categories": [{"title": "Female", "measurements": [{"groupId": "BG000", "value": "3849"}, {"groupId": "BG001", "value": "3820"}, {"groupId": "BG002", "value": "7669"}]}, {"title": "Male", "measurements": [{"groupId": "BG000", "value": "1997"}, {"groupId": "BG001", "value": "2027"}, {"groupId": "BG002", "value": "4024"}]}]}]}, {"title": "Race/Ethnicity, Customized", "paramType": "NUMBER", "unitOfMeasure": "Participants", "classes": [{"title": "White", "categories": [{"measurements": [{"groupId": "BG000", "value": "4050"}, {"groupId": "BG001", "value": "4003"}, {"groupId": "BG002", "value": "8053"}]}]}, {"title": "Black/African American", "categories": [{"measurements": [{"groupId": "BG000", "value": "396"}, {"groupId": "BG001", "value": "401"}, {"groupId": "BG002", "value": "797"}]}]}, {"title": "Asian", "categories": [{"measurements": [{"groupId": "BG000", "value": "848"}, {"groupId": "BG001", "value": "907"}, {"groupId": "BG002", "value": "1755"}]}]}, {"title": "Native Hawaiian/Pacific Islander", "categories": [{"measurements": [{"groupId": "BG000", "value": "3"}, {"groupId": "BG001", "value": "3"}, {"groupId": "BG002", "value": "6"}]}]}, {"title": "American Indian/Alaska Native", "categories": [{"measurements": [{"groupId": "BG000", "value": "225"}, {"groupId": "BG001", "value": "207"}, {"groupId": "BG002", "value": "432"}]}]}, {"title": "Other", "categories": [{"measurements": [{"groupId": "BG000", "value": "324"}, {"groupId": "BG001", "value": "326"}, {"groupId": "BG002", "value": "650"}]}]}]}]}, "outcomeMeasuresModule": {"outcomeMeasures": [{"type": "PRIMARY", "title": "Number of Participants Experiencing an Event in the Composite Endpoint (Asthma-related Death, Asthma-related Intubation or Asthma-related Hospitalization)", "description": "Number of participants experiencing an event in the composite endpoint (asthma-related death, asthma-related intubation or asthma-related hospitalization), using events adjudicated and confirmed by the Joint Adjudication Committee. Cox proportional hazards model with terms for randomized treatment and strata for incoming control/asthma treatment was used to compare Symbicort and budesonide. Hazard ratios and 95% confidence intervals were estimated.", "populationDescription": "Full analysis set (FAS) population comprised of all patients randomized to study drug.", "reportingStatus": "POSTED", "paramType": "NUMBER", "unitOfMeasure": "Participants", "timeFrame": "Up to 27 weeks", "groups": [{"id": "OG000", "title": "Symbicort", "description": "Patients were randomized to Symbicort and assigned to one of the following treatments (based upon ACQ at baseline and prior asthma therapy): Symbicort pMDI 80/4.5 \u03bcg x 2 actuations bid (morning and evening) or Symbicort pMDI 160/4.5 \u03bcg x 2 actuations bid (morning and evening)."}, {"id": "OG001", "title": "Budesonide", "description": "Patients were randomized to budesonide and assigned to one of the following treatments (based upon ACQ at baseline and prior asthma therapy): budesonide pMDI 80 \u03bcg x 2 actuations bid (morning and evening) or budesonide pMDI 160 \u03bcg x 2 actuations bid (morning and evening)."}], "denoms": [{"units": "Participants", "counts": [{"groupId": "OG000", "value": "5846"}, {"groupId": "OG001", "value": "5847"}]}], "classes": [{"categories": [{"measurements": [{"groupId": "OG000", "value": "43"}, {"groupId": "OG001", "value": "40"}]}]}], "analyses": [{"groupIds": ["OG000", "OG001"], "testedNonInferiority": true, "nonInferiorityType": "NON_INFERIORITY_OR_EQUIVALENCE", "nonInferiorityComment": "The upper limit of the 95% CI of the hazard ratio will be used to assess statistical non-inferiority (non-inferiority margin=2).", "statisticalMethod": "Regression, Cox", "paramType": "Hazard Ratio (HR)", "paramValue": "1.073", "ciPctValue": "95", "ciNumSides": "TWO_SIDED", "ciLowerLimit": "0.698", "ciUpperLimit": "1.650"}]}, {"type": "PRIMARY", "title": "Number of Participants Experiencing an Event Included in the Definition of Asthma Exacerbation", "description": "Number of participants experiencing an event included in the definition of asthma exacerbation. An asthma exacerbation was defined as a deterioration of asthma requiring systemic corticosteroids for at least 3 days or an inpatient hospitalization or emergency room visit due to asthma that required systemic corticosteroids. Cox proportional hazards model with terms for randomized treatment and strata for incoming control/asthma treatment was used to compare Symbicort and budesonide. Hazard ratios and 95% confidence intervals were estimated.", "populationDescription": "The On treatment Analysis set comprised of all randomized patients and included data that corresponded to each patient's period of exposure to study drug plus 7 days after the last date of study drug treatment.", "reportingStatus": "POSTED", "paramType": "NUMBER", "unitOfMeasure": "Participants", "timeFrame": "Up to 26 weeks", "groups": [{"id": "OG000", "title": "Symbicort", "description": "Patients were randomized to Symbicort and assigned to one of the following treatments (based upon ACQ at baseline and prior asthma therapy): Symbicort pMDI 80/4.5 \u03bcg x 2 actuations bid (morning and evening) or Symbicort pMDI 160/4.5 \u03bcg x 2 actuations bid (morning and evening)."}, {"id": "OG001", "title": "Budesonide", "description": "Patients were randomized to budesonide and assigned to one of the following treatments (based upon ACQ at baseline and prior asthma therapy): budesonide pMDI 80 \u03bcg x 2 actuations bid (morning and evening) or budesonide pMDI 160 \u03bcg x 2 actuations bid (morning and evening)."}], "denoms": [{"units": "Participants", "counts": [{"groupId": "OG000", "value": "5846"}, {"groupId": "OG001", "value": "5847"}]}], "classes": [{"categories": [{"measurements": [{"groupId": "OG000", "value": "539"}, {"groupId": "OG001", "value": "633"}]}]}], "analyses": [{"groupIds": ["OG000", "OG001"], "testedNonInferiority": false, "nonInferiorityType": "SUPERIORITY_OR_OTHER", "pValue": "0.002", "statisticalMethod": "Regression, Cox", "paramType": "Hazard Ratio (HR)", "paramValue": "0.835", "ciPctValue": "95", "ciNumSides": "TWO_SIDED", "ciLowerLimit": "0.745", "ciUpperLimit": "0.937"}]}, {"type": "SECONDARY", "title": "Percent of Days With no Asthma Symptoms", "description": "Percent of days with no asthma symptoms during the randomized treatment period. Analysis of variance (ANOVA) model including the fixed factors of treatment and strata by incoming control/asthma treatment was used to compare Symbicort and budesonide.", "populationDescription": "Full analysis set (FAS) population comprised of all patients randomized to study drug and had at least one entry of diary data after randomization.", "reportingStatus": "POSTED", "paramType": "LEAST_SQUARES_MEAN", "dispersionType": "Standard Error", "unitOfMeasure": "Percentage of days", "timeFrame": "Daily up to 26 weeks", "groups": [{"id": "OG000", "title": "Symbicort", "description": "Patients were randomized to Symbicort and assigned to one of the following treatments (based upon ACQ at baseline and prior asthma therapy): Symbicort pMDI 80/4.5 \u03bcg x 2 actuations bid (morning and evening) or Symbicort pMDI 160/4.5 \u03bcg x 2 actuations bid (morning and evening)."}, {"id": "OG001", "title": "Budesonide", "description": "Patients were randomized to budesonide and assigned to one of the following treatments (based upon ACQ at baseline and prior asthma therapy): budesonide pMDI 80 \u03bcg x 2 actuations bid (morning and evening) or budesonide pMDI 160 \u03bcg x 2 actuations bid (morning and evening)."}], "denoms": [{"units": "Participants", "counts": [{"groupId": "OG000", "value": "5784"}, {"groupId": "OG001", "value": "5796"}]}], "classes": [{"categories": [{"measurements": [{"groupId": "OG000", "value": "81.1", "spread": "0.4"}, {"groupId": "OG001", "value": "76.8", "spread": "0.4"}]}]}], "analyses": [{"groupIds": ["OG000", "OG001"], "testedNonInferiority": false, "nonInferiorityType": "SUPERIORITY_OR_OTHER", "pValue": "<0.001", "statisticalMethod": "ANOVA", "paramType": "Mean Difference (Final Values)", "paramValue": "4.4", "ciPctValue": "95", "ciNumSides": "TWO_SIDED", "ciLowerLimit": "3.3", "ciUpperLimit": "5.4", "dispersionType": "STANDARD_ERROR_OF_MEAN", "dispersionValue": "0.5"}]}, {"type": "SECONDARY", "title": "Percent of Days With Activity Limitation Due to Asthma", "description": "Percent of days with activity limitation due to asthma during the randomized treatment period. Analysis of variance (ANOVA) model including the fixed factors of treatment and strata by incoming control/asthma treatment was used to compare Symbicort and budesonide.", "populationDescription": "Full analysis set (FAS) population comprised of all patients randomized to study drug. The analysis set comprises of all patients with at least one day with asthma symptoms, i.e. the denominator is the number of days with asthma symptoms.", "reportingStatus": "POSTED", "paramType": "LEAST_SQUARES_MEAN", "dispersionType": "Standard Error", "unitOfMeasure": "Percentage of days", "timeFrame": "Daily up to 26 weeks", "groups": [{"id": "OG000", "title": "Symbicort", "description": "Patients were randomized to Symbicort and assigned to one of the following treatments (based upon ACQ at baseline and prior asthma therapy): Symbicort pMDI 80/4.5 \u03bcg x 2 actuations bid (morning and evening) or Symbicort pMDI 160/4.5 \u03bcg x 2 actuations bid (morning and evening)."}, {"id": "OG001", "title": "Budesonide", "description": "Patients were randomized to budesonide and assigned to one of the following treatments (based upon ACQ at baseline and prior asthma therapy): budesonide pMDI 80 \u03bcg x 2 actuations bid (morning and evening) or budesonide pMDI 160 \u03bcg x 2 actuations bid (morning and evening)."}], "denoms": [{"units": "Participants", "counts": [{"groupId": "OG000", "value": "4895"}, {"groupId": "OG001", "value": "5045"}]}], "classes": [{"categories": [{"measurements": [{"groupId": "OG000", "value": "19.7", "spread": "0.4"}, {"groupId": "OG001", "value": "19.1", "spread": "0.4"}]}]}], "analyses": [{"groupIds": ["OG000", "OG001"], "testedNonInferiority": false, "nonInferiorityType": "SUPERIORITY_OR_OTHER", "pValue": "0.272", "statisticalMethod": "ANOVA", "paramType": "Mean Difference (Final Values)", "paramValue": "0.6", "ciPctValue": "95", "ciNumSides": "TWO_SIDED", "ciLowerLimit": "-0.5", "ciUpperLimit": "1.7", "dispersionType": "STANDARD_ERROR_OF_MEAN", "dispersionValue": "0.6"}]}, {"type": "SECONDARY", "title": "Mean Number of Puffs of Rescue Medication Per 24 Hours", "description": "Mean number of puffs of rescue medication per day (24 hours) during the randomized treatment period. Analysis of variance (ANOVA) model including the fixed factors of treatment and strata by incoming control/asthma treatment was used to compare Symbicort and budesonide.", "populationDescription": "Full analysis set (FAS) population comprised of all patients randomized to study drug and had at least one entry of diary data after randomization.", "reportingStatus": "POSTED", "paramType": "LEAST_SQUARES_MEAN", "dispersionType": "Standard Error", "unitOfMeasure": "Inhalations/day", "timeFrame": "Daily up to 26 weeks", "groups": [{"id": "OG000", "title": "Symbicort", "description": "Patients were randomized to Symbicort and assigned to one of the following treatments (based upon ACQ at baseline and prior asthma therapy): Symbicort pMDI 80/4.5 \u03bcg x 2 actuations bid (morning and evening) or Symbicort pMDI 160/4.5 \u03bcg x 2 actuations bid (morning and evening)."}, {"id": "OG001", "title": "Budesonide", "description": "Patients were randomized to budesonide and assigned to one of the following treatments (based upon ACQ at baseline and prior asthma therapy): budesonide pMDI 80 \u03bcg x 2 actuations bid (morning and evening) or budesonide pMDI 160 \u03bcg x 2 actuations bid (morning and evening)."}], "denoms": [{"units": "Participants", "counts": [{"groupId": "OG000", "value": "5784"}, {"groupId": "OG001", "value": "5796"}]}], "classes": [{"categories": [{"measurements": [{"groupId": "OG000", "value": "0.8", "spread": "0.0"}, {"groupId": "OG001", "value": "0.9", "spread": "0.0"}]}]}], "analyses": [{"groupIds": ["OG000", "OG001"], "testedNonInferiority": false, "nonInferiorityType": "SUPERIORITY_OR_OTHER", "pValue": "<0.001", "statisticalMethod": "ANOVA", "paramType": "Mean Difference (Final Values)", "paramValue": "-0.1", "ciPctValue": "95", "ciNumSides": "TWO_SIDED", "ciLowerLimit": "-0.2", "ciUpperLimit": "-0.1", "dispersionType": "STANDARD_ERROR_OF_MEAN", "dispersionValue": "0.0"}]}, {"type": "SECONDARY", "title": "Asthma Control Questionnaire (ACQ6)", "description": "The outcome variable for ACQ6 was the difference between the average of values recorded during the treatment period (day 28, day 84 and day 182) and the baseline measure. Analysis of covariance (ANCOVA) model, including the fixed factors of treatment and strata by incoming control/asthma treatment and baseline ACQ6 as covariate was used to compare Symbicort and budesonide.\n\nThe asthma control questionnaire, ACQ6, consists of six questions; all assessed on a 7-point scale from 0 to 6, where 0 represents good control and 6 represents poor control. The overall score is the mean of the responses to each of the six questions.", "populationDescription": "Full analysis set (FAS) population comprised of all patients randomized to study drug with at least one post-baseline ACQ6 score.", "reportingStatus": "POSTED", "paramType": "LEAST_SQUARES_MEAN", "dispersionType": "Standard Error", "unitOfMeasure": "ACQ6 overall score change from baseline", "timeFrame": "baseline, day 28, day 84, day 182", "groups": [{"id": "OG000", "title": "Symbicort", "description": "Patients were randomized to Symbicort and assigned to one of the following treatments (based upon ACQ at baseline and prior asthma therapy): Symbicort pMDI 80/4.5 \u03bcg x 2 actuations bid (morning and evening) or Symbicort pMDI 160/4.5 \u03bcg x 2 actuations bid (morning and evening)."}, {"id": "OG001", "title": "Budesonide", "description": "Patients were randomized to budesonide and assigned to one of the following treatments (based upon ACQ at baseline and prior asthma therapy): budesonide pMDI 80 \u03bcg x 2 actuations bid (morning and evening) or budesonide pMDI 160 \u03bcg x 2 actuations bid (morning and evening)."}], "denoms": [{"units": "Participants", "counts": [{"groupId": "OG000", "value": "5701"}, {"groupId": "OG001", "value": "5698"}]}], "classes": [{"categories": [{"measurements": [{"groupId": "OG000", "value": "-0.70", "spread": "0.01"}, {"groupId": "OG001", "value": "-0.62", "spread": "0.01"}]}]}], "analyses": [{"groupIds": ["OG000", "OG001"], "testedNonInferiority": false, "nonInferiorityType": "SUPERIORITY_OR_OTHER", "pValue": "<0.001", "statisticalMethod": "ANCOVA", "paramType": "Mean Difference (Final Values)", "paramValue": "-0.08", "ciPctValue": "95", "ciNumSides": "TWO_SIDED", "ciLowerLimit": "-0.10", "ciUpperLimit": "-0.06", "dispersionType": "STANDARD_ERROR_OF_MEAN", "dispersionValue": "0.01"}]}, {"type": "SECONDARY", "title": "Percent of Nights With Awakening(s) Due to Asthma", "description": "Percent of nights with awakening(s) due to asthma during the randomized treatment period. Analysis of variance (ANOVA) model including the fixed factors of treatment and strata by incoming control/asthma treatment was used to compare Symbicort and budesonide.", "populationDescription": "Full analysis set (FAS) population comprised of all patients randomized to study drug and had at least one entry of diary data after randomization.", "reportingStatus": "POSTED", "paramType": "LEAST_SQUARES_MEAN", "dispersionType": "Standard Error", "unitOfMeasure": "Percentage of nights", "timeFrame": "Daily up to 26 weeks", "groups": [{"id": "OG000", "title": "Symbicort", "description": "Patients were randomized to Symbicort and assigned to one of the following treatments (based upon ACQ at baseline and prior asthma therapy): Symbicort pMDI 80/4.5 \u03bcg x 2 actuations bid (morning and evening) or Symbicort pMDI 160/4.5 \u03bcg x 2 actuations bid (morning and evening)."}, {"id": "OG001", "title": "Budesonide", "description": "Patients were randomized to budesonide and assigned to one of the following treatments (based upon ACQ at baseline and prior asthma therapy): budesonide pMDI 80 \u03bcg x 2 actuations bid (morning and evening) or budesonide pMDI 160 \u03bcg x 2 actuations bid (morning and evening)."}], "denoms": [{"units": "Participants", "counts": [{"groupId": "OG000", "value": "5784"}, {"groupId": "OG001", "value": "5796"}]}], "classes": [{"categories": [{"measurements": [{"groupId": "OG000", "value": "4.0", "spread": "0.2"}, {"groupId": "OG001", "value": "4.7", "spread": "0.2"}]}]}], "analyses": [{"groupIds": ["OG000", "OG001"], "testedNonInferiority": false, "nonInferiorityType": "SUPERIORITY_OR_OTHER", "pValue": "0.004", "statisticalMethod": "ANOVA", "paramType": "Mean Difference (Final Values)", "paramValue": "-0.6", "ciPctValue": "95", "ciNumSides": "TWO_SIDED", "ciLowerLimit": "-1.0", "ciUpperLimit": "-0.2", "dispersionType": "STANDARD_ERROR_OF_MEAN", "dispersionValue": "0.2"}]}, {"type": "SECONDARY", "title": "Number of Participants Experiencing Discontinuation of Investigational Product Due to a Protocol Defined Asthma Exacerbation", "description": "Number of participants experiencing discontinuation of investigational product due to a protocol defined asthma exacerbation. An asthma exacerbation was defined as a deterioration of asthma requiring systemic corticosteroids for at least 3 days or an inpatient hospitalization or emergency room visit due to asthma that required systemic corticosteroids. Cox proportional hazards model with terms for randomized treatment and strata for incoming control/asthma treatment was used to compare Symbicort and budesonide. Hazard ratios and 95% confidence intervals were estimated.", "populationDescription": "The On treatment Analysis set comprised of all randomized patients and included data that corresponded to each patient's period of exposure to study drug plus 7 days after the last date of study drug treatment.", "reportingStatus": "POSTED", "paramType": "NUMBER", "unitOfMeasure": "Participants", "timeFrame": "Up to 26 weeks", "groups": [{"id": "OG000", "title": "Symbicort", "description": "Patients were randomized to Symbicort and assigned to one of the following treatments (based upon ACQ at baseline and prior asthma therapy): Symbicort pMDI 80/4.5 \u03bcg x 2 actuations bid (morning and evening) or Symbicort pMDI 160/4.5 \u03bcg x 2 actuations bid (morning and evening)."}, {"id": "OG001", "title": "Budesonide", "description": "Patients were randomized to budesonide and assigned to one of the following treatments (based upon ACQ at baseline and prior asthma therapy): budesonide pMDI 80 \u03bcg x 2 actuations bid (morning and evening) or budesonide pMDI 160 \u03bcg x 2 actuations bid (morning and evening)."}], "denoms": [{"units": "Participants", "counts": [{"groupId": "OG000", "value": "5846"}, {"groupId": "OG001", "value": "5847"}]}], "classes": [{"categories": [{"measurements": [{"groupId": "OG000", "value": "53"}, {"groupId": "OG001", "value": "71"}]}]}], "analyses": [{"groupIds": ["OG000", "OG001"], "testedNonInferiority": false, "nonInferiorityType": "SUPERIORITY_OR_OTHER", "pValue": "0.095", "statisticalMethod": "Regression, Cox", "paramType": "Hazard Ratio (HR)", "paramValue": "0.739", "ciPctValue": "95", "ciNumSides": "TWO_SIDED", "ciLowerLimit": "0.518", "ciUpperLimit": "1.055"}]}]}, "adverseEventsModule": {"frequencyThreshold": "2", "timeFrame": "Serious adverse events (SAEs) and discontinuation of treatment with investigational product due to adverse event (DAEs) were recorded from the time of informed consent through the treatment period and including the follow-up period, up to 27 weeks.", "description": "AEs were not collected unless they lead to discontinuation or qualified as an SAE.", "eventGroups": [{"id": "EG000", "title": "Symbicort", "description": "Patients were randomized to Symbicort and assigned to one of the following treatments (based upon ACQ at baseline and prior asthma therapy): Symbicort pMDI 80/4.5 \u03bcg x 2 actuations bid (morning and evening) or Symbicort pMDI 160/4.5 \u03bcg x 2 actuations bid (morning and evening).", "seriousNumAffected": 125, "seriousNumAtRisk": 5846, "otherNumAffected": 0, "otherNumAtRisk": 5846}, {"id": "EG001", "title": "Budesonide", "description": "Patients were randomized to budesonide and assigned to one of the following treatments (based upon ACQ at baseline and prior asthma therapy): budesonide pMDI 80 \u03bcg x 2 actuations bid (morning and evening) or budesonide pMDI 160 \u03bcg x 2 actuations bid (morning and evening).", "seriousNumAffected": 123, "seriousNumAtRisk": 5847, "otherNumAffected": 0, "otherNumAtRisk": 5847}], "seriousEvents": [{"term": "Lymphadenopathy mediastinal", "organSystem": "Blood and lymphatic system disorders", "sourceVocabulary": "MedDRA 18.1", "assessmentType": "SYSTEMATIC_ASSESSMENT", "stats": [{"groupId": "EG000", "numEvents": 1, "numAffected": 1, "numAtRisk": 5846}, {"groupId": "EG001", "numEvents": 0, "numAffected": 0, "numAtRisk": 5847}]}, {"term": "Pancytopenia", "organSystem": "Blood and lymphatic system disorders", "sourceVocabulary": "MedDRA 18.1", "assessmentType": "SYSTEMATIC_ASSESSMENT", "stats": [{"groupId": "EG000", "numEvents": 0, "numAffected": 0, "numAtRisk": 5846}, {"groupId": "EG001", "numEvents": 1, "numAffected": 1, "numAtRisk": 5847}]}, {"term": "Acute myocardial infarction", "organSystem": "Cardiac disorders", "sourceVocabulary": "MedDRA 18.1", "assessmentType": "SYSTEMATIC_ASSESSMENT", "stats": [{"groupId": "EG000", "numEvents": 1, "numAffected": 1, "numAtRisk": 5846}, {"groupId": "EG001", "numEvents": 1, "numAffected": 1, "numAtRisk": 5847}]}, {"term": "Angina pectoris", "organSystem": "Cardiac disorders", "sourceVocabulary": "MedDRA 18.1", "assessmentType": "SYSTEMATIC_ASSESSMENT", "stats": [{"groupId": "EG000", "numEvents": 3, "numAffected": 3, "numAtRisk": 5846}, {"groupId": "EG001", "numEvents": 1, "numAffected": 1, "numAtRisk": 5847}]}, {"term": "Angina unstable", "organSystem": "Cardiac disorders", "sourceVocabulary": "MedDRA 18.1", "assessmentType": "SYSTEMATIC_ASSESSMENT", "stats": [{"groupId": "EG000", "numEvents": 2, "numAffected": 2, "numAtRisk": 5846}, {"groupId": "EG001", "numEvents": 1, "numAffected": 1, "numAtRisk": 5847}]}, {"term": "Arrhythmia", "organSystem": "Cardiac disorders", "sourceVocabulary": "MedDRA 18.1", "assessmentType": "SYSTEMATIC_ASSESSMENT", "stats": [{"groupId": "EG000", "numEvents": 1, "numAffected": 1, "numAtRisk": 5846}, {"groupId": "EG001", "numEvents": 0, "numAffected": 0, "numAtRisk": 5847}]}, {"term": "Atrial fibrillation", "organSystem": "Cardiac disorders", "sourceVocabulary": "MedDRA 18.1", "assessmentType": "SYSTEMATIC_ASSESSMENT", "stats": [{"groupId": "EG000", "numEvents": 0, "numAffected": 0, "numAtRisk": 5846}, {"groupId": "EG001", "numEvents": 3, "numAffected": 3, "numAtRisk": 5847}]}, {"term": "Atrial flutter", "organSystem": "Cardiac disorders", "sourceVocabulary": "MedDRA 18.1", "assessmentType": "SYSTEMATIC_ASSESSMENT", "stats": [{"groupId": "EG000", "numEvents": 1, "numAffected": 1, "numAtRisk": 5846}, {"groupId": "EG001", "numEvents": 0, "numAffected": 0, "numAtRisk": 5847}]}, {"term": "Cardiac failure chronic", "organSystem": "Cardiac disorders", "sourceVocabulary": "MedDRA 18.1", "assessmentType": "SYSTEMATIC_ASSESSMENT", "stats": [{"groupId": "EG000", "numEvents": 0, "numAffected": 0, "numAtRisk": 5846}, {"groupId": "EG001", "numEvents": 1, "numAffected": 1, "numAtRisk": 5847}]}, {"term": "Cardiac failure congestive", "organSystem": "Cardiac disorders", "sourceVocabulary": "MedDRA 18.1", "assessmentType": "SYSTEMATIC_ASSESSMENT", "stats": [{"groupId": "EG000", "numEvents": 2, "numAffected": 2, "numAtRisk": 5846}, {"groupId": "EG001", "numEvents": 0, "numAffected": 0, "numAtRisk": 5847}]}, {"term": "Cardiopulmonary failure", "organSystem": "Cardiac disorders", "sourceVocabulary": "MedDRA 18.1", "assessmentType": "SYSTEMATIC_ASSESSMENT", "stats": [{"groupId": "EG000", "numEvents": 1, "numAffected": 1, "numAtRisk": 5846}, {"groupId": "EG001", "numEvents": 0, "numAffected": 0, "numAtRisk": 5847}]}, {"term": "Coronary artery disease", "organSystem": "Cardiac disorders", "sourceVocabulary": "MedDRA 18.1", "assessmentType": "SYSTEMATIC_ASSESSMENT", "stats": [{"groupId": "EG000", "numEvents": 1, "numAffected": 1, "numAtRisk": 5846}, {"groupId": "EG001", "numEvents": 0, "numAffected": 0, "numAtRisk": 5847}]}, {"term": "Coronary artery insufficiency", "organSystem": "Cardiac disorders", "sourceVocabulary": "MedDRA 18.1", "assessmentType": "SYSTEMATIC_ASSESSMENT", "stats": [{"groupId": "EG000", "numEvents": 0, "numAffected": 0, "numAtRisk": 5846}, {"groupId": "EG001", "numEvents": 1, "numAffected": 1, "numAtRisk": 5847}]}, {"term": "Hypertensive heart disease", "organSystem": "Cardiac disorders", "sourceVocabulary": "MedDRA 18.1", "assessmentType": "SYSTEMATIC_ASSESSMENT", "stats": [{"groupId": "EG000", "numEvents": 1, "numAffected": 1, "numAtRisk": 5846}, {"groupId": "EG001", "numEvents": 0, "numAffected": 0, "numAtRisk": 5847}]}, {"term": "Mitral valve stenosis", "organSystem": "Cardiac disorders", "sourceVocabulary": "MedDRA 18.1", "assessmentType": "SYSTEMATIC_ASSESSMENT", "stats": [{"groupId": "EG000", "numEvents": 0, "numAffected": 0, "numAtRisk": 5846}, {"groupId": "EG001", "numEvents": 1, "numAffected": 1, "numAtRisk": 5847}]}, {"term": "Myocardial infarction", "organSystem": "Cardiac disorders", "sourceVocabulary": "MedDRA 18.1", "assessmentType": "SYSTEMATIC_ASSESSMENT", "stats": [{"groupId": "EG000", "numEvents": 0, "numAffected": 0, "numAtRisk": 5846}, {"groupId": "EG001", "numEvents": 1, "numAffected": 1, "numAtRisk": 5847}]}, {"term": "Myocardial ischaemia", "organSystem": "Cardiac disorders", "sourceVocabulary": "MedDRA 18.1", "assessmentType": "SYSTEMATIC_ASSESSMENT", "stats": [{"groupId": "EG000", "numEvents": 0, "numAffected": 0, "numAtRisk": 5846}, {"groupId": "EG001", "numEvents": 1, "numAffected": 1, "numAtRisk": 5847}]}, {"term": "Myocarditis", "organSystem": "Cardiac disorders", "sourceVocabulary": "MedDRA 18.1", "assessmentType": "SYSTEMATIC_ASSESSMENT", "stats": [{"groupId": "EG000", "numEvents": 0, "numAffected": 0, "numAtRisk": 5846}, {"groupId": "EG001", "numEvents": 1, "numAffected": 1, "numAtRisk": 5847}]}, {"term": "Supraventricular tachycardia", "organSystem": "Cardiac disorders", "sourceVocabulary": "MedDRA 18.1", "assessmentType": "SYSTEMATIC_ASSESSMENT", "stats": [{"groupId": "EG000", "numEvents": 1, "numAffected": 1, "numAtRisk": 5846}, {"groupId": "EG001", "numEvents": 0, "numAffected": 0, "numAtRisk": 5847}]}, {"term": "Tachycardia", "organSystem": "Cardiac disorders", "sourceVocabulary": "MedDRA 18.1", "assessmentType": "SYSTEMATIC_ASSESSMENT", "stats": [{"groupId": "EG000", "numEvents": 0, "numAffected": 0, "numAtRisk": 5846}, {"groupId": "EG001", "numEvents": 2, "numAffected": 2, "numAtRisk": 5847}]}, {"term": "Vertigo", "organSystem": "Ear and labyrinth disorders", "sourceVocabulary": "MedDRA 18.1", "assessmentType": "SYSTEMATIC_ASSESSMENT", "stats": [{"groupId": "EG000", "numEvents": 0, "numAffected": 0, "numAtRisk": 5846}, {"groupId": "EG001", "numEvents": 1, "numAffected": 1, "numAtRisk": 5847}]}, {"term": "Abdominal hernia", "organSystem": "Gastrointestinal disorders", "sourceVocabulary": "MedDRA 18.1", "assessmentType": "SYSTEMATIC_ASSESSMENT", "stats": [{"groupId": "EG000", "numEvents": 1, "numAffected": 1, "numAtRisk": 5846}, {"groupId": "EG001", "numEvents": 0, "numAffected": 0, "numAtRisk": 5847}]}, {"term": "Abdominal pain", "organSystem": "Gastrointestinal disorders", "sourceVocabulary": "MedDRA 18.1", "assessmentType": "SYSTEMATIC_ASSESSMENT", "stats": [{"groupId": "EG000", "numEvents": 2, "numAffected": 2, "numAtRisk": 5846}, {"groupId": "EG001", "numEvents": 2, "numAffected": 2, "numAtRisk": 5847}]}, {"term": "Abdominal pain upper", "organSystem": "Gastrointestinal disorders", "sourceVocabulary": "MedDRA 18.1", "assessmentType": "SYSTEMATIC_ASSESSMENT", "stats": [{"groupId": "EG000", "numEvents": 0, "numAffected": 0, "numAtRisk": 5846}, {"groupId": "EG001", "numEvents": 3, "numAffected": 3, "numAtRisk": 5847}]}, {"term": "Colitis", "organSystem": "Gastrointestinal disorders", "sourceVocabulary": "MedDRA 18.1", "assessmentType": "SYSTEMATIC_ASSESSMENT", "stats": [{"groupId": "EG000", "numEvents": 0, "numAffected": 0, "numAtRisk": 5846}, {"groupId": "EG001", "numEvents": 1, "numAffected": 1, "numAtRisk": 5847}]}, {"term": "Colitis ulcerative", "organSystem": "Gastrointestinal disorders", "sourceVocabulary": "MedDRA 18.1", "assessmentType": "SYSTEMATIC_ASSESSMENT", "stats": [{"groupId": "EG000", "numEvents": 1, "numAffected": 1, "numAtRisk": 5846}, {"groupId": "EG001", "numEvents": 0, "numAffected": 0, "numAtRisk": 5847}]}, {"term": "Diarrhoea", "organSystem": "Gastrointestinal disorders", "sourceVocabulary": "MedDRA 18.1", "assessmentType": "SYSTEMATIC_ASSESSMENT", "stats": [{"groupId": "EG000", "numEvents": 0, "numAffected": 0, "numAtRisk": 5846}, {"groupId": "EG001", "numEvents": 1, "numAffected": 1, "numAtRisk": 5847}]}, {"term": "Dyspepsia", "organSystem": "Gastrointestinal disorders", "sourceVocabulary": "MedDRA 18.1", "assessmentType": "SYSTEMATIC_ASSESSMENT", "stats": [{"groupId": "EG000", "numEvents": 1, "numAffected": 1, "numAtRisk": 5846}, {"groupId": "EG001", "numEvents": 1, "numAffected": 1, "numAtRisk": 5847}]}, {"term": "Erosive oesophagitis", "organSystem": "Gastrointestinal disorders", "sourceVocabulary": "MedDRA 18.1", "assessmentType": "SYSTEMATIC_ASSESSMENT", "stats": [{"groupId": "EG000", "numEvents": 1, "numAffected": 1, "numAtRisk": 5846}, {"groupId": "EG001", "numEvents": 0, "numAffected": 0, "numAtRisk": 5847}]}, {"term": "Food poisoning", "organSystem": "Gastrointestinal disorders", "sourceVocabulary": "MedDRA 18.1", "assessmentType": "SYSTEMATIC_ASSESSMENT", "stats": [{"groupId": "EG000", "numEvents": 1, "numAffected": 1, "numAtRisk": 5846}, {"groupId": "EG001", "numEvents": 0, "numAffected": 0, "numAtRisk": 5847}]}, {"term": "Gastric ulcer perforation", "organSystem": "Gastrointestinal disorders", "sourceVocabulary": "MedDRA 18.1", "assessmentType": "SYSTEMATIC_ASSESSMENT", "stats": [{"groupId": "EG000", "numEvents": 0, "numAffected": 0, "numAtRisk": 5846}, {"groupId": "EG001", "numEvents": 1, "numAffected": 1, "numAtRisk": 5847}]}, {"term": "Gastritis", "organSystem": "Gastrointestinal disorders", "sourceVocabulary": "MedDRA 18.1", "assessmentType": "SYSTEMATIC_ASSESSMENT", "stats": [{"groupId": "EG000", "numEvents": 1, "numAffected": 1, "numAtRisk": 5846}, {"groupId": "EG001", "numEvents": 0, "numAffected": 0, "numAtRisk": 5847}]}, {"term": "Gastrooesophageal reflux disease", "organSystem": "Gastrointestinal disorders", "sourceVocabulary": "MedDRA 18.1", "assessmentType": "SYSTEMATIC_ASSESSMENT", "stats": [{"groupId": "EG000", "numEvents": 2, "numAffected": 2, "numAtRisk": 5846}, {"groupId": "EG001", "numEvents": 2, "numAffected": 2, "numAtRisk": 5847}]}, {"term": "Haematochezia", "organSystem": "Gastrointestinal disorders", "sourceVocabulary": "MedDRA 18.1", "assessmentType": "SYSTEMATIC_ASSESSMENT", "stats": [{"groupId": "EG000", "numEvents": 1, "numAffected": 1, "numAtRisk": 5846}, {"groupId": "EG001", "numEvents": 1, "numAffected": 1, "numAtRisk": 5847}]}, {"term": "Haemorrhoids", "organSystem": "Gastrointestinal disorders", "sourceVocabulary": "MedDRA 18.1", "assessmentType": "SYSTEMATIC_ASSESSMENT", "stats": [{"groupId": "EG000", "numEvents": 1, "numAffected": 1, "numAtRisk": 5846}, {"groupId": "EG001", "numEvents": 0, "numAffected": 0, "numAtRisk": 5847}]}, {"term": "Hiatus hernia", "organSystem": "Gastrointestinal disorders", "sourceVocabulary": "MedDRA 18.1", "assessmentType": "SYSTEMATIC_ASSESSMENT", "stats": [{"groupId": "EG000", "numEvents": 0, "numAffected": 0, "numAtRisk": 5846}, {"groupId": "EG001", "numEvents": 1, "numAffected": 1, "numAtRisk": 5847}]}, {"term": "Inguinal hernia", "organSystem": "Gastrointestinal disorders", "sourceVocabulary": "MedDRA 18.1", "assessmentType": "SYSTEMATIC_ASSESSMENT", "stats": [{"groupId": "EG000", "numEvents": 0, "numAffected": 0, "numAtRisk": 5846}, {"groupId": "EG001", "numEvents": 1, "numAffected": 1, "numAtRisk": 5847}]}, {"term": "Intussusception", "organSystem": "Gastrointestinal disorders", "sourceVocabulary": "MedDRA 18.1", "assessmentType": "SYSTEMATIC_ASSESSMENT", "stats": [{"groupId": "EG000", "numEvents": 0, "numAffected": 0, "numAtRisk": 5846}, {"groupId": "EG001", "numEvents": 1, "numAffected": 1, "numAtRisk": 5847}]}, {"term": "Oesophagitis haemorrhagic", "organSystem": "Gastrointestinal disorders", "sourceVocabulary": "MedDRA 18.1", "assessmentType": "SYSTEMATIC_ASSESSMENT", "stats": [{"groupId": "EG000", "numEvents": 1, "numAffected": 1, "numAtRisk": 5846}, {"groupId": "EG001", "numEvents": 0, "numAffected": 0, "numAtRisk": 5847}]}, {"term": "Pancreatitis acute", "organSystem": "Gastrointestinal disorders", "sourceVocabulary": "MedDRA 18.1", "assessmentType": "SYSTEMATIC_ASSESSMENT", "stats": [{"groupId": "EG000", "numEvents": 1, "numAffected": 1, "numAtRisk": 5846}, {"groupId": "EG001", "numEvents": 1, "numAffected": 1, "numAtRisk": 5847}]}, {"term": "Peritoneal haemorrhage", "organSystem": "Gastrointestinal disorders", "sourceVocabulary": "MedDRA 18.1", "assessmentType": "SYSTEMATIC_ASSESSMENT", "stats": [{"groupId": "EG000", "numEvents": 1, "numAffected": 1, "numAtRisk": 5846}, {"groupId": "EG001", "numEvents": 0, "numAffected": 0, "numAtRisk": 5847}]}, {"term": "Umbilical hernia", "organSystem": "Gastrointestinal disorders", "sourceVocabulary": "MedDRA 18.1", "assessmentType": "SYSTEMATIC_ASSESSMENT", "stats": [{"groupId": "EG000", "numEvents": 1, "numAffected": 1, "numAtRisk": 5846}, {"groupId": "EG001", "numEvents": 0, "numAffected": 0, "numAtRisk": 5847}]}, {"term": "Chest pain", "organSystem": "General disorders", "sourceVocabulary": "MedDRA 18.1", "assessmentType": "SYSTEMATIC_ASSESSMENT", "stats": [{"groupId": "EG000", "numEvents": 1, "numAffected": 1, "numAtRisk": 5846}, {"groupId": "EG001", "numEvents": 0, "numAffected": 0, "numAtRisk": 5847}]}, {"term": "Death", "organSystem": "General disorders", "sourceVocabulary": "MedDRA 18.1", "assessmentType": "SYSTEMATIC_ASSESSMENT", "stats": [{"groupId": "EG000", "numEvents": 0, "numAffected": 0, "numAtRisk": 5846}, {"groupId": "EG001", "numEvents": 1, "numAffected": 1, "numAtRisk": 5847}]}, {"term": "Device dislocation", "organSystem": "General disorders", "sourceVocabulary": "MedDRA 18.1", "assessmentType": "SYSTEMATIC_ASSESSMENT", "stats": [{"groupId": "EG000", "numEvents": 0, "numAffected": 0, "numAtRisk": 5846}, {"groupId": "EG001", "numEvents": 1, "numAffected": 1, "numAtRisk": 5847}]}, {"term": "Influenza like illness", "organSystem": "General disorders", "sourceVocabulary": "MedDRA 18.1", "assessmentType": "SYSTEMATIC_ASSESSMENT", "stats": [{"groupId": "EG000", "numEvents": 0, "numAffected": 0, "numAtRisk": 5846}, {"groupId": "EG001", "numEvents": 1, "numAffected": 1, "numAtRisk": 5847}]}, {"term": "Non-cardiac chest pain", "organSystem": "General disorders", "sourceVocabulary": "MedDRA 18.1", "assessmentType": "SYSTEMATIC_ASSESSMENT", "stats": [{"groupId": "EG000", "numEvents": 1, "numAffected": 1, "numAtRisk": 5846}, {"groupId": "EG001", "numEvents": 2, "numAffected": 2, "numAtRisk": 5847}]}, {"term": "Biliary colic", "organSystem": "Hepatobiliary disorders", "sourceVocabulary": "MedDRA 18.1", "assessmentType": "SYSTEMATIC_ASSESSMENT", "stats": [{"groupId": "EG000", "numEvents": 1, "numAffected": 1, "numAtRisk": 5846}, {"groupId": "EG001", "numEvents": 0, "numAffected": 0, "numAtRisk": 5847}]}, {"term": "Biliary dyskinesia", "organSystem": "Hepatobiliary disorders", "sourceVocabulary": "MedDRA 18.1", "assessmentType": "SYSTEMATIC_ASSESSMENT", "stats": [{"groupId": "EG000", "numEvents": 0, "numAffected": 0, "numAtRisk": 5846}, {"groupId": "EG001", "numEvents": 1, "numAffected": 1, "numAtRisk": 5847}]}, {"term": "Cholecystitis", "organSystem": "Hepatobiliary disorders", "sourceVocabulary": "MedDRA 18.1", "assessmentType": "SYSTEMATIC_ASSESSMENT", "stats": [{"groupId": "EG000", "numEvents": 1, "numAffected": 1, "numAtRisk": 5846}, {"groupId": "EG001", "numEvents": 1, "numAffected": 1, "numAtRisk": 5847}]}, {"term": "Cholelithiasis", "organSystem": "Hepatobiliary disorders", "sourceVocabulary": "MedDRA 18.1", "assessmentType": "SYSTEMATIC_ASSESSMENT", "stats": [{"groupId": "EG000", "numEvents": 2, "numAffected": 2, "numAtRisk": 5846}, {"groupId": "EG001", "numEvents": 1, "numAffected": 1, "numAtRisk": 5847}]}, {"term": "Hepatic cirrhosis", "organSystem": "Hepatobiliary disorders", "sourceVocabulary": "MedDRA 18.1", "assessmentType": "SYSTEMATIC_ASSESSMENT", "stats": [{"groupId": "EG000", "numEvents": 0, "numAffected": 0, "numAtRisk": 5846}, {"groupId": "EG001", "numEvents": 1, "numAffected": 1, "numAtRisk": 5847}]}, {"term": "Hepatic steatosis", "organSystem": "Hepatobiliary disorders", "sourceVocabulary": "MedDRA 18.1", "assessmentType": "SYSTEMATIC_ASSESSMENT", "stats": [{"groupId": "EG000", "numEvents": 0, "numAffected": 0, "numAtRisk": 5846}, {"groupId": "EG001", "numEvents": 1, "numAffected": 1, "numAtRisk": 5847}]}, {"term": "Hepatitis", "organSystem": "Hepatobiliary disorders", "sourceVocabulary": "MedDRA 18.1", "assessmentType": "SYSTEMATIC_ASSESSMENT", "stats": [{"groupId": "EG000", "numEvents": 0, "numAffected": 0, "numAtRisk": 5846}, {"groupId": "EG001", "numEvents": 1, "numAffected": 1, "numAtRisk": 5847}]}, {"term": "Allergic granulomatous angiitis", "organSystem": "Immune system disorders", "sourceVocabulary": "MedDRA 18.1", "assessmentType": "SYSTEMATIC_ASSESSMENT", "stats": [{"groupId": "EG000", "numEvents": 1, "numAffected": 1, "numAtRisk": 5846}, {"groupId": "EG001", "numEvents": 0, "numAffected": 0, "numAtRisk": 5847}]}, {"term": "Anaphylactic reaction", "organSystem": "Immune system disorders", "sourceVocabulary": "MedDRA 18.1", "assessmentType": "SYSTEMATIC_ASSESSMENT", "stats": [{"groupId": "EG000", "numEvents": 0, "numAffected": 0, "numAtRisk": 5846}, {"groupId": "EG001", "numEvents": 1, "numAffected": 1, "numAtRisk": 5847}]}, {"term": "Anaphylactic shock", "organSystem": "Immune system disorders", "sourceVocabulary": "MedDRA 18.1", "assessmentType": "SYSTEMATIC_ASSESSMENT", "stats": [{"groupId": "EG000", "numEvents": 1, "numAffected": 1, "numAtRisk": 5846}, {"groupId": "EG001", "numEvents": 0, "numAffected": 0, "numAtRisk": 5847}]}, {"term": "Hypersensitivity", "organSystem": "Immune system disorders", "sourceVocabulary": "MedDRA 18.1", "assessmentType": "SYSTEMATIC_ASSESSMENT", "stats": [{"groupId": "EG000", "numEvents": 0, "numAffected": 0, "numAtRisk": 5846}, {"groupId": "EG001", "numEvents": 1, "numAffected": 1, "numAtRisk": 5847}]}, {"term": "Abdominal abscess", "organSystem": "Infections and infestations", "sourceVocabulary": "MedDRA 18.1", "assessmentType": "SYSTEMATIC_ASSESSMENT", "stats": [{"groupId": "EG000", "numEvents": 0, "numAffected": 0, "numAtRisk": 5846}, {"groupId": "EG001", "numEvents": 1, "numAffected": 1, "numAtRisk": 5847}]}, {"term": "Acute sinusitis", "organSystem": "Infections and infestations", "sourceVocabulary": "MedDRA 18.1", "assessmentType": "SYSTEMATIC_ASSESSMENT", "stats": [{"groupId": "EG000", "numEvents": 0, "numAffected": 0, "numAtRisk": 5846}, {"groupId": "EG001", "numEvents": 1, "numAffected": 1, "numAtRisk": 5847}]}, {"term": "Appendicitis", "organSystem": "Infections and infestations", "sourceVocabulary": "MedDRA 18.1", "assessmentType": "SYSTEMATIC_ASSESSMENT", "stats": [{"groupId": "EG000", "numEvents": 0, "numAffected": 0, "numAtRisk": 5846}, {"groupId": "EG001", "numEvents": 1, "numAffected": 1, "numAtRisk": 5847}]}, {"term": "Bronchitis", "organSystem": "Infections and infestations", "sourceVocabulary": "MedDRA 18.1", "assessmentType": "SYSTEMATIC_ASSESSMENT", "stats": [{"groupId": "EG000", "numEvents": 1, "numAffected": 1, "numAtRisk": 5846}, {"groupId": "EG001", "numEvents": 1, "numAffected": 1, "numAtRisk": 5847}]}, {"term": "Bronchitis bacterial", "organSystem": "Infections and infestations", "sourceVocabulary": "MedDRA 18.1", "assessmentType": "SYSTEMATIC_ASSESSMENT", "stats": [{"groupId": "EG000", "numEvents": 1, "numAffected": 1, "numAtRisk": 5846}, {"groupId": "EG001", "numEvents": 0, "numAffected": 0, "numAtRisk": 5847}]}, {"term": "Cellulitis", "organSystem": "Infections and infestations", "sourceVocabulary": "MedDRA 18.1", "assessmentType": "SYSTEMATIC_ASSESSMENT", "stats": [{"groupId": "EG000", "numEvents": 1, "numAffected": 1, "numAtRisk": 5846}, {"groupId": "EG001", "numEvents": 1, "numAffected": 1, "numAtRisk": 5847}]}, {"term": "Clostridium difficile infection", "organSystem": "Infections and infestations", "sourceVocabulary": "MedDRA 18.1", "assessmentType": "SYSTEMATIC_ASSESSMENT", "stats": [{"groupId": "EG000", "numEvents": 0, "numAffected": 0, "numAtRisk": 5846}, {"groupId": "EG001", "numEvents": 1, "numAffected": 1, "numAtRisk": 5847}]}, {"term": "Cystitis", "organSystem": "Infections and infestations", "sourceVocabulary": "MedDRA 18.1", "assessmentType": "SYSTEMATIC_ASSESSMENT", "stats": [{"groupId": "EG000", "numEvents": 1, "numAffected": 1, "numAtRisk": 5846}, {"groupId": "EG001", "numEvents": 0, "numAffected": 0, "numAtRisk": 5847}]}, {"term": "Diarrhoea infectious", "organSystem": "Infections and infestations", "sourceVocabulary": "MedDRA 18.1", "assessmentType": "SYSTEMATIC_ASSESSMENT", "stats": [{"groupId": "EG000", "numEvents": 1, "numAffected": 1, "numAtRisk": 5846}, {"groupId": "EG001", "numEvents": 0, "numAffected": 0, "numAtRisk": 5847}]}, {"term": "Dysentery", "organSystem": "Infections and infestations", "sourceVocabulary": "MedDRA 18.1", "assessmentType": "SYSTEMATIC_ASSESSMENT", "stats": [{"groupId": "EG000", "numEvents": 0, "numAffected": 0, "numAtRisk": 5846}, {"groupId": "EG001", "numEvents": 1, "numAffected": 1, "numAtRisk": 5847}]}, {"term": "Gastroenteritis", "organSystem": "Infections and infestations", "sourceVocabulary": "MedDRA 18.1", "assessmentType": "SYSTEMATIC_ASSESSMENT", "stats": [{"groupId": "EG000", "numEvents": 1, "numAffected": 1, "numAtRisk": 5846}, {"groupId": "EG001", "numEvents": 0, "numAffected": 0, "numAtRisk": 5847}]}, {"term": "Gastroenteritis norovirus", "organSystem": "Infections and infestations", "sourceVocabulary": "MedDRA 18.1", "assessmentType": "SYSTEMATIC_ASSESSMENT", "stats": [{"groupId": "EG000", "numEvents": 0, "numAffected": 0, "numAtRisk": 5846}, {"groupId": "EG001", "numEvents": 1, "numAffected": 1, "numAtRisk": 5847}]}, {"term": "Haemophilus infection", "organSystem": "Infections and infestations", "sourceVocabulary": "MedDRA 18.1", "assessmentType": "SYSTEMATIC_ASSESSMENT", "stats": [{"groupId": "EG000", "numEvents": 0, "numAffected": 0, "numAtRisk": 5846}, {"groupId": "EG001", "numEvents": 1, "numAffected": 1, "numAtRisk": 5847}]}, {"term": "Herpes zoster", "organSystem": "Infections and infestations", "sourceVocabulary": "MedDRA 18.1", "assessmentType": "SYSTEMATIC_ASSESSMENT", "stats": [{"groupId": "EG000", "numEvents": 0, "numAffected": 0, "numAtRisk": 5846}, {"groupId": "EG001", "numEvents": 1, "numAffected": 1, "numAtRisk": 5847}]}, {"term": "Influenza", "organSystem": "Infections and infestations", "sourceVocabulary": "MedDRA 18.1", "assessmentType": "SYSTEMATIC_ASSESSMENT", "stats": [{"groupId": "EG000", "numEvents": 0, "numAffected": 0, "numAtRisk": 5846}, {"groupId": "EG001", "numEvents": 2, "numAffected": 2, "numAtRisk": 5847}]}, {"term": "Lower respiratory tract infection bacterial", "organSystem": "Infections and infestations", "sourceVocabulary": "MedDRA 18.1", "assessmentType": "SYSTEMATIC_ASSESSMENT", "stats": [{"groupId": "EG000", "numEvents": 1, "numAffected": 1, "numAtRisk": 5846}, {"groupId": "EG001", "numEvents": 0, "numAffected": 0, "numAtRisk": 5847}]}, {"term": "Malaria", "organSystem": "Infections and infestations", "sourceVocabulary": "MedDRA 18.1", "assessmentType": "SYSTEMATIC_ASSESSMENT", "stats": [{"groupId": "EG000", "numEvents": 1, "numAffected": 1, "numAtRisk": 5846}, {"groupId": "EG001", "numEvents": 0, "numAffected": 0, "numAtRisk": 5847}]}, {"term": "Mycoplasma infection", "organSystem": "Infections and infestations", "sourceVocabulary": "MedDRA 18.1", "assessmentType": "SYSTEMATIC_ASSESSMENT", "stats": [{"groupId": "EG000", "numEvents": 1, "numAffected": 1, "numAtRisk": 5846}, {"groupId": "EG001", "numEvents": 0, "numAffected": 0, "numAtRisk": 5847}]}, {"term": "Nasopharyngitis", "organSystem": "Infections and infestations", "sourceVocabulary": "MedDRA 18.1", "assessmentType": "SYSTEMATIC_ASSESSMENT", "stats": [{"groupId": "EG000", "numEvents": 0, "numAffected": 0, "numAtRisk": 5846}, {"groupId": "EG001", "numEvents": 1, "numAffected": 1, "numAtRisk": 5847}]}, {"term": "Osteomyelitis", "organSystem": "Infections and infestations", "sourceVocabulary": "MedDRA 18.1", "assessmentType": "SYSTEMATIC_ASSESSMENT", "stats": [{"groupId": "EG000", "numEvents": 1, "numAffected": 1, "numAtRisk": 5846}, {"groupId": "EG001", "numEvents": 0, "numAffected": 0, "numAtRisk": 5847}]}, {"term": "Pharyngitis", "organSystem": "Infections and infestations", "sourceVocabulary": "MedDRA 18.1", "assessmentType": "SYSTEMATIC_ASSESSMENT", "stats": [{"groupId": "EG000", "numEvents": 0, "numAffected": 0, "numAtRisk": 5846}, {"groupId": "EG001", "numEvents": 1, "numAffected": 1, "numAtRisk": 5847}]}, {"term": "Pharyngotonsillitis", "organSystem": "Infections and infestations", "sourceVocabulary": "MedDRA 18.1", "assessmentType": "SYSTEMATIC_ASSESSMENT", "stats": [{"groupId": "EG000", "numEvents": 1, "numAffected": 1, "numAtRisk": 5846}, {"groupId": "EG001", "numEvents": 1, "numAffected": 1, "numAtRisk": 5847}]}, {"term": "Pneumonia", "organSystem": "Infections and infestations", "sourceVocabulary": "MedDRA 18.1", "assessmentType": "SYSTEMATIC_ASSESSMENT", "stats": [{"groupId": "EG000", "numEvents": 12, "numAffected": 12, "numAtRisk": 5846}, {"groupId": "EG001", "numEvents": 6, "numAffected": 6, "numAtRisk": 5847}]}, {"term": "Pneumonia bacterial", "organSystem": "Infections and infestations", "sourceVocabulary": "MedDRA 18.1", "assessmentType": "SYSTEMATIC_ASSESSMENT", "stats": [{"groupId": "EG000", "numEvents": 2, "numAffected": 2, "numAtRisk": 5846}, {"groupId": "EG001", "numEvents": 3, "numAffected": 3, "numAtRisk": 5847}]}, {"term": "Postoperative wound infection", "organSystem": "Infections and infestations", "sourceVocabulary": "MedDRA 18.1", "assessmentType": "SYSTEMATIC_ASSESSMENT", "stats": [{"groupId": "EG000", "numEvents": 1, "numAffected": 1, "numAtRisk": 5846}, {"groupId": "EG001", "numEvents": 0, "numAffected": 0, "numAtRisk": 5847}]}, {"term": "Rhinitis", "organSystem": "Infections and infestations", "sourceVocabulary": "MedDRA 18.1", "assessmentType": "SYSTEMATIC_ASSESSMENT", "stats": [{"groupId": "EG000", "numEvents": 1, "numAffected": 1, "numAtRisk": 5846}, {"groupId": "EG001", "numEvents": 0, "numAffected": 0, "numAtRisk": 5847}]}, {"term": "Sepsis", "organSystem": "Infections and infestations", "sourceVocabulary": "MedDRA 18.1", "assessmentType": "SYSTEMATIC_ASSESSMENT", "stats": [{"groupId": "EG000", "numEvents": 0, "numAffected": 0, "numAtRisk": 5846}, {"groupId": "EG001", "numEvents": 1, "numAffected": 1, "numAtRisk": 5847}]}, {"term": "Sinusitis", "organSystem": "Infections and infestations", "sourceVocabulary": "MedDRA 18.1", "assessmentType": "SYSTEMATIC_ASSESSMENT", "stats": [{"groupId": "EG000", "numEvents": 2, "numAffected": 2, "numAtRisk": 5846}, {"groupId": "EG001", "numEvents": 1, "numAffected": 1, "numAtRisk": 5847}]}, {"term": "Tuberculous pleurisy", "organSystem": "Infections and infestations", "sourceVocabulary": "MedDRA 18.1", "assessmentType": "SYSTEMATIC_ASSESSMENT", "stats": [{"groupId": "EG000", "numEvents": 1, "numAffected": 1, "numAtRisk": 5846}, {"groupId": "EG001", "numEvents": 0, "numAffected": 0, "numAtRisk": 5847}]}, {"term": "Upper respiratory tract infection bacterial", "organSystem": "Infections and infestations", "sourceVocabulary": "MedDRA 18.1", "assessmentType": "SYSTEMATIC_ASSESSMENT", "stats": [{"groupId": "EG000", "numEvents": 0, "numAffected": 0, "numAtRisk": 5846}, {"groupId": "EG001", "numEvents": 2, "numAffected": 2, "numAtRisk": 5847}]}, {"term": "Ankle fracture", "organSystem": "Injury, poisoning and procedural complications", "sourceVocabulary": "MedDRA 18.1", "assessmentType": "SYSTEMATIC_ASSESSMENT", "stats": [{"groupId": "EG000", "numEvents": 1, "numAffected": 1, "numAtRisk": 5846}, {"groupId": "EG001", "numEvents": 0, "numAffected": 0, "numAtRisk": 5847}]}, {"term": "Burns first degree", "organSystem": "Injury, poisoning and procedural complications", "sourceVocabulary": "MedDRA 18.1", "assessmentType": "SYSTEMATIC_ASSESSMENT", "stats": [{"groupId": "EG000", "numEvents": 1, "numAffected": 1, "numAtRisk": 5846}, {"groupId": "EG001", "numEvents": 0, "numAffected": 0, "numAtRisk": 5847}]}, {"term": "Burns second degree", "organSystem": "Injury, poisoning and procedural complications", "sourceVocabulary": "MedDRA 18.1", "assessmentType": "SYSTEMATIC_ASSESSMENT", "stats": [{"groupId": "EG000", "numEvents": 1, "numAffected": 1, "numAtRisk": 5846}, {"groupId": "EG001", "numEvents": 0, "numAffected": 0, "numAtRisk": 5847}]}, {"term": "Cervical vertebral fracture", "organSystem": "Injury, poisoning and procedural complications", "sourceVocabulary": "MedDRA 18.1", "assessmentType": "SYSTEMATIC_ASSESSMENT", "stats": [{"groupId": "EG000", "numEvents": 1, "numAffected": 1, "numAtRisk": 5846}, {"groupId": "EG001", "numEvents": 0, "numAffected": 0, "numAtRisk": 5847}]}, {"term": "Contusion", "organSystem": "Injury, poisoning and procedural complications", "sourceVocabulary": "MedDRA 18.1", "assessmentType": "SYSTEMATIC_ASSESSMENT", "stats": [{"groupId": "EG000", "numEvents": 1, "numAffected": 1, "numAtRisk": 5846}, {"groupId": "EG001", "numEvents": 1, "numAffected": 1, "numAtRisk": 5847}]}, {"term": "Electric shock", "organSystem": "Injury, poisoning and procedural complications", "sourceVocabulary": "MedDRA 18.1", "assessmentType": "SYSTEMATIC_ASSESSMENT", "stats": [{"groupId": "EG000", "numEvents": 1, "numAffected": 1, "numAtRisk": 5846}, {"groupId": "EG001", "numEvents": 0, "numAffected": 0, "numAtRisk": 5847}]}, {"term": "Femur fracture", "organSystem": "Injury, poisoning and procedural complications", "sourceVocabulary": "MedDRA 18.1", "assessmentType": "SYSTEMATIC_ASSESSMENT", "stats": [{"groupId": "EG000", "numEvents": 0, "numAffected": 0, "numAtRisk": 5846}, {"groupId": "EG001", "numEvents": 1, "numAffected": 1, "numAtRisk": 5847}]}, {"term": "Foot fracture", "organSystem": "Injury, poisoning and procedural complications", "sourceVocabulary": "MedDRA 18.1", "assessmentType": "SYSTEMATIC_ASSESSMENT", "stats": [{"groupId": "EG000", "numEvents": 0, "numAffected": 0, "numAtRisk": 5846}, {"groupId": "EG001", "numEvents": 1, "numAffected": 1, "numAtRisk": 5847}]}, {"term": "Incisional hernia", "organSystem": "Injury, poisoning and procedural complications", "sourceVocabulary": "MedDRA 18.1", "assessmentType": "SYSTEMATIC_ASSESSMENT", "stats": [{"groupId": "EG000", "numEvents": 0, "numAffected": 0, "numAtRisk": 5846}, {"groupId": "EG001", "numEvents": 1, "numAffected": 1, "numAtRisk": 5847}]}, {"term": "Muscle strain", "organSystem": "Injury, poisoning and procedural complications", "sourceVocabulary": "MedDRA 18.1", "assessmentType": "SYSTEMATIC_ASSESSMENT", "stats": [{"groupId": "EG000", "numEvents": 1, "numAffected": 1, "numAtRisk": 5846}, {"groupId": "EG001", "numEvents": 0, "numAffected": 0, "numAtRisk": 5847}]}, {"term": "Rib fracture", "organSystem": "Injury, poisoning and procedural complications", "sourceVocabulary": "MedDRA 18.1", "assessmentType": "SYSTEMATIC_ASSESSMENT", "stats": [{"groupId": "EG000", "numEvents": 1, "numAffected": 1, "numAtRisk": 5846}, {"groupId": "EG001", "numEvents": 0, "numAffected": 0, "numAtRisk": 5847}]}, {"term": "Road traffic accident", "organSystem": "Injury, poisoning and procedural complications", "sourceVocabulary": "MedDRA 18.1", "assessmentType": "SYSTEMATIC_ASSESSMENT", "stats": [{"groupId": "EG000", "numEvents": 1, "numAffected": 1, "numAtRisk": 5846}, {"groupId": "EG001", "numEvents": 1, "numAffected": 1, "numAtRisk": 5847}]}, {"term": "Tibia fracture", "organSystem": "Injury, poisoning and procedural complications", "sourceVocabulary": "MedDRA 18.1", "assessmentType": "SYSTEMATIC_ASSESSMENT", "stats": [{"groupId": "EG000", "numEvents": 0, "numAffected": 0, "numAtRisk": 5846}, {"groupId": "EG001", "numEvents": 1, "numAffected": 1, "numAtRisk": 5847}]}, {"term": "Ulna fracture", "organSystem": "Injury, poisoning and procedural complications", "sourceVocabulary": "MedDRA 18.1", "assessmentType": "SYSTEMATIC_ASSESSMENT", "stats": [{"groupId": "EG000", "numEvents": 0, "numAffected": 0, "numAtRisk": 5846}, {"groupId": "EG001", "numEvents": 1, "numAffected": 1, "numAtRisk": 5847}]}, {"term": "Upper limb fracture", "organSystem": "Injury, poisoning and procedural complications", "sourceVocabulary": "MedDRA 18.1", "assessmentType": "SYSTEMATIC_ASSESSMENT", "stats": [{"groupId": "EG000", "numEvents": 0, "numAffected": 0, "numAtRisk": 5846}, {"groupId": "EG001", "numEvents": 1, "numAffected": 1, "numAtRisk": 5847}]}, {"term": "Wound", "organSystem": "Injury, poisoning and procedural complications", "sourceVocabulary": "MedDRA 18.1", "assessmentType": "SYSTEMATIC_ASSESSMENT", "stats": [{"groupId": "EG000", "numEvents": 0, "numAffected": 0, "numAtRisk": 5846}, {"groupId": "EG001", "numEvents": 1, "numAffected": 1, "numAtRisk": 5847}]}, {"term": "Blood pressure increased", "organSystem": "Investigations", "sourceVocabulary": "MedDRA 18.1", "assessmentType": "SYSTEMATIC_ASSESSMENT", "stats": [{"groupId": "EG000", "numEvents": 0, "numAffected": 0, "numAtRisk": 5846}, {"groupId": "EG001", "numEvents": 1, "numAffected": 1, "numAtRisk": 5847}]}, {"term": "Heart rate irregular", "organSystem": "Investigations", "sourceVocabulary": "MedDRA 18.1", "assessmentType": "SYSTEMATIC_ASSESSMENT", "stats": [{"groupId": "EG000", "numEvents": 0, "numAffected": 0, "numAtRisk": 5846}, {"groupId": "EG001", "numEvents": 1, "numAffected": 1, "numAtRisk": 5847}]}, {"term": "Dehydration", "organSystem": "Metabolism and nutrition disorders", "sourceVocabulary": "MedDRA 18.1", "assessmentType": "SYSTEMATIC_ASSESSMENT", "stats": [{"groupId": "EG000", "numEvents": 2, "numAffected": 2, "numAtRisk": 5846}, {"groupId": "EG001", "numEvents": 0, "numAffected": 0, "numAtRisk": 5847}]}, {"term": "Diabetic ketoacidosis", "organSystem": "Metabolism and nutrition disorders", "sourceVocabulary": "MedDRA 18.1", "assessmentType": "SYSTEMATIC_ASSESSMENT", "stats": [{"groupId": "EG000", "numEvents": 1, "numAffected": 1, "numAtRisk": 5846}, {"groupId": "EG001", "numEvents": 0, "numAffected": 0, "numAtRisk": 5847}]}, {"term": "Hyperglycaemia", "organSystem": "Metabolism and nutrition disorders", "sourceVocabulary": "MedDRA 18.1", "assessmentType": "SYSTEMATIC_ASSESSMENT", "stats": [{"groupId": "EG000", "numEvents": 0, "numAffected": 0, "numAtRisk": 5846}, {"groupId": "EG001", "numEvents": 1, "numAffected": 1, "numAtRisk": 5847}]}, {"term": "Hyperosmolar hyperglycaemic state", "organSystem": "Metabolism and nutrition disorders", "sourceVocabulary": "MedDRA 18.1", "assessmentType": "SYSTEMATIC_ASSESSMENT", "stats": [{"groupId": "EG000", "numEvents": 0, "numAffected": 0, "numAtRisk": 5846}, {"groupId": "EG001", "numEvents": 1, "numAffected": 1, "numAtRisk": 5847}]}, {"term": "Hypokalaemia", "organSystem": "Metabolism and nutrition disorders", "sourceVocabulary": "MedDRA 18.1", "assessmentType": "SYSTEMATIC_ASSESSMENT", "stats": [{"groupId": "EG000", "numEvents": 0, "numAffected": 0, "numAtRisk": 5846}, {"groupId": "EG001", "numEvents": 1, "numAffected": 1, "numAtRisk": 5847}]}, {"term": "Obesity", "organSystem": "Metabolism and nutrition disorders", "sourceVocabulary": "MedDRA 18.1", "assessmentType": "SYSTEMATIC_ASSESSMENT", "stats": [{"groupId": "EG000", "numEvents": 2, "numAffected": 2, "numAtRisk": 5846}, {"groupId": "EG001", "numEvents": 1, "numAffected": 1, "numAtRisk": 5847}]}, {"term": "Arthralgia", "organSystem": "Musculoskeletal and connective tissue disorders", "sourceVocabulary": "MedDRA 18.1", "assessmentType": "SYSTEMATIC_ASSESSMENT", "stats": [{"groupId": "EG000", "numEvents": 0, "numAffected": 0, "numAtRisk": 5846}, {"groupId": "EG001", "numEvents": 1, "numAffected": 1, "numAtRisk": 5847}]}, {"term": "Back pain", "organSystem": "Musculoskeletal and connective tissue disorders", "sourceVocabulary": "MedDRA 18.1", "assessmentType": "SYSTEMATIC_ASSESSMENT", "stats": [{"groupId": "EG000", "numEvents": 1, "numAffected": 1, "numAtRisk": 5846}, {"groupId": "EG001", "numEvents": 0, "numAffected": 0, "numAtRisk": 5847}]}, {"term": "Cervical spinal stenosis", "organSystem": "Musculoskeletal and connective tissue disorders", "sourceVocabulary": "MedDRA 18.1", "assessmentType": "SYSTEMATIC_ASSESSMENT", "stats": [{"groupId": "EG000", "numEvents": 2, "numAffected": 1, "numAtRisk": 5846}, {"groupId": "EG001", "numEvents": 0, "numAffected": 0, "numAtRisk": 5847}]}, {"term": "Intervertebral disc degeneration", "organSystem": "Musculoskeletal and connective tissue disorders", "sourceVocabulary": "MedDRA 18.1", "assessmentType": "SYSTEMATIC_ASSESSMENT", "stats": [{"groupId": "EG000", "numEvents": 0, "numAffected": 0, "numAtRisk": 5846}, {"groupId": "EG001", "numEvents": 1, "numAffected": 1, "numAtRisk": 5847}]}, {"term": "Lumbar spinal stenosis", "organSystem": "Musculoskeletal and connective tissue disorders", "sourceVocabulary": "MedDRA 18.1", "assessmentType": "SYSTEMATIC_ASSESSMENT", "stats": [{"groupId": "EG000", "numEvents": 0, "numAffected": 0, "numAtRisk": 5846}, {"groupId": "EG001", "numEvents": 1, "numAffected": 1, "numAtRisk": 5847}]}, {"term": "Musculoskeletal chest pain", "organSystem": "Musculoskeletal and connective tissue disorders", "sourceVocabulary": "MedDRA 18.1", "assessmentType": "SYSTEMATIC_ASSESSMENT", "stats": [{"groupId": "EG000", "numEvents": 0, "numAffected": 0, "numAtRisk": 5846}, {"groupId": "EG001", "numEvents": 3, "numAffected": 3, "numAtRisk": 5847}]}, {"term": "Osteoarthritis", "organSystem": "Musculoskeletal and connective tissue disorders", "sourceVocabulary": "MedDRA 18.1", "assessmentType": "SYSTEMATIC_ASSESSMENT", "stats": [{"groupId": "EG000", "numEvents": 1, "numAffected": 1, "numAtRisk": 5846}, {"groupId": "EG001", "numEvents": 1, "numAffected": 1, "numAtRisk": 5847}]}, {"term": "Rotator cuff syndrome", "organSystem": "Musculoskeletal and connective tissue disorders", "sourceVocabulary": "MedDRA 18.1", "assessmentType": "SYSTEMATIC_ASSESSMENT", "stats": [{"groupId": "EG000", "numEvents": 0, "numAffected": 0, "numAtRisk": 5846}, {"groupId": "EG001", "numEvents": 1, "numAffected": 1, "numAtRisk": 5847}]}, {"term": "Spinal osteoarthritis", "organSystem": "Musculoskeletal and connective tissue disorders", "sourceVocabulary": "MedDRA 18.1", "assessmentType": "SYSTEMATIC_ASSESSMENT", "stats": [{"groupId": "EG000", "numEvents": 0, "numAffected": 0, "numAtRisk": 5846}, {"groupId": "EG001", "numEvents": 2, "numAffected": 2, "numAtRisk": 5847}]}, {"term": "Astrocytoma malignant", "organSystem": "Neoplasms benign, malignant and unspecified (incl cysts and polyps)", "sourceVocabulary": "MedDRA 18.1", "assessmentType": "SYSTEMATIC_ASSESSMENT", "stats": [{"groupId": "EG000", "numEvents": 1, "numAffected": 1, "numAtRisk": 5846}, {"groupId": "EG001", "numEvents": 0, "numAffected": 0, "numAtRisk": 5847}]}, {"term": "Breast cancer female", "organSystem": "Neoplasms benign, malignant and unspecified (incl cysts and polyps)", "sourceVocabulary": "MedDRA 18.1", "assessmentType": "SYSTEMATIC_ASSESSMENT", "stats": [{"groupId": "EG000", "numEvents": 0, "numAffected": 0, "numAtRisk": 5846}, {"groupId": "EG001", "numEvents": 1, "numAffected": 1, "numAtRisk": 5847}]}, {"term": "Colon cancer", "organSystem": "Neoplasms benign, malignant and unspecified (incl cysts and polyps)", "sourceVocabulary": "MedDRA 18.1", "assessmentType": "SYSTEMATIC_ASSESSMENT", "stats": [{"groupId": "EG000", "numEvents": 0, "numAffected": 0, "numAtRisk": 5846}, {"groupId": "EG001", "numEvents": 1, "numAffected": 1, "numAtRisk": 5847}]}, {"term": "Colorectal adenocarcinoma", "organSystem": "Neoplasms benign, malignant and unspecified (incl cysts and polyps)", "sourceVocabulary": "MedDRA 18.1", "assessmentType": "SYSTEMATIC_ASSESSMENT", "stats": [{"groupId": "EG000", "numEvents": 1, "numAffected": 1, "numAtRisk": 5846}, {"groupId": "EG001", "numEvents": 0, "numAffected": 0, "numAtRisk": 5847}]}, {"term": "Gastric cancer", "organSystem": "Neoplasms benign, malignant and unspecified (incl cysts and polyps)", "sourceVocabulary": "MedDRA 18.1", "assessmentType": "SYSTEMATIC_ASSESSMENT", "stats": [{"groupId": "EG000", "numEvents": 1, "numAffected": 1, "numAtRisk": 5846}, {"groupId": "EG001", "numEvents": 0, "numAffected": 0, "numAtRisk": 5847}]}, {"term": "Invasive ductal breast carcinoma", "organSystem": "Neoplasms benign, malignant and unspecified (incl cysts and polyps)", "sourceVocabulary": "MedDRA 18.1", "assessmentType": "SYSTEMATIC_ASSESSMENT", "stats": [{"groupId": "EG000", "numEvents": 1, "numAffected": 1, "numAtRisk": 5846}, {"groupId": "EG001", "numEvents": 0, "numAffected": 0, "numAtRisk": 5847}]}, {"term": "Ovarian germ cell teratoma benign", "organSystem": "Neoplasms benign, malignant and unspecified (incl cysts and polyps)", "sourceVocabulary": "MedDRA 18.1", "assessmentType": "SYSTEMATIC_ASSESSMENT", "stats": [{"groupId": "EG000", "numEvents": 0, "numAffected": 0, "numAtRisk": 5846}, {"groupId": "EG001", "numEvents": 1, "numAffected": 1, "numAtRisk": 5847}]}, {"term": "Squamous cell carcinoma", "organSystem": "Neoplasms benign, malignant and unspecified (incl cysts and polyps)", "sourceVocabulary": "MedDRA 18.1", "assessmentType": "SYSTEMATIC_ASSESSMENT", "stats": [{"groupId": "EG000", "numEvents": 0, "numAffected": 0, "numAtRisk": 5846}, {"groupId": "EG001", "numEvents": 1, "numAffected": 1, "numAtRisk": 5847}]}, {"term": "Uterine leiomyoma", "organSystem": "Neoplasms benign, malignant and unspecified (incl cysts and polyps)", "sourceVocabulary": "MedDRA 18.1", "assessmentType": "SYSTEMATIC_ASSESSMENT", "stats": [{"groupId": "EG000", "numEvents": 2, "numAffected": 2, "numAtRisk": 5846}, {"groupId": "EG001", "numEvents": 0, "numAffected": 0, "numAtRisk": 5847}]}, {"term": "Cerebral haematoma", "organSystem": "Nervous system disorders", "sourceVocabulary": "MedDRA 18.1", "assessmentType": "SYSTEMATIC_ASSESSMENT", "stats": [{"groupId": "EG000", "numEvents": 0, "numAffected": 0, "numAtRisk": 5846}, {"groupId": "EG001", "numEvents": 1, "numAffected": 1, "numAtRisk": 5847}]}, {"term": "Cerebral infarction", "organSystem": "Nervous system disorders", "sourceVocabulary": "MedDRA 18.1", "assessmentType": "SYSTEMATIC_ASSESSMENT", "stats": [{"groupId": "EG000", "numEvents": 0, "numAffected": 0, "numAtRisk": 5846}, {"groupId": "EG001", "numEvents": 1, "numAffected": 1, "numAtRisk": 5847}]}, {"term": "Cerebrospinal fluid leakage", "organSystem": "Nervous system disorders", "sourceVocabulary": "MedDRA 18.1", "assessmentType": "SYSTEMATIC_ASSESSMENT", "stats": [{"groupId": "EG000", "numEvents": 1, "numAffected": 1, "numAtRisk": 5846}, {"groupId": "EG001", "numEvents": 0, "numAffected": 0, "numAtRisk": 5847}]}, {"term": "Cerebrovascular accident", "organSystem": "Nervous system disorders", "sourceVocabulary": "MedDRA 18.1", "assessmentType": "SYSTEMATIC_ASSESSMENT", "stats": [{"groupId": "EG000", "numEvents": 0, "numAffected": 0, "numAtRisk": 5846}, {"groupId": "EG001", "numEvents": 4, "numAffected": 3, "numAtRisk": 5847}]}, {"term": "Cerebrovascular disorder", "organSystem": "Nervous system disorders", "sourceVocabulary": "MedDRA 18.1", "assessmentType": "SYSTEMATIC_ASSESSMENT", "stats": [{"groupId": "EG000", "numEvents": 1, "numAffected": 1, "numAtRisk": 5846}, {"groupId": "EG001", "numEvents": 0, "numAffected": 0, "numAtRisk": 5847}]}, {"term": "Hypoaesthesia", "organSystem": "Nervous system disorders", "sourceVocabulary": "MedDRA 18.1", "assessmentType": "SYSTEMATIC_ASSESSMENT", "stats": [{"groupId": "EG000", "numEvents": 1, "numAffected": 1, "numAtRisk": 5846}, {"groupId": "EG001", "numEvents": 0, "numAffected": 0, "numAtRisk": 5847}]}, {"term": "Monoparesis", "organSystem": "Nervous system disorders", "sourceVocabulary": "MedDRA 18.1", "assessmentType": "SYSTEMATIC_ASSESSMENT", "stats": [{"groupId": "EG000", "numEvents": 0, "numAffected": 0, "numAtRisk": 5846}, {"groupId": "EG001", "numEvents": 1, "numAffected": 1, "numAtRisk": 5847}]}, {"term": "Seizure", "organSystem": "Nervous system disorders", "sourceVocabulary": "MedDRA 18.1", "assessmentType": "SYSTEMATIC_ASSESSMENT", "stats": [{"groupId": "EG000", "numEvents": 0, "numAffected": 0, "numAtRisk": 5846}, {"groupId": "EG001", "numEvents": 1, "numAffected": 1, "numAtRisk": 5847}]}, {"term": "Syncope", "organSystem": "Nervous system disorders", "sourceVocabulary": "MedDRA 18.1", "assessmentType": "SYSTEMATIC_ASSESSMENT", "stats": [{"groupId": "EG000", "numEvents": 3, "numAffected": 3, "numAtRisk": 5846}, {"groupId": "EG001", "numEvents": 1, "numAffected": 1, "numAtRisk": 5847}]}, {"term": "Hyperemesis gravidarum", "organSystem": "Pregnancy, puerperium and perinatal conditions", "sourceVocabulary": "MedDRA 18.1", "assessmentType": "SYSTEMATIC_ASSESSMENT", "stats": [{"groupId": "EG000", "numEvents": 1, "numAffected": 1, "numAtRisk": 5846}, {"groupId": "EG001", "numEvents": 0, "numAffected": 0, "numAtRisk": 5847}]}, {"term": "Aggression", "organSystem": "Psychiatric disorders", "sourceVocabulary": "MedDRA 18.1", "assessmentType": "SYSTEMATIC_ASSESSMENT", "stats": [{"groupId": "EG000", "numEvents": 0, "numAffected": 0, "numAtRisk": 5846}, {"groupId": "EG001", "numEvents": 1, "numAffected": 1, "numAtRisk": 5847}]}, {"term": "Bipolar I disorder", "organSystem": "Psychiatric disorders", "sourceVocabulary": "MedDRA 18.1", "assessmentType": "SYSTEMATIC_ASSESSMENT", "stats": [{"groupId": "EG000", "numEvents": 1, "numAffected": 1, "numAtRisk": 5846}, {"groupId": "EG001", "numEvents": 0, "numAffected": 0, "numAtRisk": 5847}]}, {"term": "Completed suicide", "organSystem": "Psychiatric disorders", "sourceVocabulary": "MedDRA 18.1", "assessmentType": "SYSTEMATIC_ASSESSMENT", "stats": [{"groupId": "EG000", "numEvents": 1, "numAffected": 1, "numAtRisk": 5846}, {"groupId": "EG001", "numEvents": 0, "numAffected": 0, "numAtRisk": 5847}]}, {"term": "Depression", "organSystem": "Psychiatric disorders", "sourceVocabulary": "MedDRA 18.1", "assessmentType": "SYSTEMATIC_ASSESSMENT", "stats": [{"groupId": "EG000", "numEvents": 1, "numAffected": 1, "numAtRisk": 5846}, {"groupId": "EG001", "numEvents": 0, "numAffected": 0, "numAtRisk": 5847}]}, {"term": "Stress", "organSystem": "Psychiatric disorders", "sourceVocabulary": "MedDRA 18.1", "assessmentType": "SYSTEMATIC_ASSESSMENT", "stats": [{"groupId": "EG000", "numEvents": 1, "numAffected": 1, "numAtRisk": 5846}, {"groupId": "EG001", "numEvents": 0, "numAffected": 0, "numAtRisk": 5847}]}, {"term": "Suicide attempt", "organSystem": "Psychiatric disorders", "sourceVocabulary": "MedDRA 18.1", "assessmentType": "SYSTEMATIC_ASSESSMENT", "stats": [{"groupId": "EG000", "numEvents": 1, "numAffected": 1, "numAtRisk": 5846}, {"groupId": "EG001", "numEvents": 0, "numAffected": 0, "numAtRisk": 5847}]}, {"term": "Acute kidney injury", "organSystem": "Renal and urinary disorders", "sourceVocabulary": "MedDRA 18.1", "assessmentType": "SYSTEMATIC_ASSESSMENT", "stats": [{"groupId": "EG000", "numEvents": 1, "numAffected": 1, "numAtRisk": 5846}, {"groupId": "EG001", "numEvents": 0, "numAffected": 0, "numAtRisk": 5847}]}, {"term": "Hydronephrosis", "organSystem": "Renal and urinary disorders", "sourceVocabulary": "MedDRA 18.1", "assessmentType": "SYSTEMATIC_ASSESSMENT", "stats": [{"groupId": "EG000", "numEvents": 1, "numAffected": 1, "numAtRisk": 5846}, {"groupId": "EG001", "numEvents": 0, "numAffected": 0, "numAtRisk": 5847}]}, {"term": "Nephritis", "organSystem": "Renal and urinary disorders", "sourceVocabulary": "MedDRA 18.1", "assessmentType": "SYSTEMATIC_ASSESSMENT", "stats": [{"groupId": "EG000", "numEvents": 1, "numAffected": 1, "numAtRisk": 5846}, {"groupId": "EG001", "numEvents": 0, "numAffected": 0, "numAtRisk": 5847}]}, {"term": "Nephrolithiasis", "organSystem": "Renal and urinary disorders", "sourceVocabulary": "MedDRA 18.1", "assessmentType": "SYSTEMATIC_ASSESSMENT", "stats": [{"groupId": "EG000", "numEvents": 0, "numAffected": 0, "numAtRisk": 5846}, {"groupId": "EG001", "numEvents": 1, "numAffected": 1, "numAtRisk": 5847}]}, {"term": "Pelvi-ureteric obstruction", "organSystem": "Renal and urinary disorders", "sourceVocabulary": "MedDRA 18.1", "assessmentType": "SYSTEMATIC_ASSESSMENT", "stats": [{"groupId": "EG000", "numEvents": 1, "numAffected": 1, "numAtRisk": 5846}, {"groupId": "EG001", "numEvents": 0, "numAffected": 0, "numAtRisk": 5847}]}, {"term": "Urinary tract infection", "organSystem": "Renal and urinary disorders", "sourceVocabulary": "MedDRA 18.1", "assessmentType": "SYSTEMATIC_ASSESSMENT", "stats": [{"groupId": "EG000", "numEvents": 0, "numAffected": 0, "numAtRisk": 5846}, {"groupId": "EG001", "numEvents": 1, "numAffected": 1, "numAtRisk": 5847}]}, {"term": "Haemorrhagic ovarian cyst", "organSystem": "Reproductive system and breast disorders", "sourceVocabulary": "MedDRA 18.1", "assessmentType": "SYSTEMATIC_ASSESSMENT", "stats": [{"groupId": "EG000", "numEvents": 1, "numAffected": 1, "numAtRisk": 5846}, {"groupId": "EG001", "numEvents": 0, "numAffected": 0, "numAtRisk": 5847}]}, {"term": "Menometrorrhagia", "organSystem": "Reproductive system and breast disorders", "sourceVocabulary": "MedDRA 18.1", "assessmentType": "SYSTEMATIC_ASSESSMENT", "stats": [{"groupId": "EG000", "numEvents": 1, "numAffected": 1, "numAtRisk": 5846}, {"groupId": "EG001", "numEvents": 0, "numAffected": 0, "numAtRisk": 5847}]}, {"term": "Ovarian cyst", "organSystem": "Reproductive system and breast disorders", "sourceVocabulary": "MedDRA 18.1", "assessmentType": "SYSTEMATIC_ASSESSMENT", "stats": [{"groupId": "EG000", "numEvents": 1, "numAffected": 1, "numAtRisk": 5846}, {"groupId": "EG001", "numEvents": 0, "numAffected": 0, "numAtRisk": 5847}]}, {"term": "Pelvic prolapse", "organSystem": "Reproductive system and breast disorders", "sourceVocabulary": "MedDRA 18.1", "assessmentType": "SYSTEMATIC_ASSESSMENT", "stats": [{"groupId": "EG000", "numEvents": 1, "numAffected": 1, "numAtRisk": 5846}, {"groupId": "EG001", "numEvents": 0, "numAffected": 0, "numAtRisk": 5847}]}, {"term": "Uterine haemorrhage", "organSystem": "Reproductive system and breast disorders", "sourceVocabulary": "MedDRA 18.1", "assessmentType": "SYSTEMATIC_ASSESSMENT", "stats": [{"groupId": "EG000", "numEvents": 0, "numAffected": 0, "numAtRisk": 5846}, {"groupId": "EG001", "numEvents": 1, "numAffected": 1, "numAtRisk": 5847}]}, {"term": "Acute respiratory distress syndrome", "organSystem": "Respiratory, thoracic and mediastinal disorders", "sourceVocabulary": "MedDRA 18.1", "assessmentType": "SYSTEMATIC_ASSESSMENT", "stats": [{"groupId": "EG000", "numEvents": 0, "numAffected": 0, "numAtRisk": 5846}, {"groupId": "EG001", "numEvents": 1, "numAffected": 1, "numAtRisk": 5847}]}, {"term": "Asthma", "organSystem": "Respiratory, thoracic and mediastinal disorders", "sourceVocabulary": "MedDRA 18.1", "assessmentType": "SYSTEMATIC_ASSESSMENT", "stats": [{"groupId": "EG000", "numEvents": 38, "numAffected": 35, "numAtRisk": 5846}, {"groupId": "EG001", "numEvents": 39, "numAffected": 36, "numAtRisk": 5847}]}, {"term": "Cough", "organSystem": "Respiratory, thoracic and mediastinal disorders", "sourceVocabulary": "MedDRA 18.1", "assessmentType": "SYSTEMATIC_ASSESSMENT", "stats": [{"groupId": "EG000", "numEvents": 1, "numAffected": 1, "numAtRisk": 5846}, {"groupId": "EG001", "numEvents": 0, "numAffected": 0, "numAtRisk": 5847}]}, {"term": "Dyspnoea", "organSystem": "Respiratory, thoracic and mediastinal disorders", "sourceVocabulary": "MedDRA 18.1", "assessmentType": "SYSTEMATIC_ASSESSMENT", "stats": [{"groupId": "EG000", "numEvents": 1, "numAffected": 1, "numAtRisk": 5846}, {"groupId": "EG001", "numEvents": 2, "numAffected": 2, "numAtRisk": 5847}]}, {"term": "Pneumonitis", "organSystem": "Respiratory, thoracic and mediastinal disorders", "sourceVocabulary": "MedDRA 18.1", "assessmentType": "SYSTEMATIC_ASSESSMENT", "stats": [{"groupId": "EG000", "numEvents": 0, "numAffected": 0, "numAtRisk": 5846}, {"groupId": "EG001", "numEvents": 1, "numAffected": 1, "numAtRisk": 5847}]}, {"term": "Respiratory distress", "organSystem": "Respiratory, thoracic and mediastinal disorders", "sourceVocabulary": "MedDRA 18.1", "assessmentType": "SYSTEMATIC_ASSESSMENT", "stats": [{"groupId": "EG000", "numEvents": 1, "numAffected": 1, "numAtRisk": 5846}, {"groupId": "EG001", "numEvents": 0, "numAffected": 0, "numAtRisk": 5847}]}, {"term": "Rhinitis allergic", "organSystem": "Respiratory, thoracic and mediastinal disorders", "sourceVocabulary": "MedDRA 18.1", "assessmentType": "SYSTEMATIC_ASSESSMENT", "stats": [{"groupId": "EG000", "numEvents": 0, "numAffected": 0, "numAtRisk": 5846}, {"groupId": "EG001", "numEvents": 1, "numAffected": 1, "numAtRisk": 5847}]}, {"term": "Status asthmaticus", "organSystem": "Respiratory, thoracic and mediastinal disorders", "sourceVocabulary": "MedDRA 18.1", "assessmentType": "SYSTEMATIC_ASSESSMENT", "stats": [{"groupId": "EG000", "numEvents": 1, "numAffected": 1, "numAtRisk": 5846}, {"groupId": "EG001", "numEvents": 0, "numAffected": 0, "numAtRisk": 5847}]}, {"term": "Vocal cord disorder", "organSystem": "Respiratory, thoracic and mediastinal disorders", "sourceVocabulary": "MedDRA 18.1", "assessmentType": "SYSTEMATIC_ASSESSMENT", "stats": [{"groupId": "EG000", "numEvents": 0, "numAffected": 0, "numAtRisk": 5846}, {"groupId": "EG001", "numEvents": 1, "numAffected": 1, "numAtRisk": 5847}]}, {"term": "Deep vein thrombosis", "organSystem": "Vascular disorders", "sourceVocabulary": "MedDRA 18.1", "assessmentType": "SYSTEMATIC_ASSESSMENT", "stats": [{"groupId": "EG000", "numEvents": 0, "numAffected": 0, "numAtRisk": 5846}, {"groupId": "EG001", "numEvents": 1, "numAffected": 1, "numAtRisk": 5847}]}, {"term": "Haematoma", "organSystem": "Vascular disorders", "sourceVocabulary": "MedDRA 18.1", "assessmentType": "SYSTEMATIC_ASSESSMENT", "stats": [{"groupId": "EG000", "numEvents": 0, "numAffected": 0, "numAtRisk": 5846}, {"groupId": "EG001", "numEvents": 1, "numAffected": 1, "numAtRisk": 5847}]}, {"term": "Hypertension", "organSystem": "Vascular disorders", "sourceVocabulary": "MedDRA 18.1", "assessmentType": "SYSTEMATIC_ASSESSMENT", "stats": [{"groupId": "EG000", "numEvents": 0, "numAffected": 0, "numAtRisk": 5846}, {"groupId": "EG001", "numEvents": 1, "numAffected": 1, "numAtRisk": 5847}]}, {"term": "Venous thrombosis limb", "organSystem": "Vascular disorders", "sourceVocabulary": "MedDRA 18.1", "assessmentType": "SYSTEMATIC_ASSESSMENT", "stats": [{"groupId": "EG000", "numEvents": 1, "numAffected": 1, "numAtRisk": 5846}, {"groupId": "EG001", "numEvents": 0, "numAffected": 0, "numAtRisk": 5847}]}]}, "moreInfoModule": {"certainAgreement": {"piSponsorEmployee": false, "restrictionType": "OTHER", "restrictiveAgreement": true, "otherDetails": "\u2265 60 days prior to submission of material for publication/presentation, Institution and PI shall jointly provide AZ with material for review. No publication/presentation may include any of AZ's Confidential Information without AZ's written approval. AZ can request Inst. and PI to withhold material from submission for publication/presentation for an additional 90 days to allow AZ to establish and preserve its proprietary rights in the material being submitted for publication or presentation."}, "pointOfContact": {"title": "Carin Jorup, Global Clinical Lead (GCL) SYMBICORT", "organization": "AstraZeneca Research and Development", "email": "Carin.Jorup@astrazeneca.com", "phone": "+46 31 7761000"}}}, "derivedSection": {"miscInfoModule": {"versionHolder": "2024-06-24", "removedCountries": ["Sweden", "Virgin Islands (U.S.)"]}, "conditionBrowseModule": {"meshes": [{"id": "D000001249", "term": "Asthma"}], "ancestors": [{"id": "D000001982", "term": "Bronchial Diseases"}, {"id": "D000012140", "term": "Respiratory Tract Diseases"}, {"id": "D000008173", "term": "Lung Diseases, Obstructive"}, {"id": "D000008171", "term": "Lung Diseases"}, {"id": "D000012130", "term": "Respiratory Hypersensitivity"}, {"id": "D000006969", "term": "Hypersensitivity, Immediate"}, {"id": "D000006967", "term": "Hypersensitivity"}, {"id": "D000007154", "term": "Immune System Diseases"}], "browseLeaves": [{"id": "M27137", "name": "Respiratory Aspiration", "relevance": "LOW"}, {"id": "M4556", "name": "Asthma", "asFound": "Asthma", "relevance": "HIGH"}, {"id": "M5258", "name": "Bronchial Diseases", "relevance": "LOW"}, {"id": "M14977", "name": "Respiratory Tract Diseases", "relevance": "LOW"}, {"id": "M11168", "name": "Lung Diseases", "relevance": "LOW"}, {"id": "M11170", "name": "Lung Diseases, Obstructive", "relevance": "LOW"}, {"id": "M10018", "name": "Hypersensitivity", "relevance": "LOW"}, {"id": "M14967", "name": "Respiratory Hypersensitivity", "relevance": "LOW"}, {"id": "M10020", "name": "Hypersensitivity, Immediate", "relevance": "LOW"}, {"id": "M10200", "name": "Immune System Diseases", "relevance": "LOW"}], "browseBranches": [{"abbrev": "BC08", "name": "Respiratory Tract (Lung and Bronchial) Diseases"}, {"abbrev": "BC23", "name": "Symptoms and General Pathology"}, {"abbrev": "All", "name": "All Conditions"}, {"abbrev": "BC20", "name": "Immune System Diseases"}]}, "interventionBrowseModule": {"meshes": [{"id": "D000019819", "term": "Budesonide"}, {"id": "D000069502", "term": "Budesonide, Formoterol Fumarate Drug Combination"}], "ancestors": [{"id": "D000000893", "term": "Anti-Inflammatory Agents"}, {"id": "D000001993", "term": "Bronchodilator Agents"}, {"id": "D000001337", "term": "Autonomic Agents"}, {"id": "D000018373", "term": "Peripheral Nervous System Agents"}, {"id": "D000045505", "term": "Physiological Effects of Drugs"}, {"id": "D000018927", "term": "Anti-Asthmatic Agents"}, {"id": "D000019141", "term": "Respiratory System Agents"}, {"id": "D000005938", "term": "Glucocorticoids"}, {"id": "D000006728", "term": "Hormones"}, {"id": "D000006730", "term": "Hormones, Hormone Substitutes, and Hormone Antagonists"}], "browseLeaves": [{"id": "M21711", "name": "Budesonide", "asFound": "Of 1", "relevance": "HIGH"}, {"id": "M304", "name": "Formoterol Fumarate", "relevance": "LOW"}, {"id": "M452", "name": "Budesonide, Formoterol Fumarate Drug Combination", "asFound": "Early Stage", "relevance": "HIGH"}, {"id": "M4217", "name": "Anti-Inflammatory Agents", "relevance": "LOW"}, {"id": "M5269", "name": "Bronchodilator Agents", "relevance": "LOW"}, {"id": "M20963", "name": "Anti-Asthmatic Agents", "relevance": "LOW"}, {"id": "M21137", "name": "Respiratory System Agents", "relevance": "LOW"}, {"id": "M9047", "name": "Glucocorticoids", "relevance": "LOW"}, {"id": "M9789", "name": "Hormones", "relevance": "LOW"}, {"id": "M9788", "name": "Hormone Antagonists", "relevance": "LOW"}], "browseBranches": [{"abbrev": "Infl", "name": "Anti-Inflammatory Agents"}, {"abbrev": "Resp", "name": "Respiratory System Agents"}, {"abbrev": "All", "name": "All Drugs and Chemicals"}]}}, "hasResults": true}