{"protocolSection": {"identificationModule": {"nctId": "NCT01917656", "orgStudyIdInfo": {"id": "NN2211-3987"}, "secondaryIdInfos": [{"id": "U1111-1132-9716", "type": "OTHER", "domain": "WHO"}], "organization": {"fullName": "Novo Nordisk A/S", "class": "INDUSTRY"}, "briefTitle": "Efficacy and Safety of Liraglutide Versus Sulphonylurea Both in Combination With Metformin During Ramadan in Subjects With Type 2 Diabetes", "officialTitle": "Efficacy and Safety of Liraglutide Versus Sulphonylurea Both in Combination With Metformin During Ramadan in Subjects With Type 2 Diabetes", "acronym": "LIRA-Ramadan\u2122"}, "statusModule": {"statusVerifiedDate": "2017-07", "overallStatus": "COMPLETED", "expandedAccessInfo": {"hasExpandedAccess": false}, "startDateStruct": {"date": "2014-01-09", "type": "ACTUAL"}, "primaryCompletionDateStruct": {"date": "2014-09-01", "type": "ACTUAL"}, "completionDateStruct": {"date": "2014-09-04", "type": "ACTUAL"}, "studyFirstSubmitDate": "2013-07-29", "studyFirstSubmitQcDate": "2013-08-06", "studyFirstPostDateStruct": {"date": "2013-08-07", "type": "ESTIMATED"}, "resultsFirstSubmitDate": "2015-09-02", "resultsFirstSubmitQcDate": "2015-09-02", "resultsFirstPostDateStruct": {"date": "2015-10-07", "type": "ESTIMATED"}, "lastUpdateSubmitDate": "2017-07-25", "lastUpdatePostDateStruct": {"date": "2017-08-24", "type": "ACTUAL"}}, "sponsorCollaboratorsModule": {"responsibleParty": {"type": "SPONSOR"}, "leadSponsor": {"name": "Novo Nordisk A/S", "class": "INDUSTRY"}}, "oversightModule": {"oversightHasDmc": false}, "descriptionModule": {"briefSummary": "This trial is conducted in Africa and Asia. The aim of the trial is to investigate the efficacy and safety of liraglutide versus sulphonylurea (SU) both in combination with metformin during Ramadan in subjects with type 2 diabetes (T2DM)."}, "conditionsModule": {"conditions": ["Diabetes", "Diabetes Mellitus, Type 2"]}, "designModule": {"studyType": "INTERVENTIONAL", "phases": ["PHASE4"], "designInfo": {"allocation": "RANDOMIZED", "interventionModel": "PARALLEL", "primaryPurpose": "TREATMENT", "maskingInfo": {"masking": "NONE"}}, "enrollmentInfo": {"count": 343, "type": "ACTUAL"}}, "armsInterventionsModule": {"armGroups": [{"label": "Liraglutide+Metformin", "type": "EXPERIMENTAL", "description": "Liraglutide 1.8 mg administered once daily subcutaneously, in combination with pre-trial tablet metformin of unchanged dose.", "interventionNames": ["Drug: liraglutide", "Drug: metformin"]}, {"label": "Sulphonylurea and Metformin", "type": "ACTIVE_COMPARATOR", "description": "Subjects continued on pre-trial sulphonylurea tablet treatment, in combination with pre-trial tablet metformin of unchanged dose.", "interventionNames": ["Drug: metformin", "Drug: sulphonylurea"]}], "interventions": [{"type": "DRUG", "name": "liraglutide", "description": "1.8 mg administered subcutaneously (s.c., under the skin) once daily", "armGroupLabels": ["Liraglutide+Metformin"]}, {"type": "DRUG", "name": "metformin", "description": "Subjects will continue on their pre-trial metformin tablet treatment, dose unchanged", "armGroupLabels": ["Liraglutide+Metformin", "Sulphonylurea and Metformin"]}, {"type": "DRUG", "name": "sulphonylurea", "description": "Subjects will continue on their pre-trial SU tablet treatment, doses unchanged", "armGroupLabels": ["Sulphonylurea and Metformin"]}]}, "outcomesModule": {"primaryOutcomes": [{"measure": "Change in Fructosamine From Start of Ramadan to End of Ramadan", "description": "The level of fructosamine in the blood was used to assess the glycaemic control in the patients during the time period described- from start of Ramadan (day -1, visit 8) to end of Ramadan (day 29, visit 12).", "timeFrame": "Day -1, day 29"}], "secondaryOutcomes": [{"measure": "Fructosamine at End of Ramadan", "description": "The fructosamine values at the end of Ramadan (visit 12) were presented", "timeFrame": "Day 29"}, {"measure": "Change From Start of Ramadan to End of Ramadan in Fasting Plasma Glucose (FPG)", "description": "The level of FPG in the blood of fasting patients was addressed to monitor glycaemic control during the period described.", "timeFrame": "Day -1, day 29"}, {"measure": "Change From Baseline to End of Ramadan in Fasting Plasma Glucose", "description": "The changes from baseline measured postbaseline (i.e., the changes measured on visit 8 and 12) entered as the dependent variables, and visit, treatment, country, and the stratification variables were included as fixed factors and the corresponding values for the specific endpoint measured at randomisation as covariate.", "timeFrame": "Baseline, day 29"}, {"measure": "Change From Baseline to End of Ramadan in Glycosylated Haemoglobin (HbA1c)", "description": "The level of glycosylated haemoglobin in blood was used to assess the glycaemic control of the patients during the time period described.", "timeFrame": "Baseline, day 29"}, {"measure": "Change From Baseline to End of Ramadan in Body Weight", "timeFrame": "Baseline, day 29"}, {"measure": "Subjects Who at End of Treatment (4 Weeks Post Ramadan) Achieve (y/n): HbA1c Below 7.0% (53 mmol/Mol) (ADA Target)", "description": "Subjects who at end of treatment (Visit 14, 4 weeks post Ramadan) achieve (y/n): HbA1c below 7.0% (53 mmol/mol) (ADA target)", "timeFrame": "Visit 14 (4 weeks post Ramadan)"}, {"measure": "Subjects Who at End of Treatment (4 Weeks Post Ramadan) Achieve (y/n): HbA1c Below 7.0% (53 mmol/Mol), and no Confirmed Hypoglycaemic Episodes", "description": "Subjects who at end of treatment (Visit 14, 4 weeks post Ramadan) achieve (y/n): HbA1c below 7.0% (53 mmol/mol) (ADA target)", "timeFrame": "Visit 14 (4 weeks post Ramadan)"}, {"measure": "Number of Confirmed Hypoglycaemic Episodes During Ramadan (Fasting), Based on Each Subject's Individual Fasting Period.", "timeFrame": "Day -1 to day 29"}, {"measure": "Number of Treatment Emergent Adverse Events (TEAEs) During Ramadan (Fasting), Based on Each Subject's Individual Fasting Period.", "description": "A serious AE was an experience that at any dose resulted in any of the following: Death, a life-threatening experience, in-patient hospitalisation or prolongation of existing hospitalisation, a persistent or significant disability or incapacity, congenital anomaly or birth defect, important medical events.\n\nMild - no or transient symptoms, no interference with the subject's daily activities Moderate - marked symptoms, moderate interference with the subject's daily activities Severe - considerable interference with the subject's daily activities, unacceptable", "timeFrame": "Day -1 to day 29"}]}, "eligibilityModule": {"eligibilityCriteria": "Inclusion Criteria:\n\n* - Subjects diagnosed with T2DM and treated with metformin equal to or above 1000 mg/day and SU (gliclazide, glipizide or glyburide/glibenclamide at maximum tolerated dose (at least half maximum approved dose) or glimepiride at maximum tolerated dose (at least 2 mg/day)), both at a stable dose for at least 90 days prior to screening. Stable is defined as unchanged medication and dose\n* - HbA1c 7.0-10.0% (53- 86 mmol/mol) (both inclusive)\n* - Body Mass Index (BMI) equal to or above 20 kg/m\\^2\n* - Subjects who have expressed their intention to fast (daytime, i.e. between sunrise and sunset) during Ramadan after receiving medical counselling regarding the risk of fasting\n\nExclusion Criteria:\n\n* - Any contraindication for successful and sustained fasting from a medical perspective at the discretion of the investigator (such as acute illness, severe hypoglycaemia within 90 days prior to screening, a history of recurrent hypoglycaemia, hypoglycaemia unawareness, ketoacidosis within 90 days prior to screening, hyperosmolar hyperglycaemic coma within 90 days prior to screening, subjects performing intense physical labour)\n* - Any chronic disorder or severe disease which, in the opinion of the investigator might jeopardise subject's safety or compliance with the protocol\n* - History of chronic pancreatitis or idiopathic acute pancreatitis\n* - Screening calcitonin value equal to or above 50 ng/L\n* - Personal or family history of medullary thyroid carcinoma (MTC) or multiple endocrine neoplasia syndrome type 2 (MEN 2)\n* - Impaired liver function, defined as alanine aminotransferase (ALAT) equal to or above 2.5 times upper normal limit (UNL)\n* - Impaired renal function defined as estimated glomerular filtration rate (eGFR) below 60 mL/min/1.73 m\\^2 per Modification of Diet in Renal Disease (MDRD) formula)\n* - Any episode of unstable angina, acute coronary event, cerebral stroke/transient ischemic attack (TIA) or other significant cardiovascular event as judged by the investigator within 90 days prior to screening\n* - Diagnosis of malignant neoplasm in the previous 5 years (except basal cell skin cancer or squamous cell skin cancer)", "healthyVolunteers": false, "sex": "ALL", "minimumAge": "18 Years", "stdAges": ["ADULT", "OLDER_ADULT"]}, "contactsLocationsModule": {"overallOfficials": [{"name": "Global Clinical Registry (GCR, 1452)", "affiliation": "Novo Nordisk A/S", "role": "STUDY_DIRECTOR"}], "locations": [{"facility": "Novo Nordisk Investigational Site", "city": "Algiers", "zip": "16000", "country": "Algeria", "geoPoint": {"lat": 36.73225, "lon": 3.08746}}, {"facility": "Novo Nordisk Investigational Site", "city": "Constantine", "zip": "25000", "country": "Algeria", "geoPoint": {"lat": 36.365, "lon": 6.61472}}, {"facility": "Novo Nordisk Investigational Site", "city": "Oran", "zip": "31000", "country": "Algeria", "geoPoint": {"lat": 35.69906, "lon": -0.63588}}, {"facility": "Novo Nordisk Investigational Site", "city": "Setif", "zip": "19000", "country": "Algeria", "geoPoint": {"lat": 36.19112, "lon": 5.41373}}, {"facility": "Novo Nordisk Investigational Site", "city": "Sidi Bel Abbes", "zip": "22000", "country": "Algeria", "geoPoint": {"lat": 35.18994, "lon": -0.63085}}, {"facility": "Novo Nordisk Investigational Site", "city": "Hyderabad", "state": "Andhra Pradesh", "zip": "500034", "country": "India", "geoPoint": {"lat": 17.38405, "lon": 78.45636}}, {"facility": "Novo Nordisk Investigational Site", "city": "Ahmedabad", "state": "Gujarat", "zip": "380007", "country": "India", "geoPoint": {"lat": 23.02579, "lon": 72.58727}}, {"facility": "Novo Nordisk Investigational Site", "city": "Bangalore", "state": "Karnataka", "zip": "560002", "country": "India", "geoPoint": {"lat": 12.97194, "lon": 77.59369}}, {"facility": "Novo Nordisk Investigational Site", "city": "Mysore", "state": "Karnataka", "zip": "570001", "country": "India", "geoPoint": {"lat": 12.29791, "lon": 76.63925}}, {"facility": "Novo Nordisk Investigational Site", "city": "Mysore", "state": "Karnataka", "zip": "570004", "country": "India", "geoPoint": {"lat": 12.29791, "lon": 76.63925}}, {"facility": "Novo Nordisk Investigational Site", "city": "Mumbai", "state": "Maharashtra", "zip": "400008", "country": "India", "geoPoint": {"lat": 19.07283, "lon": 72.88261}}, {"facility": "Novo Nordisk Investigational Site", "city": "Mumbai", "state": "Maharashtra", "zip": "400010", "country": "India", "geoPoint": {"lat": 19.07283, "lon": 72.88261}}, {"facility": "Novo Nordisk Investigational Site", "city": "Mumbai", "state": "Maharashtra", "zip": "400058", "country": "India", "geoPoint": {"lat": 19.07283, "lon": 72.88261}}, {"facility": "Novo Nordisk Investigational Site", "city": "Pune", "state": "Maharashtra", "zip": "411001", "country": "India", "geoPoint": {"lat": 18.51957, "lon": 73.85535}}, {"facility": "Novo Nordisk Investigational Site", "city": "Beer Sheva", "zip": "84101", "country": "Israel", "geoPoint": {"lat": 31.25181, "lon": 34.7913}}, {"facility": "Novo Nordisk Investigational Site", "city": "Haifa", "zip": "31096", "country": "Israel", "geoPoint": {"lat": 32.81841, "lon": 34.9885}}, {"facility": "Novo Nordisk Investigational Site", "city": "Haifa", "zip": "35152", "country": "Israel", "geoPoint": {"lat": 32.81841, "lon": 34.9885}}, {"facility": "Novo Nordisk Investigational Site", "city": "Jerusalem", "zip": "93106", "country": "Israel", "geoPoint": {"lat": 31.76904, "lon": 35.21633}}, {"facility": "Novo Nordisk Investigational Site", "city": "Beirut", "country": "Lebanon", "geoPoint": {"lat": 33.88894, "lon": 35.49442}}, {"facility": "Novo Nordisk Investigational Site", "city": "Lebanon - Beirut", "zip": "9611", "country": "Lebanon"}, {"facility": "Novo Nordisk Investigational Site", "city": "Cheras", "zip": "56000", "country": "Malaysia", "geoPoint": {"lat": 3.05, "lon": 101.76667}}, {"facility": "Novo Nordisk Investigational Site", "city": "Ipoh, Perak", "zip": "30990", "country": "Malaysia"}, {"facility": "Novo Nordisk Investigational Site", "city": "Klang, Selangor", "zip": "41200", "country": "Malaysia"}, {"facility": "Novo Nordisk Investigational Site", "city": "Kota Bharu, Kelantan", "zip": "16150", "country": "Malaysia"}, {"facility": "Novo Nordisk Investigational Site", "city": "Putrajaya", "zip": "62250", "country": "Malaysia", "geoPoint": {"lat": 2.93527, "lon": 101.69112}}, {"facility": "Novo Nordisk Investigational Site", "city": "Selangor Darul Ehsan", "zip": "68000", "country": "Malaysia"}, {"facility": "Novo Nordisk Investigational Site", "city": "Seremban, Negeri Sembilan", "zip": "70400", "country": "Malaysia"}, {"facility": "Novo Nordisk Investigational Site", "city": "Benoni", "state": "Gauteng", "zip": "1501", "country": "South Africa", "geoPoint": {"lat": -26.18848, "lon": 28.32078}}, {"facility": "Novo Nordisk Investigational Site", "city": "Johannesburg", "state": "Gauteng", "zip": "1812", "country": "South Africa", "geoPoint": {"lat": -26.20227, "lon": 28.04363}}, {"facility": "Novo Nordisk Investigational Site", "city": "Johannesburg", "state": "Gauteng", "zip": "1827", "country": "South Africa", "geoPoint": {"lat": -26.20227, "lon": 28.04363}}, {"facility": "Novo Nordisk Investigational Site", "city": "Lenasia", "state": "Gauteng", "zip": "1827", "country": "South Africa", "geoPoint": {"lat": -26.32052, "lon": 27.83564}}, {"facility": "Novo Nordisk Investigational Site", "city": "Pretoria", "state": "Gauteng", "zip": "0181", "country": "South Africa", "geoPoint": {"lat": -25.74486, "lon": 28.18783}}, {"facility": "Novo Nordisk Investigational Site", "city": "Durban", "state": "KwaZulu-Natal", "zip": "4091", "country": "South Africa", "geoPoint": {"lat": -29.8579, "lon": 31.0292}}, {"facility": "Novo Nordisk Investigational Site", "city": "Durban", "state": "KwaZulu-Natal", "zip": "4092", "country": "South Africa", "geoPoint": {"lat": -29.8579, "lon": 31.0292}}, {"facility": "Novo Nordisk Investigational Site", "city": "Durban", "state": "KwaZulu-Natal", "zip": "4450", "country": "South Africa", "geoPoint": {"lat": -29.8579, "lon": 31.0292}}, {"facility": "Novo Nordisk Investigational Site", "city": "Ajman", "zip": "21499", "country": "United Arab Emirates", "geoPoint": {"lat": 25.41111, "lon": 55.43504}}, {"facility": "Novo Nordisk Investigational Site", "city": "Dubai", "zip": "4545", "country": "United Arab Emirates", "geoPoint": {"lat": 25.0657, "lon": 55.17128}}, {"facility": "Novo Nordisk Investigational Site", "city": "Dubai", "zip": "9115", "country": "United Arab Emirates", "geoPoint": {"lat": 25.0657, "lon": 55.17128}}, {"facility": "Novo Nordisk Investigational Site", "city": "Ras Al Khaimah", "zip": "4727", "country": "United Arab Emirates", "geoPoint": {"lat": 25.78953, "lon": 55.9432}}, {"facility": "Novo Nordisk Investigational Site", "city": "Sharjah", "zip": "3500", "country": "United Arab Emirates", "geoPoint": {"lat": 25.33737, "lon": 55.41206}}, {"facility": "Novo Nordisk Investigational Site", "city": "Umm Al Quwain", "zip": "24", "country": "United Arab Emirates", "geoPoint": {"lat": 25.56473, "lon": 55.55517}}]}, "referencesModule": {"references": [{"pmid": "27376711", "type": "RESULT", "citation": "Azar ST, Echtay A, Wan Bebakar WM, Al Araj S, Berrah A, Omar M, Mutha A, Tornoe K, Kaltoft MS, Shehadeh N. Efficacy and safety of liraglutide compared to sulphonylurea during Ramadan in patients with type 2 diabetes (LIRA-Ramadan): a randomized trial. Diabetes Obes Metab. 2016 Oct;18(10):1025-33. doi: 10.1111/dom.12733. Epub 2016 Aug 18."}], "seeAlsoLinks": [{"label": "Clinical Trials at Novo Nordisk", "url": "http://novonordisk-trials.com"}]}}, "resultsSection": {"participantFlowModule": {"preAssignmentDetails": "Subjects were randomised in a 1:1 manner to either switch to liraglutide 1.8 mg/day added on to metformin or to continue their pre-trial SU and metformin treatment.", "recruitmentDetails": "The trial was conducted at 39 sites in 7 countries as follows: Algeria: 7 sites; Israel: 4 sites; India: 5 sites; Lebanon: 2 sites; Malaysia: 7 sites; South Africa: 8 sites; United Arab Emirates: 6 sites", "groups": [{"id": "FG000", "title": "Liraglutide and Metformin", "description": "Liraglutide 1.8 mg administered once daily subcutaneously, in combination with pre-trial tablet metformin of unchanged dose."}, {"id": "FG001", "title": "Sulfonylurea and Metformin", "description": "Subjects continued on pre-trial sulfonylurea tablet treatment, in combination with pre-trial tablet metformin of unchanged dose."}], "periods": [{"title": "Overall Study", "milestones": [{"type": "STARTED", "achievements": [{"groupId": "FG000", "numSubjects": "172"}, {"groupId": "FG001", "numSubjects": "171"}]}, {"type": "Exposed", "achievements": [{"groupId": "FG000", "comment": "1 subject was withdrawn prior to exposure to trial products", "numSubjects": "171"}, {"groupId": "FG001", "comment": "1 subject was withdrawn prior to exposure to first SU dose after randomisation", "numSubjects": "170"}]}, {"type": "Exposed During Ramadan (Fasting)", "achievements": [{"groupId": "FG000", "numSubjects": "152"}, {"groupId": "FG001", "numSubjects": "163"}]}, {"type": "COMPLETED", "achievements": [{"groupId": "FG000", "numSubjects": "146"}, {"groupId": "FG001", "numSubjects": "147"}]}, {"type": "NOT COMPLETED", "achievements": [{"groupId": "FG000", "numSubjects": "26"}, {"groupId": "FG001", "numSubjects": "24"}]}], "dropWithdraws": [{"type": "Adverse Event", "reasons": [{"groupId": "FG000", "numSubjects": "11"}, {"groupId": "FG001", "numSubjects": "0"}]}, {"type": "Withdrawal criteria", "reasons": [{"groupId": "FG000", "numSubjects": "8"}, {"groupId": "FG001", "numSubjects": "14"}]}, {"type": "Unclassified", "reasons": [{"groupId": "FG000", "numSubjects": "0"}, {"groupId": "FG001", "numSubjects": "3"}]}, {"type": "Withdrawal by Subject", "reasons": [{"groupId": "FG000", "numSubjects": "4"}, {"groupId": "FG001", "numSubjects": "3"}]}, {"type": "Lost to Follow-up", "reasons": [{"groupId": "FG000", "numSubjects": "3"}, {"groupId": "FG001", "numSubjects": "4"}]}]}]}, "baselineCharacteristicsModule": {"populationDescription": "Safety analysis set", "groups": [{"id": "BG000", "title": "Liraglutide and Metformin", "description": "Liraglutide 1.8 mg administered once daily subcutaneously, in combination with pre-trial tablet metformin of unchanged dose."}, {"id": "BG001", "title": "Sulfonylurea and Metformin", "description": "Subjects continued on pre-trial sulfonylurea tablet treatment, in combination with pre-trial tablet metformin of unchanged dose."}, {"id": "BG002", "title": "Total", "description": "Total of all reporting groups"}], "denoms": [{"units": "Participants", "counts": [{"groupId": "BG000", "value": "171"}, {"groupId": "BG001", "value": "170"}, {"groupId": "BG002", "value": "341"}]}], "measures": [{"title": "Age, Continuous", "paramType": "MEAN", "dispersionType": "STANDARD_DEVIATION", "unitOfMeasure": "years", "classes": [{"categories": [{"measurements": [{"groupId": "BG000", "value": "54.9", "spread": "9.27"}, {"groupId": "BG001", "value": "54.0", "spread": "9.33"}, {"groupId": "BG002", "value": "54.5", "spread": "9.30"}]}]}]}, {"title": "Sex: Female, Male", "paramType": "COUNT_OF_PARTICIPANTS", "unitOfMeasure": "Participants", "classes": [{"categories": [{"title": "Female", "measurements": [{"groupId": "BG000", "value": "86"}, {"groupId": "BG001", "value": "87"}, {"groupId": "BG002", "value": "173"}]}, {"title": "Male", "measurements": [{"groupId": "BG000", "value": "85"}, {"groupId": "BG001", "value": "83"}, {"groupId": "BG002", "value": "168"}]}]}]}]}, "outcomeMeasuresModule": {"outcomeMeasures": [{"type": "PRIMARY", "title": "Change in Fructosamine From Start of Ramadan to End of Ramadan", "description": "The level of fructosamine in the blood was used to assess the glycaemic control in the patients during the time period described- from start of Ramadan (day -1, visit 8) to end of Ramadan (day 29, visit 12).", "populationDescription": "Full analysis set (FAS). The number of subjects in FAS were 171 (Liraglutide) and 169 (Sulfonylurea), few subjects did not contribute to this analysis.", "reportingStatus": "POSTED", "paramType": "MEAN", "dispersionType": "Standard Deviation", "unitOfMeasure": "umol/L", "timeFrame": "Day -1, day 29", "groups": [{"id": "OG000", "title": "Liraglutide and Metformin", "description": "Liraglutide 1.8 mg administered once daily subcutaneously, in combination with pre-trial tablet metformin of unchanged dose."}, {"id": "OG001", "title": "Sulfonylurea and Metformin", "description": "Subjects continued on pre-trial sulfonylurea tablet treatment, in combination with pre-trial tablet metformin of unchanged dose."}], "denoms": [{"units": "Participants", "counts": [{"groupId": "OG000", "value": "146"}, {"groupId": "OG001", "value": "151"}]}], "classes": [{"categories": [{"measurements": [{"groupId": "OG000", "value": "-13.2", "spread": "36.0"}, {"groupId": "OG001", "value": "-14.9", "spread": "43.0"}]}]}]}, {"type": "SECONDARY", "title": "Fructosamine at End of Ramadan", "description": "The fructosamine values at the end of Ramadan (visit 12) were presented", "populationDescription": "Full analysis set (FAS). The number of subjects in FAS were 171 (Liraglutide) and 169 (Sulfonylurea), few subjects did not contribute to this analysis.", "reportingStatus": "POSTED", "paramType": "MEAN", "dispersionType": "Standard Deviation", "unitOfMeasure": "umol/L", "timeFrame": "Day 29", "groups": [{"id": "OG000", "title": "Liraglutide and Metformin", "description": "Liraglutide 1.8 mg administered once daily subcutaneously, in combination with pre-trial tablet metformin of unchanged dose."}, {"id": "OG001", "title": "Sulfonylurea and Metformin", "description": "Subjects continued on pre-trial sulfonylurea tablet treatment, in combination with pre-trial tablet metformin of unchanged dose."}], "denoms": [{"units": "Participants", "counts": [{"groupId": "OG000", "value": "146"}, {"groupId": "OG001", "value": "151"}]}], "classes": [{"categories": [{"measurements": [{"groupId": "OG000", "value": "276.8", "spread": "44.1"}, {"groupId": "OG001", "value": "284.9", "spread": "46.6"}]}]}]}, {"type": "SECONDARY", "title": "Change From Start of Ramadan to End of Ramadan in Fasting Plasma Glucose (FPG)", "description": "The level of FPG in the blood of fasting patients was addressed to monitor glycaemic control during the period described.", "populationDescription": "Full analysis set (FAS). The number of subjects in FAS were 171 (Liraglutide) and 169 (Sulfonylurea), few subjects did not contribute to this analysis.", "reportingStatus": "POSTED", "paramType": "MEAN", "dispersionType": "Standard Deviation", "unitOfMeasure": "mmol/L", "timeFrame": "Day -1, day 29", "groups": [{"id": "OG000", "title": "Liraglutide and Metformin", "description": "Liraglutide 1.8 mg administered once daily subcutaneously, in combination with pre-trial tablet metformin of unchanged dose."}, {"id": "OG001", "title": "Sulfonylurea and Metformin", "description": "Subjects continued on pre-trial sulfonylurea tablet treatment, in combination with pre-trial tablet metformin of unchanged dose."}], "denoms": [{"units": "Participants", "counts": [{"groupId": "OG000", "value": "146"}, {"groupId": "OG001", "value": "157"}]}], "classes": [{"categories": [{"measurements": [{"groupId": "OG000", "value": "-0.1", "spread": "2.0"}, {"groupId": "OG001", "value": "0.1", "spread": "3.8"}]}]}]}, {"type": "SECONDARY", "title": "Change From Baseline to End of Ramadan in Fasting Plasma Glucose", "description": "The changes from baseline measured postbaseline (i.e., the changes measured on visit 8 and 12) entered as the dependent variables, and visit, treatment, country, and the stratification variables were included as fixed factors and the corresponding values for the specific endpoint measured at randomisation as covariate.", "populationDescription": "Full analysis set (FAS). The number of subjects in FAS were 171 (Liraglutide) and 169 (Sulfonylurea), few subjects did not contribute to this analysis.", "reportingStatus": "POSTED", "paramType": "MEAN", "dispersionType": "Standard Deviation", "unitOfMeasure": "mmol/L", "timeFrame": "Baseline, day 29", "groups": [{"id": "OG000", "title": "Liraglutide and Metformin", "description": "Liraglutide 1.8 mg administered once daily subcutaneously, in combination with pre-trial tablet metformin of unchanged dose."}, {"id": "OG001", "title": "Sulfonylurea and Metformin", "description": "Subjects continued on pre-trial sulfonylurea tablet treatment, in combination with pre-trial tablet metformin of unchanged dose."}], "denoms": [{"units": "Participants", "counts": [{"groupId": "OG000", "value": "143"}, {"groupId": "OG001", "value": "156"}]}], "classes": [{"categories": [{"measurements": [{"groupId": "OG000", "value": "-1.8", "spread": "3.1"}, {"groupId": "OG001", "value": "-0.6", "spread": "3.6"}]}]}]}, {"type": "SECONDARY", "title": "Change From Baseline to End of Ramadan in Glycosylated Haemoglobin (HbA1c)", "description": "The level of glycosylated haemoglobin in blood was used to assess the glycaemic control of the patients during the time period described.", "populationDescription": "Full analysis set (FAS). The number of subjects in FAS were 171 (Liraglutide) and 169 (Sulfonylurea), few subjects did not contribute to this analysis.", "reportingStatus": "POSTED", "paramType": "MEAN", "dispersionType": "Standard Deviation", "unitOfMeasure": "Percent (%) glycosylated haemoglobin", "timeFrame": "Baseline, day 29", "groups": [{"id": "OG000", "title": "Liraglutide and Metformin", "description": "Liraglutide 1.8 mg administered once daily subcutaneously, in combination with pre-trial tablet metformin of unchanged dose."}, {"id": "OG001", "title": "Sulfonylurea and Metformin", "description": "Subjects continued on pre-trial sulfonylurea tablet treatment, in combination with pre-trial tablet metformin of unchanged dose."}], "denoms": [{"units": "Participants", "counts": [{"groupId": "OG000", "value": "146"}, {"groupId": "OG001", "value": "156"}]}], "classes": [{"categories": [{"measurements": [{"groupId": "OG000", "value": "-1.3", "spread": "1.1"}, {"groupId": "OG001", "value": "-0.7", "spread": "0.9"}]}]}]}, {"type": "SECONDARY", "title": "Change From Baseline to End of Ramadan in Body Weight", "populationDescription": "Full analysis set (FAS). The number of subjects in FAS were 171 (Liraglutide) and 169 (Sulfonylurea), few subjects did not contribute to this analysis.", "reportingStatus": "POSTED", "paramType": "LEAST_SQUARES_MEAN", "dispersionType": "Standard Error", "unitOfMeasure": "kg", "timeFrame": "Baseline, day 29", "groups": [{"id": "OG000", "title": "Liraglutide and Metformin", "description": "Liraglutide 1.8 mg administered once daily subcutaneously, in combination with pre-trial tablet metformin of unchanged dose."}, {"id": "OG001", "title": "Sulfonylurea and Metformin", "description": "Subjects continued on pre-trial sulfonylurea tablet treatment, in combination with pre-trial tablet metformin of unchanged dose."}], "denoms": [{"units": "Participants", "counts": [{"groupId": "OG000", "value": "165"}, {"groupId": "OG001", "value": "168"}]}], "classes": [{"categories": [{"measurements": [{"groupId": "OG000", "value": "-5.40", "spread": "0.2205"}, {"groupId": "OG001", "value": "-1.46", "spread": "0.2139"}]}]}]}, {"type": "SECONDARY", "title": "Subjects Who at End of Treatment (4 Weeks Post Ramadan) Achieve (y/n): HbA1c Below 7.0% (53 mmol/Mol) (ADA Target)", "description": "Subjects who at end of treatment (Visit 14, 4 weeks post Ramadan) achieve (y/n): HbA1c below 7.0% (53 mmol/mol) (ADA target)", "populationDescription": "Full analysis set", "reportingStatus": "POSTED", "paramType": "NUMBER", "unitOfMeasure": "percentage (%) of subjects", "timeFrame": "Visit 14 (4 weeks post Ramadan)", "groups": [{"id": "OG000", "title": "Liraglutide and Metformin", "description": "Liraglutide 1.8 mg administered once daily subcutaneously, in combination with pre-trial tablet metformin of unchanged dose."}, {"id": "OG001", "title": "Sulfonylurea and Metformin", "description": "Subjects continued on pre-trial sulfonylurea tablet treatment, in combination with pre-trial tablet metformin of unchanged dose."}], "denoms": [{"units": "Participants", "counts": [{"groupId": "OG000", "value": "171"}, {"groupId": "OG001", "value": "169"}]}], "classes": [{"categories": [{"measurements": [{"groupId": "OG000", "value": "51.0"}, {"groupId": "OG001", "value": "29.9"}]}]}]}, {"type": "SECONDARY", "title": "Subjects Who at End of Treatment (4 Weeks Post Ramadan) Achieve (y/n): HbA1c Below 7.0% (53 mmol/Mol), and no Confirmed Hypoglycaemic Episodes", "description": "Subjects who at end of treatment (Visit 14, 4 weeks post Ramadan) achieve (y/n): HbA1c below 7.0% (53 mmol/mol) (ADA target)", "populationDescription": "Full analysis set", "reportingStatus": "POSTED", "paramType": "NUMBER", "unitOfMeasure": "percentage (%) of subjects", "timeFrame": "Visit 14 (4 weeks post Ramadan)", "groups": [{"id": "OG000", "title": "Liraglutide and Metformin", "description": "Liraglutide 1.8 mg administered once daily subcutaneously, in combination with pre-trial tablet metformin of unchanged dose."}, {"id": "OG001", "title": "Sulfonylurea and Metformin", "description": "Subjects continued on pre-trial sulfonylurea tablet treatment, in combination with pre-trial tablet metformin of unchanged dose."}], "denoms": [{"units": "Participants", "counts": [{"groupId": "OG000", "value": "171"}, {"groupId": "OG001", "value": "169"}]}], "classes": [{"categories": [{"measurements": [{"groupId": "OG000", "value": "47.6"}, {"groupId": "OG001", "value": "25.2"}]}]}]}, {"type": "SECONDARY", "title": "Number of Confirmed Hypoglycaemic Episodes During Ramadan (Fasting), Based on Each Subject's Individual Fasting Period.", "populationDescription": "Safety analysis set", "reportingStatus": "POSTED", "paramType": "NUMBER", "unitOfMeasure": "Events/1000 years of patient exposure", "timeFrame": "Day -1 to day 29", "groups": [{"id": "OG000", "title": "Liraglutide and Metformin", "description": "Liraglutide 1.8 mg administered once daily subcutaneously, in combination with pre-trial tablet metformin of unchanged dose."}, {"id": "OG001", "title": "Sulfonylurea and Metformin", "description": "Subjects continued on pre-trial sulfonylurea tablet treatment, in combination with pre-trial tablet metformin of unchanged dose."}], "denoms": [{"units": "Participants", "counts": [{"groupId": "OG000", "value": "152"}, {"groupId": "OG001", "value": "163"}]}], "classes": [{"categories": [{"measurements": [{"groupId": "OG000", "value": "246"}, {"groupId": "OG001", "value": "623"}]}]}]}, {"type": "SECONDARY", "title": "Number of Treatment Emergent Adverse Events (TEAEs) During Ramadan (Fasting), Based on Each Subject's Individual Fasting Period.", "description": "A serious AE was an experience that at any dose resulted in any of the following: Death, a life-threatening experience, in-patient hospitalisation or prolongation of existing hospitalisation, a persistent or significant disability or incapacity, congenital anomaly or birth defect, important medical events.\n\nMild - no or transient symptoms, no interference with the subject's daily activities Moderate - marked symptoms, moderate interference with the subject's daily activities Severe - considerable interference with the subject's daily activities, unacceptable", "populationDescription": "Safety analysis set", "reportingStatus": "POSTED", "paramType": "NUMBER", "unitOfMeasure": "Events/1000 years of patient exposure", "timeFrame": "Day -1 to day 29", "groups": [{"id": "OG000", "title": "Liraglutide and Metformin", "description": "Liraglutide 1.8 mg administered once daily subcutaneously, in combination with pre-trial tablet metformin of unchanged dose."}, {"id": "OG001", "title": "Sulfonylurea and Metformin", "description": "Subjects continued on pre-trial sulfonylurea tablet treatment, in combination with pre-trial tablet metformin of unchanged dose."}], "denoms": [{"units": "Participants", "counts": [{"groupId": "OG000", "value": "152"}, {"groupId": "OG001", "value": "163"}]}], "classes": [{"title": "Adverse events", "categories": [{"measurements": [{"groupId": "OG000", "value": "5258"}, {"groupId": "OG001", "value": "3349"}]}]}, {"title": "Serious adverse events", "categories": [{"measurements": [{"groupId": "OG000", "value": "164"}, {"groupId": "OG001", "value": "0"}]}]}, {"title": "Severe adverse events", "categories": [{"measurements": [{"groupId": "OG000", "value": "411"}, {"groupId": "OG001", "value": "78"}]}]}, {"title": "Moderate adverse event", "categories": [{"measurements": [{"groupId": "OG000", "value": "986"}, {"groupId": "OG001", "value": "779"}]}]}, {"title": "Mild adverse event", "categories": [{"measurements": [{"groupId": "OG000", "value": "3861"}, {"groupId": "OG001", "value": "2492"}]}]}]}]}, "adverseEventsModule": {"frequencyThreshold": "5", "timeFrame": "A treatment emergent AE during Ramadan (fasting) had onset on or after the individual subject's first day of Ramadan fasting, and no later than the individual subject's last day of Ramadan fasting.", "description": "Safety analysis set included all randomised subjects who were exposed to the trial drug. Subjects in the safety analysis set contributed to the evaluation 'as treated'. A total of 315 randomised subjects were exposed to trial products during Ramadan (fasting), of which 152 subjects were exposed to liraglutide and 163 subjects were exposed to SU.", "eventGroups": [{"id": "EG000", "title": "Liraglutide and Metformin", "description": "Liraglutide 1.8 mg administered once daily subcutaneously, in combination with pre-trial tablet metformin of unchanged dose.", "seriousNumAffected": 2, "seriousNumAtRisk": 152, "otherNumAffected": 8, "otherNumAtRisk": 152}, {"id": "EG001", "title": "Sulfonylurea and Metformin", "description": "Subjects continued on pre-trial sulfonylurea tablet treatment, in combination with pre-trial tablet metformin of unchanged dose.", "seriousNumAffected": 0, "seriousNumAtRisk": 163, "otherNumAffected": 1, "otherNumAtRisk": 163}], "seriousEvents": [{"term": "Abscess limb", "organSystem": "Infections and infestations", "sourceVocabulary": "MedDRA 17.0", "assessmentType": "SYSTEMATIC_ASSESSMENT", "stats": [{"groupId": "EG000", "numEvents": 1, "numAffected": 1, "numAtRisk": 152}, {"groupId": "EG001", "numEvents": 0, "numAffected": 0, "numAtRisk": 163}]}, {"term": "Gastroenteritis", "organSystem": "Infections and infestations", "sourceVocabulary": "MedDRA 17.0", "assessmentType": "SYSTEMATIC_ASSESSMENT", "stats": [{"groupId": "EG000", "numEvents": 1, "numAffected": 1, "numAtRisk": 152}, {"groupId": "EG001", "numEvents": 0, "numAffected": 0, "numAtRisk": 163}]}], "otherEvents": [{"term": "Vomiting", "organSystem": "Gastrointestinal disorders", "sourceVocabulary": "MedDRA 17.0", "assessmentType": "SYSTEMATIC_ASSESSMENT", "stats": [{"groupId": "EG000", "numEvents": 9, "numAffected": 8, "numAtRisk": 152}, {"groupId": "EG001", "numEvents": 1, "numAffected": 1, "numAtRisk": 163}]}]}, "moreInfoModule": {"certainAgreement": {"piSponsorEmployee": false, "restrictionType": "OTHER", "restrictiveAgreement": true, "otherDetails": "Novo Nordisk maintains the right to be informed of any Investigator plans for publication and to review any scientific paper, presentation, communication or other information concerning the investigation described in this protocol. Any such communication must be submitted in writing to the Novo Nordisk trial manager prior to submission for comments. Comments will be given within four weeks from receipt of the planned communication."}, "pointOfContact": {"title": "Public Access to Clinical Trials", "organization": "Novo Nordisk A/S", "email": "clinicaltrials@novonordisk.com"}}}, "derivedSection": {"miscInfoModule": {"versionHolder": "2024-06-24"}, "conditionBrowseModule": {"meshes": [{"id": "D000003920", "term": "Diabetes Mellitus"}, {"id": "D000003924", "term": "Diabetes Mellitus, Type 2"}], "ancestors": [{"id": "D000044882", "term": "Glucose Metabolism Disorders"}, {"id": "D000008659", "term": "Metabolic Diseases"}, {"id": "D000004700", "term": "Endocrine System Diseases"}], "browseLeaves": [{"id": "M7115", "name": "Diabetes Mellitus", "asFound": "Diabetes", "relevance": "HIGH"}, {"id": "M7119", "name": "Diabetes Mellitus, Type 2", "asFound": "Diabetes Mellitus, Type 2", "relevance": "HIGH"}, {"id": "M11639", "name": "Metabolic Diseases", "relevance": "LOW"}, {"id": "M25403", "name": "Glucose Metabolism Disorders", "relevance": "LOW"}, {"id": "M7862", "name": "Endocrine System Diseases", "relevance": "LOW"}], "browseBranches": [{"abbrev": "BC18", "name": "Nutritional and Metabolic Diseases"}, {"abbrev": "BC19", "name": "Gland and Hormone Related Diseases"}, {"abbrev": "All", "name": "All Conditions"}]}, "interventionBrowseModule": {"meshes": [{"id": "D000008687", "term": "Metformin"}, {"id": "D000069450", "term": "Liraglutide"}], "ancestors": [{"id": "D000007004", "term": "Hypoglycemic Agents"}, {"id": "D000045505", "term": "Physiological Effects of Drugs"}, {"id": "D000097789", "term": "Glucagon-Like Peptide-1 Receptor Agonists"}, {"id": "D000054795", "term": "Incretins"}, {"id": "D000006728", "term": "Hormones"}, {"id": "D000006730", "term": "Hormones, Hormone Substitutes, and Hormone Antagonists"}], "browseLeaves": [{"id": "M11667", "name": "Metformin", "asFound": "Assessment", "relevance": "HIGH"}, {"id": "M419", "name": "Liraglutide", "asFound": "Cessation", "relevance": "HIGH"}, {"id": "M10054", "name": "Hypoglycemic Agents", "relevance": "LOW"}, {"id": "M3401", "name": "Glucagon-Like Peptide-1 Receptor Agonists", "relevance": "LOW"}, {"id": "M9043", "name": "Glucagon", "relevance": "LOW"}, {"id": "M26997", "name": "Glucagon-Like Peptide 1", "relevance": "LOW"}, {"id": "M27905", "name": "Incretins", "relevance": "LOW"}, {"id": "M9789", "name": "Hormones", "relevance": "LOW"}, {"id": "M9788", "name": "Hormone Antagonists", "relevance": "LOW"}], "browseBranches": [{"abbrev": "Hypo", "name": "Hypoglycemic Agents"}, {"abbrev": "All", "name": "All Drugs and Chemicals"}, {"abbrev": "Gast", "name": "Gastrointestinal Agents"}]}}, "hasResults": true}