{"protocolSection": {"identificationModule": {"nctId": "NCT03254485", "orgStudyIdInfo": {"id": "C1973-204"}, "organization": {"fullName": "Akebia Therapeutics", "class": "INDUSTRY"}, "briefTitle": "A Study of the Effect of IW-1973 on the Exercise Capacity of Patients With Heart Failure With Preserved Ejection Fraction (HFpEF)", "officialTitle": "A Multicenter, Randomized, Double-blind, Placebo-controlled, Phase 2 Study Evaluating the Safety and Efficacy of Different Doses of IW-1973 Over 12 Weeks in Patients With Heart Failure With Preserved Ejection Fraction", "acronym": "CAPACITY-HFpEF"}, "statusModule": {"statusVerifiedDate": "2022-08", "overallStatus": "COMPLETED", "expandedAccessInfo": {"hasExpandedAccess": false}, "startDateStruct": {"date": "2017-11-07", "type": "ACTUAL"}, "primaryCompletionDateStruct": {"date": "2019-08-19", "type": "ACTUAL"}, "completionDateStruct": {"date": "2019-08-19", "type": "ACTUAL"}, "studyFirstSubmitDate": "2017-08-16", "studyFirstSubmitQcDate": "2017-08-16", "studyFirstPostDateStruct": {"date": "2017-08-18", "type": "ACTUAL"}, "resultsFirstSubmitDate": "2022-08-18", "resultsFirstSubmitQcDate": "2022-08-18", "resultsFirstPostDateStruct": {"date": "2022-09-15", "type": "ACTUAL"}, "dispFirstSubmitDate": "2020-08-18", "dispFirstSubmitQcDate": "2021-02-02", "dispFirstPostDateStruct": {"date": "2021-02-05", "type": "ACTUAL"}, "lastUpdateSubmitDate": "2022-08-18", "lastUpdatePostDateStruct": {"date": "2022-09-15", "type": "ACTUAL"}}, "sponsorCollaboratorsModule": {"responsibleParty": {"type": "SPONSOR"}, "leadSponsor": {"name": "Akebia Therapeutics", "class": "INDUSTRY"}, "collaborators": [{"name": "Cyclerion Therapeutics", "class": "INDUSTRY"}]}, "oversightModule": {"oversightHasDmc": true, "isFdaRegulatedDrug": true, "isFdaRegulatedDevice": false, "isUsExport": true}, "descriptionModule": {"briefSummary": "The objective of the CAPACITY-HFpEF study is to evaluate the safety and efficacy of IW-1973 compared with placebo when administered daily for approximately 12 weeks to patients with HFpEF. The study will evaluate the effect of oral IW-1973 on peak exercise capacity in patients with HFpEF, with or without permanent or persistent atrial fibrillation."}, "conditionsModule": {"conditions": ["Heart Failure With Preserved Ejection Fraction"], "keywords": ["Heart Failure", "Cardiovascular", "HF", "HFpEF"]}, "designModule": {"studyType": "INTERVENTIONAL", "phases": ["PHASE2"], "designInfo": {"allocation": "RANDOMIZED", "interventionModel": "PARALLEL", "primaryPurpose": "TREATMENT", "maskingInfo": {"masking": "QUADRUPLE", "whoMasked": ["PARTICIPANT", "CARE_PROVIDER", "INVESTIGATOR", "OUTCOMES_ASSESSOR"]}}, "enrollmentInfo": {"count": 196, "type": "ACTUAL"}}, "armsInterventionsModule": {"armGroups": [{"label": "IW-1973 High Dose", "type": "EXPERIMENTAL", "interventionNames": ["Drug: IW-1973"]}, {"label": "Placebo", "type": "PLACEBO_COMPARATOR", "description": "Placebo to match experimental drug", "interventionNames": ["Drug: Placebo Oral Tablet"]}], "interventions": [{"type": "DRUG", "name": "IW-1973", "description": "Oral Tablet", "armGroupLabels": ["IW-1973 High Dose"]}, {"type": "DRUG", "name": "Placebo Oral Tablet", "description": "Oral Tablet", "armGroupLabels": ["Placebo"]}]}, "outcomesModule": {"primaryOutcomes": [{"measure": "Number of Participants With Treatment-emergent Adverse Events (TEAEs) and Study Drug-related TEAEs", "description": "An adverse event (AE) is any untoward medical occurrence in a participant or clinical investigation participant administered a pharmaceutical product and which does not necessarily have to have a causal relationship with this treatment. TEAEs are defined as those adverse events (AEs) that started or worsened in severity after the administration of study drug. Causality relationship to study drug was per Investigator assessment. Number of participants with TEAEs and study drug-related TEAEs is presented.", "timeFrame": "Day 1 up to Day 113"}, {"measure": "Change From Baseline in Peak Oxygen Consumption (VO2) at Week 12", "description": "Peak VO2 was obtained from Cardiopulmonary Exercise Test (CPET), which was used to evaluate the effect of praliciguat on peak exercise capacity. Baseline is defined as the last non-missing measurement prior to the first dose of study drug. Change from Baseline was calculated by subtracting Baseline value from the Week 12 value. Data were analyzed using an analysis of covariance (ANCOVA) model with treatment group and atrial fibrillation stratification factors as categorical variable terms and Baseline peak VO2 value as a covariate. Milliliter O2 per kilogram per minute = mL O2/kg/min", "timeFrame": "Baseline and Week 12"}], "secondaryOutcomes": [{"measure": "Change From Baseline in 6-minute Walk Test (6MWT) Distance at Week 12", "description": "6MWT was a simple assessment of everyday functional capacity and provided a global evaluation of the organ/physiologic systems involved in exercise. 6MWT assessed the distance travelled in 6 minutes, measured at approximately the same time of day. Baseline is defined as the last non-missing measurement prior to the first dose of study drug. Change from Baseline was calculated by subtracting Baseline value from the Week 12 value. Data were analyzed using an ANCOVA model with treatment group, atrial fibrillation stratification factor and peak VO2 stratification factor as categorical variable terms and Baseline value as a covariate.", "timeFrame": "Baseline and Week 12"}, {"measure": "Change From Baseline in Ventilatory Efficiency at Week 12", "description": "Ventilatory efficiency was defined as minute ventilation/carbon dioxide (VE/VCO2) slope, production and was obtained from CPET. Baseline is defined as the last non-missing measurement prior to the first dose of study drug. Change from Baseline was calculated by subtracting Baseline value from the Week 12 value. Data were analyzed using an ANCOVA model with treatment group, atrial fibrillation stratification factor and peak VO2 stratification factor as categorical variable terms and baseline value as a covariate.", "timeFrame": "Baseline and Week 12"}, {"measure": "CPET Responders at Week 12", "description": "CPET responders were defined as participants who improved by at least 1.5 mL O2/kg/min in peak VO2 from Baseline to Week 12. Baseline is defined as the last non-missing measurement prior to the first dose of study drug.", "timeFrame": "At Week 12"}]}, "eligibilityModule": {"eligibilityCriteria": "Inclusion Criteria:\n\n1. Patient is an ambulatory male or female \u226545 years old at the Screening Visit\n2. Patient has heart failure with ejection fraction (EF) of \u226540%\n3. Patient has a peak VO2 measuring \\<80% of age- and sex-adjusted normal values\n4. Patient has evidence in medical history supporting clinical heart failure syndrome consisting of at least 1 of the following:\n\n   1. Hospitalization or emergency department visit for heart failure within the past year\n   2. Elevated B-type natriuretic peptide (BNP) or N-terminal pro b-type natriuretic peptide (NT-proBNP) within the past 6 months\n   3. Echocardiographic evidence within the past 12 months of at least 2 of the following: left ventricular (LV) hypertrophy, left atrial (LA) enlargement, or diastolic dysfunction\n   4. Hemodynamic evidence of elevated filling pressures\n5. Patient meets at least 2 of the following criteria at the Screening Visit:\n\n   1. Diagnosis of type 2 diabetes mellitus or prediabetes\n   2. History of hypertension\n   3. Body mass index (BMI) \\>30 kg/m2\n   4. Age \u226570 years\n\nExclusion Criteria:\n\n1. Patient has had acute coronary syndrome or percutaneous coronary intervention within 30 days before Randomization\n2. Patient has had cardiac transplantation or has cardiac transplantation planned during the study\n3. Patient has had cardiac artery bypass graft, cardiac mechanical support implantation, or other cardiac surgery in the 3 months before the Screening Visit or planned during the study\n4. Patient has severe chronic obstructive coronary disease as defined by chronic oxygen dependence\n5. Patient had had heart failure hospitalization with discharge within 30 days before the Screening Visit\n6. Patient has a history of clinically significant hypersensitivity or allergies to any of the inactive ingredients contained in the active or placebo drug products\n7. Patient has previously received IW-1973 in a study, or received an investigational drug during the 30 days or 5 half lives of that investigational drug (whichever is longer) before the Screening Visit, or is planning to receive another investigational drug at any time during the study\n8. Patient is taking specific inhibitors of phosphodiesterase 5 (PDE5), nonspecific inhibitors of PDE5, any supplements for the treatment of erectile dysfunction, riociguat, or nitrates or nitric oxide (NO) donors in any form\n9. Patient is taking strong cytochrome P450 3A (CYP3A) inhibitors\n10. Women of childbearing potential must have a negative pregnancy test prior to randomization and must agree to use protocol-specified contraception from the Screening Visit through 60 days after the final dose of study drug\n11. Male patients must be surgically sterile by vasectomy (conducted \u226560 days before the Screening Visit or confirmed via sperm analysis) or must agree to use protocol-specified contraception from the Screening Visit through 60 days after the final dose of study drug\n12. Other exclusion criteria per protocol", "healthyVolunteers": false, "sex": "ALL", "minimumAge": "45 Years", "stdAges": ["ADULT", "OLDER_ADULT"]}, "contactsLocationsModule": {"overallOfficials": [{"name": "Jelena Seferovic, MD PhD", "affiliation": "Cyclerion Therapeutics, Inc.", "role": "STUDY_DIRECTOR"}], "locations": [{"facility": "Arizona Arrhythmia Research Center", "city": "Phoenix", "state": "Arizona", "zip": "85016", "country": "United States", "geoPoint": {"lat": 33.44838, "lon": -112.07404}}, {"facility": "Mayo Clinic", "city": "Scottsdale", "state": "Arizona", "zip": "85259", "country": "United States", "geoPoint": {"lat": 33.50921, "lon": -111.89903}}, {"facility": "University of Arizona", "city": "Tucson", "state": "Arizona", "zip": "85724", "country": "United States", "geoPoint": {"lat": 32.22174, "lon": -110.92648}}, {"facility": "Cardiology and Medicine Clinic", "city": "Little Rock", "state": "Arkansas", "zip": "72204", "country": "United States", "geoPoint": {"lat": 34.74648, "lon": -92.28959}}, {"facility": "JEHM", "city": "La Mesa", "state": "California", "zip": "91941", "country": "United States", "geoPoint": {"lat": 32.76783, "lon": -117.02308}}, {"facility": "Axis Clinical Trials", "city": "Los Angeles", "state": "California", "zip": "90036", "country": "United States", "geoPoint": {"lat": 34.05223, "lon": -118.24368}}, {"facility": "JEHM", "city": "National City", "state": "California", "zip": "91950", "country": "United States", "geoPoint": {"lat": 32.67811, "lon": -117.0992}}, {"facility": "Valley Clinical Trials", "city": "Northridge", "state": "California", "zip": "91325", "country": "United States", "geoPoint": {"lat": 34.22834, "lon": -118.53675}}, {"facility": "Stanford University", "city": "Palo Alto", "state": "California", "zip": "94305", "country": "United States", "geoPoint": {"lat": 37.44188, "lon": -122.14302}}, {"facility": "Harbor UCLA Medical Center", "city": "Torrance", "state": "California", "zip": "90509", "country": "United States", "geoPoint": {"lat": 33.83585, "lon": -118.34063}}, {"facility": "Aurora Denver Cardiology", "city": "Denver", "state": "Colorado", "zip": "80218", "country": "United States", "geoPoint": {"lat": 39.73915, "lon": -104.9847}}, {"facility": "South Denver Cardiology Associates", "city": "Littleton", "state": "Colorado", "zip": "80120", "country": "United States", "geoPoint": {"lat": 39.61332, "lon": -105.01665}}, {"facility": "Holy Cross Hospital", "city": "Fort Lauderdale", "state": "Florida", "zip": "33308", "country": "United States", "geoPoint": {"lat": 26.12231, "lon": -80.14338}}, {"facility": "New Generation of Medical Research", "city": "Hialeah", "state": "Florida", "zip": "33016", "country": "United States", "geoPoint": {"lat": 25.8576, "lon": -80.27811}}, {"facility": "East Coast Institute for Research", "city": "Jacksonville", "state": "Florida", "zip": "32216", "country": "United States", "geoPoint": {"lat": 30.33218, "lon": -81.65565}}, {"facility": "PCRS Network, LLC", "city": "Miami", "state": "Florida", "zip": "33126", "country": "United States", "geoPoint": {"lat": 25.77427, "lon": -80.19366}}, {"facility": "Broward Research Center", "city": "Pembroke Pines", "state": "Florida", "zip": "33024", "country": "United States", "geoPoint": {"lat": 26.00315, "lon": -80.22394}}, {"facility": "Progressive Medical Research", "city": "Port Orange", "state": "Florida", "zip": "32127", "country": "United States", "geoPoint": {"lat": 29.13832, "lon": -80.99561}}, {"facility": "St. Luke's Regional Medical Center", "city": "Boise", "state": "Idaho", "zip": "83712", "country": "United States", "geoPoint": {"lat": 43.6135, "lon": -116.20345}}, {"facility": "Northwestern University", "city": "Chicago", "state": "Illinois", "zip": "60611", "country": "United States", "geoPoint": {"lat": 41.85003, "lon": -87.65005}}, {"facility": "Unity Point Health - Methodist Hospital", "city": "Peoria", "state": "Illinois", "zip": "61602", "country": "United States", "geoPoint": {"lat": 40.69365, "lon": -89.58899}}, {"facility": "Franciscan Physician Network - Indiana Heart Physicians", "city": "Indianapolis", "state": "Indiana", "zip": "46237", "country": "United States", "geoPoint": {"lat": 39.76838, "lon": -86.15804}}, {"facility": "University of Kansas Medical Center", "city": "Kansas City", "state": "Kansas", "zip": "66160", "country": "United States", "geoPoint": {"lat": 39.11417, "lon": -94.62746}}, {"facility": "Lousiana Heart Center", "city": "Bogalusa", "state": "Louisiana", "zip": "70427", "country": "United States", "geoPoint": {"lat": 30.79102, "lon": -89.84869}}, {"facility": "Tufts Medical Center", "city": "Boston", "state": "Massachusetts", "zip": "02111", "country": "United States", "geoPoint": {"lat": 42.35843, "lon": -71.05977}}, {"facility": "Massachusetts General Hospital", "city": "Boston", "state": "Massachusetts", "zip": "02114", "country": "United States", "geoPoint": {"lat": 42.35843, "lon": -71.05977}}, {"facility": "Boston University School of Medicine", "city": "Boston", "state": "Massachusetts", "zip": "02118", "country": "United States", "geoPoint": {"lat": 42.35843, "lon": -71.05977}}, {"facility": "Lahey Clinic", "city": "Burlington", "state": "Massachusetts", "zip": "01805", "country": "United States", "geoPoint": {"lat": 42.50482, "lon": -71.19561}}, {"facility": "Michigan Heart", "city": "Ypsilanti", "state": "Michigan", "zip": "48197", "country": "United States", "geoPoint": {"lat": 42.24115, "lon": -83.61299}}, {"facility": "University of Minnesota", "city": "Minneapolis", "state": "Minnesota", "zip": "55455", "country": "United States", "geoPoint": {"lat": 44.97997, "lon": -93.26384}}, {"facility": "Mayo Clinic", "city": "Rochester", "state": "Minnesota", "zip": "55905", "country": "United States", "geoPoint": {"lat": 44.02163, "lon": -92.4699}}, {"facility": "VA Healthcare John Cochran Medical Center", "city": "Saint Louis", "state": "Missouri", "zip": "63106", "country": "United States", "geoPoint": {"lat": 38.62727, "lon": -90.19789}}, {"facility": "Washington University", "city": "Saint Louis", "state": "Missouri", "zip": "63110", "country": "United States", "geoPoint": {"lat": 38.62727, "lon": -90.19789}}, {"facility": "The Valley Hospital", "city": "Ridgewood", "state": "New Jersey", "zip": "07450", "country": "United States", "geoPoint": {"lat": 40.97926, "lon": -74.11653}}, {"facility": "Mount Sinai School of Medicine", "city": "New York", "state": "New York", "zip": "10025", "country": "United States", "geoPoint": {"lat": 40.71427, "lon": -74.00597}}, {"facility": "Duke University Medical Center", "city": "Durham", "state": "North Carolina", "zip": "27710", "country": "United States", "geoPoint": {"lat": 35.99403, "lon": -78.89862}}, {"facility": "Ohio State University Medical Center (OSUMC)", "city": "Columbus", "state": "Ohio", "zip": "43210", "country": "United States", "geoPoint": {"lat": 39.96118, "lon": -82.99879}}, {"facility": "ProMedica Toledo Hospital", "city": "Toledo", "state": "Ohio", "zip": "43606", "country": "United States", "geoPoint": {"lat": 41.66394, "lon": -83.55521}}, {"facility": "South Oklahoma Heart Research", "city": "Oklahoma City", "state": "Oklahoma", "zip": "73135", "country": "United States", "geoPoint": {"lat": 35.46756, "lon": -97.51643}}, {"facility": "Newton Clinical Research", "city": "Oklahoma City", "state": "Oklahoma", "zip": "73159", "country": "United States", "geoPoint": {"lat": 35.46756, "lon": -97.51643}}, {"facility": "Oklahoma Heart Institute", "city": "Tulsa", "state": "Oklahoma", "zip": "74104", "country": "United States", "geoPoint": {"lat": 36.15398, "lon": -95.99277}}, {"facility": "Oregon Health & Science University (OHSU)", "city": "Portland", "state": "Oregon", "zip": "97239", "country": "United States", "geoPoint": {"lat": 45.52345, "lon": -122.67621}}, {"facility": "PeaceHealth, Sacred Heart Physicians", "city": "Springfield", "state": "Oregon", "zip": "97477", "country": "United States", "geoPoint": {"lat": 44.04624, "lon": -123.02203}}, {"facility": "Research Institute of Lancaster General Health", "city": "Lancaster", "state": "Pennsylvania", "zip": "17602", "country": "United States", "geoPoint": {"lat": 40.03788, "lon": -76.30551}}, {"facility": "Drexel University College of Medicine", "city": "Philadelphia", "state": "Pennsylvania", "zip": "19102", "country": "United States", "geoPoint": {"lat": 39.95233, "lon": -75.16379}}, {"facility": "Vanderbilt University Medical Center", "city": "Nashville", "state": "Tennessee", "zip": "37232", "country": "United States", "geoPoint": {"lat": 36.16589, "lon": -86.78444}}, {"facility": "North Dallas Research Associates", "city": "Dallas", "state": "Texas", "zip": "75069", "country": "United States", "geoPoint": {"lat": 32.78306, "lon": -96.80667}}, {"facility": "Texas Health Research and Education Insitute", "city": "Dallas", "state": "Texas", "zip": "75231", "country": "United States", "geoPoint": {"lat": 32.78306, "lon": -96.80667}}, {"facility": "Southwest Family Medicine Associates", "city": "Dallas", "state": "Texas", "zip": "75235", "country": "United States", "geoPoint": {"lat": 32.78306, "lon": -96.80667}}, {"facility": "Baylor University Medical Center", "city": "Dallas", "state": "Texas", "zip": "75246", "country": "United States", "geoPoint": {"lat": 32.78306, "lon": -96.80667}}, {"facility": "University of Texas Southwestern Medical Center", "city": "Dallas", "state": "Texas", "zip": "75390", "country": "United States", "geoPoint": {"lat": 32.78306, "lon": -96.80667}}, {"facility": "Schnitzler Cardiovascular Consultants", "city": "San Antonio", "state": "Texas", "zip": "78229", "country": "United States", "geoPoint": {"lat": 29.42412, "lon": -98.49363}}, {"facility": "University of Vermont Medical Center", "city": "Burlington", "state": "Vermont", "zip": "05401", "country": "United States", "geoPoint": {"lat": 44.47588, "lon": -73.21207}}, {"facility": "Virginia Commonwealth University Medical College of Virginia", "city": "Richmond", "state": "Virginia", "zip": "23298", "country": "United States", "geoPoint": {"lat": 37.55376, "lon": -77.46026}}, {"facility": "Madigan Army Medical Center", "city": "Tacoma", "state": "Washington", "zip": "98431", "country": "United States", "geoPoint": {"lat": 47.25288, "lon": -122.44429}}, {"facility": "Unity Point Health", "city": "Madison", "state": "Wisconsin", "zip": "53713", "country": "United States", "geoPoint": {"lat": 43.07305, "lon": -89.40123}}, {"facility": "University of Wisconsin - Madison", "city": "Madison", "state": "Wisconsin", "zip": "53792", "country": "United States", "geoPoint": {"lat": 43.07305, "lon": -89.40123}}, {"facility": "London Health Sciences Centre", "city": "London", "state": "Ontario", "zip": "N6A 5A5", "country": "Canada", "geoPoint": {"lat": 42.98339, "lon": -81.23304}}, {"facility": "Mount Sinai Hospital", "city": "Toronto", "state": "Ontario", "zip": "M5G 1X5", "country": "Canada", "geoPoint": {"lat": 43.70011, "lon": -79.4163}}, {"facility": "Ecogene-21", "city": "Chicoutimi", "state": "Quebec", "zip": "G7H 7K9", "country": "Canada", "geoPoint": {"lat": 48.41963, "lon": -71.06369}}, {"facility": "CIUSSS de l'Estrie - CHUS", "city": "Sherbrooke", "state": "Quebec", "zip": "J1G 2E8", "country": "Canada", "geoPoint": {"lat": 45.40008, "lon": -71.89908}}, {"facility": "Institut Universitaire de Cardiologie et de Pneumologie De Quebec", "city": "Qu\u00e9bec", "zip": "G1V 4G5", "country": "Canada", "geoPoint": {"lat": 46.81228, "lon": -71.21454}}]}, "referencesModule": {"references": [{"pmid": "33079154", "type": "DERIVED", "citation": "Udelson JE, Lewis GD, Shah SJ, Zile MR, Redfield MM, Burnett J Jr, Parker J, Seferovic JP, Wilson P, Mittleman RS, Profy AT, Konstam MA. Effect of Praliciguat on Peak Rate of Oxygen Consumption in Patients With Heart Failure With Preserved Ejection Fraction: The CAPACITY HFpEF Randomized Clinical Trial. JAMA. 2020 Oct 20;324(15):1522-1531. doi: 10.1001/jama.2020.16641."}, {"pmid": "32105984", "type": "DERIVED", "citation": "Udelson JE, Lewis GD, Shah SJ, Zile MR, Redfield MM, Burnett J Jr, Mittleman RS, Profy AT, Seferovic JP, Reasner D, Konstam MA. Rationale and design for a multicenter, randomized, double-blind, placebo-controlled, phase 2 study evaluating the safety and efficacy of the soluble guanylate cyclase stimulator praliciguat over 12 weeks in patients with heart failure with preserved ejection fraction (CAPACITY HFpEF). Am Heart J. 2020 Apr;222:183-190. doi: 10.1016/j.ahj.2020.01.009. Epub 2020 Jan 21."}]}, "ipdSharingStatementModule": {"ipdSharing": "NO"}}, "resultsSection": {"participantFlowModule": {"preAssignmentDetails": "A total of 196 participants were enrolled in the study. Participants enrolled under protocol amendment 2 (or earlier) were randomized in a 1:1:1:1 ratio to 10 milligrams (mg) praliciguat, 20 mg praliciguat, 40 mg praliciguat, or placebo. Participants enrolled under protocol amendment 3 were randomized in a 1:1 ratio to either 40 mg praliciguat or placebo.", "recruitmentDetails": "This was a multicenter, randomized, double-blind, placebo-controlled, parallel-group study to evaluate the safety and efficacy of different doses of praliciguat (IW-1973) compared with placebo in participants with heart failure with preserved ejection fraction (HFpEF).", "groups": [{"id": "FG000", "title": "Placebo", "description": "Participants were randomized to receive matching placebo orally for 12 weeks: 2 weeks of twice daily (BID) dosing followed by 10 weeks of once daily (QD) dosing."}, {"id": "FG001", "title": "Praliciguat 10 mg", "description": "Participants were randomized to receive praliciguat 10 mg orally for 12 weeks: 2 weeks of BID dosing followed by 10 weeks of QD dosing."}, {"id": "FG002", "title": "Praliciguat 20 mg", "description": "Participants were randomized to receive praliciguat 20 mg orally for 12 weeks: 2 weeks of BID dosing followed by 10 weeks of QD dosing."}, {"id": "FG003", "title": "Praliciguat 40 mg", "description": "Participants were randomized to receive praliciguat 40 mg orally for 12 weeks: 2 weeks of BID dosing followed by 10 weeks of QD dosing."}], "periods": [{"title": "Overall Study", "milestones": [{"type": "STARTED", "achievements": [{"groupId": "FG000", "numSubjects": "90"}, {"groupId": "FG001", "numSubjects": "7"}, {"groupId": "FG002", "numSubjects": "7"}, {"groupId": "FG003", "numSubjects": "92"}]}, {"type": "COMPLETED", "achievements": [{"groupId": "FG000", "numSubjects": "78"}, {"groupId": "FG001", "numSubjects": "7"}, {"groupId": "FG002", "numSubjects": "7"}, {"groupId": "FG003", "numSubjects": "77"}]}, {"type": "NOT COMPLETED", "achievements": [{"groupId": "FG000", "numSubjects": "12"}, {"groupId": "FG001", "numSubjects": "0"}, {"groupId": "FG002", "numSubjects": "0"}, {"groupId": "FG003", "numSubjects": "15"}]}], "dropWithdraws": [{"type": "Adverse Event", "reasons": [{"groupId": "FG000", "numSubjects": "3"}, {"groupId": "FG001", "numSubjects": "0"}, {"groupId": "FG002", "numSubjects": "0"}, {"groupId": "FG003", "numSubjects": "6"}]}, {"type": "Protocol Violation", "reasons": [{"groupId": "FG000", "numSubjects": "6"}, {"groupId": "FG001", "numSubjects": "0"}, {"groupId": "FG002", "numSubjects": "0"}, {"groupId": "FG003", "numSubjects": "2"}]}, {"type": "Withdrawal by Subject", "reasons": [{"groupId": "FG000", "numSubjects": "1"}, {"groupId": "FG001", "numSubjects": "0"}, {"groupId": "FG002", "numSubjects": "0"}, {"groupId": "FG003", "numSubjects": "4"}]}, {"type": "Death", "reasons": [{"groupId": "FG000", "numSubjects": "0"}, {"groupId": "FG001", "numSubjects": "0"}, {"groupId": "FG002", "numSubjects": "0"}, {"groupId": "FG003", "numSubjects": "1"}]}, {"type": "Lost to Follow-up", "reasons": [{"groupId": "FG000", "numSubjects": "1"}, {"groupId": "FG001", "numSubjects": "0"}, {"groupId": "FG002", "numSubjects": "0"}, {"groupId": "FG003", "numSubjects": "0"}]}, {"type": "Other", "reasons": [{"groupId": "FG000", "numSubjects": "1"}, {"groupId": "FG001", "numSubjects": "0"}, {"groupId": "FG002", "numSubjects": "0"}, {"groupId": "FG003", "numSubjects": "2"}]}]}]}, "baselineCharacteristicsModule": {"populationDescription": "Intent-To-Treat (ITT) Population: The ITT Population consisted of all randomized participants.", "groups": [{"id": "BG000", "title": "Placebo", "description": "Participants were randomized to receive matching placebo orally for 12 weeks: 2 weeks of twice daily (BID) dosing followed by 10 weeks of once daily (QD) dosing."}, {"id": "BG001", "title": "Praliciguat 10 mg", "description": "Participants were randomized to receive praliciguat 10 mg orally for 12 weeks: 2 weeks of BID dosing followed by 10 weeks of QD dosing."}, {"id": "BG002", "title": "Praliciguat 20 mg", "description": "Participants were randomized to receive praliciguat 20 mg orally for 12 weeks: 2 weeks of BID dosing followed by 10 weeks of QD dosing."}, {"id": "BG003", "title": "Praliciguat 40 mg", "description": "Participants were randomized to receive praliciguat 40 mg orally for 12 weeks: 2 weeks of BID dosing followed by 10 weeks of QD dosing."}, {"id": "BG004", "title": "Total", "description": "Total of all reporting groups"}], "denoms": [{"units": "Participants", "counts": [{"groupId": "BG000", "value": "90"}, {"groupId": "BG001", "value": "7"}, {"groupId": "BG002", "value": "7"}, {"groupId": "BG003", "value": "92"}, {"groupId": "BG004", "value": "196"}]}], "measures": [{"title": "Age, Continuous", "paramType": "MEAN", "dispersionType": "STANDARD_DEVIATION", "unitOfMeasure": "years", "classes": [{"categories": [{"measurements": [{"groupId": "BG000", "value": "70.1", "spread": "9.0"}, {"groupId": "BG001", "value": "67.3", "spread": "9.6"}, {"groupId": "BG002", "value": "69.1", "spread": "4.6"}, {"groupId": "BG003", "value": "70.8", "spread": "9.1"}, {"groupId": "BG004", "value": "70.3", "spread": "8.9"}]}]}]}, {"title": "Sex: Female, Male", "paramType": "COUNT_OF_PARTICIPANTS", "unitOfMeasure": "Participants", "classes": [{"categories": [{"title": "Female", "measurements": [{"groupId": "BG000", "value": "40"}, {"groupId": "BG001", "value": "5"}, {"groupId": "BG002", "value": "3"}, {"groupId": "BG003", "value": "35"}, {"groupId": "BG004", "value": "83"}]}, {"title": "Male", "measurements": [{"groupId": "BG000", "value": "50"}, {"groupId": "BG001", "value": "2"}, {"groupId": "BG002", "value": "4"}, {"groupId": "BG003", "value": "57"}, {"groupId": "BG004", "value": "113"}]}]}]}, {"title": "Ethnicity (NIH/OMB)", "paramType": "COUNT_OF_PARTICIPANTS", "unitOfMeasure": "Participants", "classes": [{"categories": [{"title": "Hispanic or Latino", "measurements": [{"groupId": "BG000", "value": "20"}, {"groupId": "BG001", "value": "0"}, {"groupId": "BG002", "value": "0"}, {"groupId": "BG003", "value": "20"}, {"groupId": "BG004", "value": "40"}]}, {"title": "Not Hispanic or Latino", "measurements": [{"groupId": "BG000", "value": "69"}, {"groupId": "BG001", "value": "7"}, {"groupId": "BG002", "value": "7"}, {"groupId": "BG003", "value": "72"}, {"groupId": "BG004", "value": "155"}]}, {"title": "Unknown or Not Reported", "measurements": [{"groupId": "BG000", "value": "1"}, {"groupId": "BG001", "value": "0"}, {"groupId": "BG002", "value": "0"}, {"groupId": "BG003", "value": "0"}, {"groupId": "BG004", "value": "1"}]}]}]}, {"title": "Race (NIH/OMB)", "paramType": "COUNT_OF_PARTICIPANTS", "unitOfMeasure": "Participants", "classes": [{"categories": [{"title": "American Indian or Alaska Native", "measurements": [{"groupId": "BG000", "value": "1"}, {"groupId": "BG001", "value": "0"}, {"groupId": "BG002", "value": "0"}, {"groupId": "BG003", "value": "0"}, {"groupId": "BG004", "value": "1"}]}, {"title": "Asian", "measurements": [{"groupId": "BG000", "value": "1"}, {"groupId": "BG001", "value": "0"}, {"groupId": "BG002", "value": "0"}, {"groupId": "BG003", "value": "0"}, {"groupId": "BG004", "value": "1"}]}, {"title": "Native Hawaiian or Other Pacific Islander", "measurements": [{"groupId": "BG000", "value": "1"}, {"groupId": "BG001", "value": "0"}, {"groupId": "BG002", "value": "0"}, {"groupId": "BG003", "value": "0"}, {"groupId": "BG004", "value": "1"}]}, {"title": "Black or African American", "measurements": [{"groupId": "BG000", "value": "19"}, {"groupId": "BG001", "value": "1"}, {"groupId": "BG002", "value": "2"}, {"groupId": "BG003", "value": "17"}, {"groupId": "BG004", "value": "39"}]}, {"title": "White", "measurements": [{"groupId": "BG000", "value": "65"}, {"groupId": "BG001", "value": "6"}, {"groupId": "BG002", "value": "5"}, {"groupId": "BG003", "value": "72"}, {"groupId": "BG004", "value": "148"}]}, {"title": "More than one race", "measurements": [{"groupId": "BG000", "value": "2"}, {"groupId": "BG001", "value": "0"}, {"groupId": "BG002", "value": "0"}, {"groupId": "BG003", "value": "1"}, {"groupId": "BG004", "value": "3"}]}, {"title": "Unknown or Not Reported", "measurements": [{"groupId": "BG000", "value": "1"}, {"groupId": "BG001", "value": "0"}, {"groupId": "BG002", "value": "0"}, {"groupId": "BG003", "value": "2"}, {"groupId": "BG004", "value": "3"}]}]}]}]}, "outcomeMeasuresModule": {"outcomeMeasures": [{"type": "PRIMARY", "title": "Number of Participants With Treatment-emergent Adverse Events (TEAEs) and Study Drug-related TEAEs", "description": "An adverse event (AE) is any untoward medical occurrence in a participant or clinical investigation participant administered a pharmaceutical product and which does not necessarily have to have a causal relationship with this treatment. TEAEs are defined as those adverse events (AEs) that started or worsened in severity after the administration of study drug. Causality relationship to study drug was per Investigator assessment. Number of participants with TEAEs and study drug-related TEAEs is presented.", "populationDescription": "Safety Population consisted of all randomized participants who took at least 1 dose of study drug.", "reportingStatus": "POSTED", "paramType": "COUNT_OF_PARTICIPANTS", "unitOfMeasure": "Participants", "timeFrame": "Day 1 up to Day 113", "groups": [{"id": "OG000", "title": "Placebo", "description": "Participants were randomized to receive matching placebo orally for 12 weeks: 2 weeks of twice daily (BID) dosing followed by 10 weeks of once daily (QD) dosing."}, {"id": "OG001", "title": "Praliciguat 10 mg", "description": "Participants were randomized to receive praliciguat 10 mg orally for 12 weeks: 2 weeks of BID dosing followed by 10 weeks of QD dosing."}, {"id": "OG002", "title": "Praliciguat 20 mg", "description": "Participants were randomized to receive praliciguat 20 mg orally for 12 weeks: 2 weeks of BID dosing followed by 10 weeks of QD dosing."}, {"id": "OG003", "title": "Praliciguat 40 mg", "description": "Participants were randomized to receive praliciguat 40 mg orally for 12 weeks: 2 weeks of BID dosing followed by 10 weeks of QD dosing."}], "denoms": [{"units": "Participants", "counts": [{"groupId": "OG000", "value": "90"}, {"groupId": "OG001", "value": "7"}, {"groupId": "OG002", "value": "7"}, {"groupId": "OG003", "value": "91"}]}], "classes": [{"title": "TEAEs", "categories": [{"measurements": [{"groupId": "OG000", "value": "61"}, {"groupId": "OG001", "value": "4"}, {"groupId": "OG002", "value": "6"}, {"groupId": "OG003", "value": "72"}]}]}, {"title": "Study drug-related TEAEs", "categories": [{"measurements": [{"groupId": "OG000", "value": "9"}, {"groupId": "OG001", "value": "1"}, {"groupId": "OG002", "value": "0"}, {"groupId": "OG003", "value": "22"}]}]}]}, {"type": "PRIMARY", "title": "Change From Baseline in Peak Oxygen Consumption (VO2) at Week 12", "description": "Peak VO2 was obtained from Cardiopulmonary Exercise Test (CPET), which was used to evaluate the effect of praliciguat on peak exercise capacity. Baseline is defined as the last non-missing measurement prior to the first dose of study drug. Change from Baseline was calculated by subtracting Baseline value from the Week 12 value. Data were analyzed using an analysis of covariance (ANCOVA) model with treatment group and atrial fibrillation stratification factors as categorical variable terms and Baseline peak VO2 value as a covariate. Milliliter O2 per kilogram per minute = mL O2/kg/min", "populationDescription": "Evaluable Population consisted of all participants in the modified (m)ITT population who completed 8 weeks of dosing (\u00b13 days) and had at least 1 evaluable post-Baseline assessment and did not have a dose reduction. Only those participants with data available at the specified data points were analyzed. Following protocol amendment 3, efficacy analyses included only the praliciguat 40 mg and placebo groups; the praliciguat 10 mg and 20 mg groups were excluded from all efficacy analysis.", "reportingStatus": "POSTED", "paramType": "LEAST_SQUARES_MEAN", "dispersionType": "95% Confidence Interval", "unitOfMeasure": "mL O2/kg/min", "timeFrame": "Baseline and Week 12", "groups": [{"id": "OG000", "title": "Placebo", "description": "Participants were randomized to receive matching placebo orally for 12 weeks: 2 weeks of twice daily (BID) dosing followed by 10 weeks of once daily (QD) dosing."}, {"id": "OG001", "title": "Praliciguat 40 mg", "description": "Participants were randomized to receive praliciguat 40 mg orally for 12 weeks: 2 weeks of BID dosing followed by 10 weeks of QD dosing."}], "denoms": [{"units": "Participants", "counts": [{"groupId": "OG000", "value": "72"}, {"groupId": "OG001", "value": "64"}]}], "classes": [{"categories": [{"measurements": [{"groupId": "OG000", "value": "0.04", "lowerLimit": "-0.49", "upperLimit": "0.56"}, {"groupId": "OG001", "value": "-0.26", "lowerLimit": "-0.83", "upperLimit": "0.31"}]}]}], "analyses": [{"groupIds": ["OG000", "OG001"], "nonInferiorityType": "SUPERIORITY", "pValue": "=0.3681", "statisticalMethod": "ANCOVA", "paramType": "Least Squares Mean Difference", "paramValue": "-0.30", "ciPctValue": "95", "ciNumSides": "TWO_SIDED", "ciLowerLimit": "-0.95", "ciUpperLimit": "0.35"}]}, {"type": "SECONDARY", "title": "Change From Baseline in 6-minute Walk Test (6MWT) Distance at Week 12", "description": "6MWT was a simple assessment of everyday functional capacity and provided a global evaluation of the organ/physiologic systems involved in exercise. 6MWT assessed the distance travelled in 6 minutes, measured at approximately the same time of day. Baseline is defined as the last non-missing measurement prior to the first dose of study drug. Change from Baseline was calculated by subtracting Baseline value from the Week 12 value. Data were analyzed using an ANCOVA model with treatment group, atrial fibrillation stratification factor and peak VO2 stratification factor as categorical variable terms and Baseline value as a covariate.", "populationDescription": "Evaluable Population. Only those participants with data available at the specified data points were analyzed. Following protocol amendment 3, efficacy analyses included only the praliciguat 40 mg and placebo groups; the praliciguat 10 mg and 20 mg groups were excluded from all efficacy analysis.", "reportingStatus": "POSTED", "paramType": "LEAST_SQUARES_MEAN", "dispersionType": "95% Confidence Interval", "unitOfMeasure": "Meters", "timeFrame": "Baseline and Week 12", "groups": [{"id": "OG000", "title": "Placebo", "description": "Participants were randomized to receive matching placebo orally for 12 weeks: 2 weeks of twice daily (BID) dosing followed by 10 weeks of once daily (QD) dosing."}, {"id": "OG001", "title": "Praliciguat 40 mg", "description": "Participants were randomized to receive praliciguat 40 mg orally for 12 weeks: 2 weeks of BID dosing followed by 10 weeks of QD dosing."}], "denoms": [{"units": "Participants", "counts": [{"groupId": "OG000", "value": "72"}, {"groupId": "OG001", "value": "63"}]}], "classes": [{"categories": [{"measurements": [{"groupId": "OG000", "value": "58.12", "lowerLimit": "26.12", "upperLimit": "90.11"}, {"groupId": "OG001", "value": "41.38", "lowerLimit": "8.25", "upperLimit": "74.50"}]}]}], "analyses": [{"groupIds": ["OG000", "OG001"], "nonInferiorityType": "SUPERIORITY", "pValue": "=0.2817", "statisticalMethod": "ANCOVA", "paramType": "Least Squares Mean Difference", "paramValue": "-16.74", "ciPctValue": "95", "ciNumSides": "TWO_SIDED", "ciLowerLimit": "-47.38", "ciUpperLimit": "13.90"}]}, {"type": "SECONDARY", "title": "Change From Baseline in Ventilatory Efficiency at Week 12", "description": "Ventilatory efficiency was defined as minute ventilation/carbon dioxide (VE/VCO2) slope, production and was obtained from CPET. Baseline is defined as the last non-missing measurement prior to the first dose of study drug. Change from Baseline was calculated by subtracting Baseline value from the Week 12 value. Data were analyzed using an ANCOVA model with treatment group, atrial fibrillation stratification factor and peak VO2 stratification factor as categorical variable terms and baseline value as a covariate.", "populationDescription": "Evaluable Population. Only those participants with data available at the specified data points were analyzed. Following protocol amendment 3, efficacy analyses included only the praliciguat 40 mg and placebo groups; the praliciguat 10 mg and 20 mg groups were excluded from all efficacy analysis.", "reportingStatus": "POSTED", "paramType": "LEAST_SQUARES_MEAN", "dispersionType": "95% Confidence Interval", "unitOfMeasure": "VE/VCO2 Slope", "timeFrame": "Baseline and Week 12", "groups": [{"id": "OG000", "title": "Placebo", "description": "Participants were randomized to receive matching placebo orally for 12 weeks: 2 weeks of twice daily (BID) dosing followed by 10 weeks of once daily (QD) dosing."}, {"id": "OG001", "title": "Praliciguat 40 mg", "description": "Participants were randomized to receive praliciguat 40 mg orally for 12 weeks: 2 weeks of BID dosing followed by 10 weeks of QD dosing."}], "denoms": [{"units": "Participants", "counts": [{"groupId": "OG000", "value": "72"}, {"groupId": "OG001", "value": "64"}]}], "classes": [{"categories": [{"measurements": [{"groupId": "OG000", "value": "0.564", "lowerLimit": "-0.780", "upperLimit": "1.908"}, {"groupId": "OG001", "value": "0.267", "lowerLimit": "-1.118", "upperLimit": "1.652"}]}]}], "analyses": [{"groupIds": ["OG000", "OG001"], "nonInferiorityType": "SUPERIORITY", "pValue": "=0.6508", "statisticalMethod": "ANCOVA", "paramType": "Least Squares Mean Difference", "paramValue": "-0.297", "ciPctValue": "95", "ciNumSides": "TWO_SIDED", "ciLowerLimit": "-1.591", "ciUpperLimit": "0.997"}]}, {"type": "SECONDARY", "title": "CPET Responders at Week 12", "description": "CPET responders were defined as participants who improved by at least 1.5 mL O2/kg/min in peak VO2 from Baseline to Week 12. Baseline is defined as the last non-missing measurement prior to the first dose of study drug.", "populationDescription": "Evaluable Population. Only those participants with data available at the specified data points were analyzed. Following protocol amendment 3, efficacy analyses included only the praliciguat 40 mg and placebo groups; the praliciguat 10 mg and 20 mg groups were excluded from all efficacy analysis.", "reportingStatus": "POSTED", "paramType": "COUNT_OF_PARTICIPANTS", "unitOfMeasure": "Participants", "timeFrame": "At Week 12", "groups": [{"id": "OG000", "title": "Placebo", "description": "Participants were randomized to receive matching placebo orally for 12 weeks: 2 weeks of twice daily (BID) dosing followed by 10 weeks of once daily (QD) dosing."}, {"id": "OG001", "title": "Praliciguat 40 mg", "description": "Participants were randomized to receive praliciguat 40 mg orally for 12 weeks: 2 weeks of BID dosing followed by 10 weeks of QD dosing."}], "denoms": [{"units": "Participants", "counts": [{"groupId": "OG000", "value": "78"}, {"groupId": "OG001", "value": "65"}]}], "classes": [{"categories": [{"measurements": [{"groupId": "OG000", "value": "17"}, {"groupId": "OG001", "value": "13"}]}]}]}]}, "adverseEventsModule": {"frequencyThreshold": "0", "timeFrame": "From first dose of study drug (Day 1) up to Follow-up Visit (Day 113)", "description": "TEAEs, defined as those AEs that started or worsened in severity after the initiation of study drug administration are reported for the Safety Population which consisted of all randomized participants who took at least 1 dose of study drug.", "eventGroups": [{"id": "EG000", "title": "Placebo", "description": "Participants were randomized to receive matching placebo orally for 12 weeks: 2 weeks of twice daily (BID) dosing followed by 10 weeks of once daily (QD) dosing.", "deathsNumAffected": 0, "deathsNumAtRisk": 90, "seriousNumAffected": 9, "seriousNumAtRisk": 90, "otherNumAffected": 58, "otherNumAtRisk": 90}, {"id": "EG001", "title": "Praliciguat 10 mg", "description": "Participants were randomized to receive praliciguat 10 mg orally for 12 weeks: 2 weeks of BID dosing followed by 10 weeks of QD dosing.", "deathsNumAffected": 0, "deathsNumAtRisk": 7, "seriousNumAffected": 0, "seriousNumAtRisk": 7, "otherNumAffected": 4, "otherNumAtRisk": 7}, {"id": "EG002", "title": "Praliciguat 20 mg", "description": "Participants were randomized to receive praliciguat 20 mg orally for 12 weeks: 2 weeks of BID dosing followed by 10 weeks of QD dosing.", "deathsNumAffected": 0, "deathsNumAtRisk": 7, "seriousNumAffected": 0, "seriousNumAtRisk": 7, "otherNumAffected": 6, "otherNumAtRisk": 7}, {"id": "EG003", "title": "Praliciguat 40 mg", "description": "Participants were randomized to receive praliciguat 40 mg orally for 12 weeks: 2 weeks of BID dosing followed by 10 weeks of QD dosing.", "deathsNumAffected": 1, "deathsNumAtRisk": 91, "seriousNumAffected": 10, "seriousNumAtRisk": 91, "otherNumAffected": 68, "otherNumAtRisk": 91}], "seriousEvents": [{"term": "Acute coronary syndrome", "organSystem": "Cardiac disorders", "sourceVocabulary": "MedDra 20.0", "assessmentType": "SYSTEMATIC_ASSESSMENT", "stats": [{"groupId": "EG000", "numEvents": 0, "numAffected": 0, "numAtRisk": 90}, {"groupId": "EG001", "numEvents": 0, "numAffected": 0, "numAtRisk": 7}, {"groupId": "EG002", "numEvents": 0, "numAffected": 0, "numAtRisk": 7}, {"groupId": "EG003", "numEvents": 1, "numAffected": 1, "numAtRisk": 91}]}, {"term": "Acute kidney injury", "organSystem": "Renal and urinary disorders", "sourceVocabulary": "MedDra 20.0", "assessmentType": "SYSTEMATIC_ASSESSMENT", "stats": [{"groupId": "EG000", "numEvents": 0, "numAffected": 0, "numAtRisk": 90}, {"groupId": "EG001", "numEvents": 0, "numAffected": 0, "numAtRisk": 7}, {"groupId": "EG002", "numEvents": 0, "numAffected": 0, "numAtRisk": 7}, {"groupId": "EG003", "numEvents": 1, "numAffected": 1, "numAtRisk": 91}]}, {"term": "Acute respiratory failure", "organSystem": "Respiratory, thoracic and mediastinal disorders", "sourceVocabulary": "MedDra 20.0", "assessmentType": "SYSTEMATIC_ASSESSMENT", "stats": [{"groupId": "EG000", "numEvents": 0, "numAffected": 0, "numAtRisk": 90}, {"groupId": "EG001", "numEvents": 0, "numAffected": 0, "numAtRisk": 7}, {"groupId": "EG002", "numEvents": 0, "numAffected": 0, "numAtRisk": 7}, {"groupId": "EG003", "numEvents": 1, "numAffected": 1, "numAtRisk": 91}]}, {"term": "Atrial fibrillation", "organSystem": "Cardiac disorders", "sourceVocabulary": "MedDra 20.0", "assessmentType": "SYSTEMATIC_ASSESSMENT", "stats": [{"groupId": "EG000", "numEvents": 1, "numAffected": 1, "numAtRisk": 90}, {"groupId": "EG001", "numEvents": 0, "numAffected": 0, "numAtRisk": 7}, {"groupId": "EG002", "numEvents": 0, "numAffected": 0, "numAtRisk": 7}, {"groupId": "EG003", "numEvents": 1, "numAffected": 1, "numAtRisk": 91}]}, {"term": "Cardiac arrest", "organSystem": "Cardiac disorders", "sourceVocabulary": "MedDra 20.0", "assessmentType": "SYSTEMATIC_ASSESSMENT", "stats": [{"groupId": "EG000", "numEvents": 0, "numAffected": 0, "numAtRisk": 90}, {"groupId": "EG001", "numEvents": 0, "numAffected": 0, "numAtRisk": 7}, {"groupId": "EG002", "numEvents": 0, "numAffected": 0, "numAtRisk": 7}, {"groupId": "EG003", "numEvents": 1, "numAffected": 1, "numAtRisk": 91}]}, {"term": "Cardiac failure acute", "organSystem": "Cardiac disorders", "sourceVocabulary": "MedDra 20.0", "assessmentType": "SYSTEMATIC_ASSESSMENT", "stats": [{"groupId": "EG000", "numEvents": 1, "numAffected": 1, "numAtRisk": 90}, {"groupId": "EG001", "numEvents": 0, "numAffected": 0, "numAtRisk": 7}, {"groupId": "EG002", "numEvents": 0, "numAffected": 0, "numAtRisk": 7}, {"groupId": "EG003", "numEvents": 1, "numAffected": 1, "numAtRisk": 91}]}, {"term": "Cellulitis", "organSystem": "Infections and infestations", "sourceVocabulary": "MedDra 20.0", "assessmentType": "SYSTEMATIC_ASSESSMENT", "stats": [{"groupId": "EG000", "numEvents": 0, "numAffected": 0, "numAtRisk": 90}, {"groupId": "EG001", "numEvents": 0, "numAffected": 0, "numAtRisk": 7}, {"groupId": "EG002", "numEvents": 0, "numAffected": 0, "numAtRisk": 7}, {"groupId": "EG003", "numEvents": 1, "numAffected": 1, "numAtRisk": 91}]}, {"term": "Coronary artery disease", "organSystem": "Cardiac disorders", "sourceVocabulary": "MedDra 20.0", "assessmentType": "SYSTEMATIC_ASSESSMENT", "stats": [{"groupId": "EG000", "numEvents": 0, "numAffected": 0, "numAtRisk": 90}, {"groupId": "EG001", "numEvents": 0, "numAffected": 0, "numAtRisk": 7}, {"groupId": "EG002", "numEvents": 0, "numAffected": 0, "numAtRisk": 7}, {"groupId": "EG003", "numEvents": 1, "numAffected": 1, "numAtRisk": 91}]}, {"term": "Coronary artery restenosis", "organSystem": "Injury, poisoning and procedural complications", "sourceVocabulary": "MedDra 20.0", "assessmentType": "SYSTEMATIC_ASSESSMENT", "stats": [{"groupId": "EG000", "numEvents": 0, "numAffected": 0, "numAtRisk": 90}, {"groupId": "EG001", "numEvents": 0, "numAffected": 0, "numAtRisk": 7}, {"groupId": "EG002", "numEvents": 0, "numAffected": 0, "numAtRisk": 7}, {"groupId": "EG003", "numEvents": 1, "numAffected": 1, "numAtRisk": 91}]}, {"term": "Dizziness", "organSystem": "Nervous system disorders", "sourceVocabulary": "MedDra 20.0", "assessmentType": "SYSTEMATIC_ASSESSMENT", "stats": [{"groupId": "EG000", "numEvents": 0, "numAffected": 0, "numAtRisk": 90}, {"groupId": "EG001", "numEvents": 0, "numAffected": 0, "numAtRisk": 7}, {"groupId": "EG002", "numEvents": 0, "numAffected": 0, "numAtRisk": 7}, {"groupId": "EG003", "numEvents": 1, "numAffected": 1, "numAtRisk": 91}]}, {"term": "Fall", "organSystem": "Injury, poisoning and procedural complications", "sourceVocabulary": "MedDra 20.0", "assessmentType": "SYSTEMATIC_ASSESSMENT", "stats": [{"groupId": "EG000", "numEvents": 0, "numAffected": 0, "numAtRisk": 90}, {"groupId": "EG001", "numEvents": 0, "numAffected": 0, "numAtRisk": 7}, {"groupId": "EG002", "numEvents": 0, "numAffected": 0, "numAtRisk": 7}, {"groupId": "EG003", "numEvents": 1, "numAffected": 1, "numAtRisk": 91}]}, {"term": "Femoral neck fracture", "organSystem": "Injury, poisoning and procedural complications", "sourceVocabulary": "MedDra 20.0", "assessmentType": "SYSTEMATIC_ASSESSMENT", "stats": [{"groupId": "EG000", "numEvents": 0, "numAffected": 0, "numAtRisk": 90}, {"groupId": "EG001", "numEvents": 0, "numAffected": 0, "numAtRisk": 7}, {"groupId": "EG002", "numEvents": 0, "numAffected": 0, "numAtRisk": 7}, {"groupId": "EG003", "numEvents": 1, "numAffected": 1, "numAtRisk": 91}]}, {"term": "Hypertensive crisis", "organSystem": "Vascular disorders", "sourceVocabulary": "MedDra 20.0", "assessmentType": "SYSTEMATIC_ASSESSMENT", "stats": [{"groupId": "EG000", "numEvents": 0, "numAffected": 0, "numAtRisk": 90}, {"groupId": "EG001", "numEvents": 0, "numAffected": 0, "numAtRisk": 7}, {"groupId": "EG002", "numEvents": 0, "numAffected": 0, "numAtRisk": 7}, {"groupId": "EG003", "numEvents": 1, "numAffected": 1, "numAtRisk": 91}]}, {"term": "Ischaemic stroke", "organSystem": "Nervous system disorders", "sourceVocabulary": "MedDra 20.0", "assessmentType": "SYSTEMATIC_ASSESSMENT", "stats": [{"groupId": "EG000", "numEvents": 0, "numAffected": 0, "numAtRisk": 90}, {"groupId": "EG001", "numEvents": 0, "numAffected": 0, "numAtRisk": 7}, {"groupId": "EG002", "numEvents": 0, "numAffected": 0, "numAtRisk": 7}, {"groupId": "EG003", "numEvents": 1, "numAffected": 1, "numAtRisk": 91}]}, {"term": "Pneumonia", "organSystem": "Infections and infestations", "sourceVocabulary": "MedDra 20.0", "assessmentType": "SYSTEMATIC_ASSESSMENT", "stats": [{"groupId": "EG000", "numEvents": 1, "numAffected": 1, "numAtRisk": 90}, {"groupId": "EG001", "numEvents": 0, "numAffected": 0, "numAtRisk": 7}, {"groupId": "EG002", "numEvents": 0, "numAffected": 0, "numAtRisk": 7}, {"groupId": "EG003", "numEvents": 1, "numAffected": 1, "numAtRisk": 91}]}, {"term": "Procedural pain", "organSystem": "Injury, poisoning and procedural complications", "sourceVocabulary": "MedDra 20.0", "assessmentType": "SYSTEMATIC_ASSESSMENT", "stats": [{"groupId": "EG000", "numEvents": 0, "numAffected": 0, "numAtRisk": 90}, {"groupId": "EG001", "numEvents": 0, "numAffected": 0, "numAtRisk": 7}, {"groupId": "EG002", "numEvents": 0, "numAffected": 0, "numAtRisk": 7}, {"groupId": "EG003", "numEvents": 1, "numAffected": 1, "numAtRisk": 91}]}, {"term": "Small intestinal obstruction", "organSystem": "Gastrointestinal disorders", "sourceVocabulary": "MedDra 20.0", "assessmentType": "SYSTEMATIC_ASSESSMENT", "stats": [{"groupId": "EG000", "numEvents": 0, "numAffected": 0, "numAtRisk": 90}, {"groupId": "EG001", "numEvents": 0, "numAffected": 0, "numAtRisk": 7}, {"groupId": "EG002", "numEvents": 0, "numAffected": 0, "numAtRisk": 7}, {"groupId": "EG003", "numEvents": 1, "numAffected": 1, "numAtRisk": 91}]}, {"term": "Anaemia", "organSystem": "Blood and lymphatic system disorders", "sourceVocabulary": "MedDra 20.0", "assessmentType": "SYSTEMATIC_ASSESSMENT", "stats": [{"groupId": "EG000", "numEvents": 1, "numAffected": 1, "numAtRisk": 90}, {"groupId": "EG001", "numEvents": 0, "numAffected": 0, "numAtRisk": 7}, {"groupId": "EG002", "numEvents": 0, "numAffected": 0, "numAtRisk": 7}, {"groupId": "EG003", "numEvents": 0, "numAffected": 0, "numAtRisk": 91}]}, {"term": "Angina pectoris", "organSystem": "Cardiac disorders", "sourceVocabulary": "MedDra 20.0", "assessmentType": "SYSTEMATIC_ASSESSMENT", "stats": [{"groupId": "EG000", "numEvents": 1, "numAffected": 1, "numAtRisk": 90}, {"groupId": "EG001", "numEvents": 0, "numAffected": 0, "numAtRisk": 7}, {"groupId": "EG002", "numEvents": 0, "numAffected": 0, "numAtRisk": 7}, {"groupId": "EG003", "numEvents": 0, "numAffected": 0, "numAtRisk": 91}]}, {"term": "Cardiac failure", "organSystem": "Cardiac disorders", "sourceVocabulary": "MedDra 20.0", "assessmentType": "SYSTEMATIC_ASSESSMENT", "stats": [{"groupId": "EG000", "numEvents": 1, "numAffected": 1, "numAtRisk": 90}, {"groupId": "EG001", "numEvents": 0, "numAffected": 0, "numAtRisk": 7}, {"groupId": "EG002", "numEvents": 0, "numAffected": 0, "numAtRisk": 7}, {"groupId": "EG003", "numEvents": 0, "numAffected": 0, "numAtRisk": 91}]}, {"term": "Chondrocalcinosis pyrophosphate", "organSystem": "Musculoskeletal and connective tissue disorders", "sourceVocabulary": "MedDra 20.0", "assessmentType": "SYSTEMATIC_ASSESSMENT", "stats": [{"groupId": "EG000", "numEvents": 1, "numAffected": 1, "numAtRisk": 90}, {"groupId": "EG001", "numEvents": 0, "numAffected": 0, "numAtRisk": 7}, {"groupId": "EG002", "numEvents": 0, "numAffected": 0, "numAtRisk": 7}, {"groupId": "EG003", "numEvents": 0, "numAffected": 0, "numAtRisk": 91}]}, {"term": "Diabetic foot", "organSystem": "Skin and subcutaneous tissue disorders", "sourceVocabulary": "MedDra 20.0", "assessmentType": "SYSTEMATIC_ASSESSMENT", "stats": [{"groupId": "EG000", "numEvents": 1, "numAffected": 1, "numAtRisk": 90}, {"groupId": "EG001", "numEvents": 0, "numAffected": 0, "numAtRisk": 7}, {"groupId": "EG002", "numEvents": 0, "numAffected": 0, "numAtRisk": 7}, {"groupId": "EG003", "numEvents": 0, "numAffected": 0, "numAtRisk": 91}]}, {"term": "Dyspnoea", "organSystem": "Respiratory, thoracic and mediastinal disorders", "sourceVocabulary": "MedDra 20.0", "assessmentType": "SYSTEMATIC_ASSESSMENT", "stats": [{"groupId": "EG000", "numEvents": 2, "numAffected": 2, "numAtRisk": 90}, {"groupId": "EG001", "numEvents": 0, "numAffected": 0, "numAtRisk": 7}, {"groupId": "EG002", "numEvents": 0, "numAffected": 0, "numAtRisk": 7}, {"groupId": "EG003", "numEvents": 0, "numAffected": 0, "numAtRisk": 91}]}, {"term": "Sepsis", "organSystem": "Infections and infestations", "sourceVocabulary": "MedDra 20.0", "assessmentType": "SYSTEMATIC_ASSESSMENT", "stats": [{"groupId": "EG000", "numEvents": 1, "numAffected": 1, "numAtRisk": 90}, {"groupId": "EG001", "numEvents": 0, "numAffected": 0, "numAtRisk": 7}, {"groupId": "EG002", "numEvents": 0, "numAffected": 0, "numAtRisk": 7}, {"groupId": "EG003", "numEvents": 0, "numAffected": 0, "numAtRisk": 91}]}, {"term": "Septic shock", "organSystem": "Infections and infestations", "sourceVocabulary": "MedDra 20.0", "assessmentType": "SYSTEMATIC_ASSESSMENT", "stats": [{"groupId": "EG000", "numEvents": 1, "numAffected": 1, "numAtRisk": 90}, {"groupId": "EG001", "numEvents": 0, "numAffected": 0, "numAtRisk": 7}, {"groupId": "EG002", "numEvents": 0, "numAffected": 0, "numAtRisk": 7}, {"groupId": "EG003", "numEvents": 0, "numAffected": 0, "numAtRisk": 91}]}, {"term": "Non-cardiac chest pain", "organSystem": "General disorders", "sourceVocabulary": "MedDra 20.0", "assessmentType": "SYSTEMATIC_ASSESSMENT", "stats": [{"groupId": "EG000", "numEvents": 3, "numAffected": 2, "numAtRisk": 90}, {"groupId": "EG001", "numEvents": 0, "numAffected": 0, "numAtRisk": 7}, {"groupId": "EG002", "numEvents": 0, "numAffected": 0, "numAtRisk": 7}, {"groupId": "EG003", "numEvents": 0, "numAffected": 0, "numAtRisk": 91}]}], "otherEvents": [{"term": "Anaemia", "organSystem": "Blood and lymphatic system disorders", "sourceVocabulary": "MedDra 20.0", "assessmentType": "SYSTEMATIC_ASSESSMENT", "stats": [{"groupId": "EG000", "numEvents": 2, "numAffected": 2, "numAtRisk": 90}, {"groupId": "EG001", "numEvents": 0, "numAffected": 0, "numAtRisk": 7}, {"groupId": "EG002", "numEvents": 0, "numAffected": 0, "numAtRisk": 7}, {"groupId": "EG003", "numEvents": 4, "numAffected": 4, "numAtRisk": 91}]}, {"term": "Increased tendency to bruise", "organSystem": "Blood and lymphatic system disorders", "sourceVocabulary": "MedDra 20.0", "assessmentType": "SYSTEMATIC_ASSESSMENT", "stats": [{"groupId": "EG000", "numEvents": 0, "numAffected": 0, "numAtRisk": 90}, {"groupId": "EG001", "numEvents": 0, "numAffected": 0, "numAtRisk": 7}, {"groupId": "EG002", "numEvents": 0, "numAffected": 0, "numAtRisk": 7}, {"groupId": "EG003", "numEvents": 1, "numAffected": 1, "numAtRisk": 91}]}, {"term": "Leukocytosis", "organSystem": "Blood and lymphatic system disorders", "sourceVocabulary": "MedDra 20.0", "assessmentType": "SYSTEMATIC_ASSESSMENT", "stats": [{"groupId": "EG000", "numEvents": 0, "numAffected": 0, "numAtRisk": 90}, {"groupId": "EG001", "numEvents": 0, "numAffected": 0, "numAtRisk": 7}, {"groupId": "EG002", "numEvents": 0, "numAffected": 0, "numAtRisk": 7}, {"groupId": "EG003", "numEvents": 1, "numAffected": 1, "numAtRisk": 91}]}, {"term": "Lymphadenitis", "organSystem": "Blood and lymphatic system disorders", "sourceVocabulary": "MedDra 20.0", "assessmentType": "SYSTEMATIC_ASSESSMENT", "stats": [{"groupId": "EG000", "numEvents": 0, "numAffected": 0, "numAtRisk": 90}, {"groupId": "EG001", "numEvents": 0, "numAffected": 0, "numAtRisk": 7}, {"groupId": "EG002", "numEvents": 0, "numAffected": 0, "numAtRisk": 7}, {"groupId": "EG003", "numEvents": 1, "numAffected": 1, "numAtRisk": 91}]}, {"term": "Anaemia macrocytic", "organSystem": "Blood and lymphatic system disorders", "sourceVocabulary": "MedDra 20.0", "assessmentType": "SYSTEMATIC_ASSESSMENT", "stats": [{"groupId": "EG000", "numEvents": 1, "numAffected": 1, "numAtRisk": 90}, {"groupId": "EG001", "numEvents": 0, "numAffected": 0, "numAtRisk": 7}, {"groupId": "EG002", "numEvents": 0, "numAffected": 0, "numAtRisk": 7}, {"groupId": "EG003", "numEvents": 0, "numAffected": 0, "numAtRisk": 91}]}, {"term": "Iron deficiency anaemia", "organSystem": "Blood and lymphatic system disorders", "sourceVocabulary": "MedDra 20.0", "assessmentType": "SYSTEMATIC_ASSESSMENT", "stats": [{"groupId": "EG000", "numEvents": 1, "numAffected": 1, "numAtRisk": 90}, {"groupId": "EG001", "numEvents": 0, "numAffected": 0, "numAtRisk": 7}, {"groupId": "EG002", "numEvents": 0, "numAffected": 0, "numAtRisk": 7}, {"groupId": "EG003", "numEvents": 0, "numAffected": 0, "numAtRisk": 91}]}, {"term": "Angina pectoris", "organSystem": "Cardiac disorders", "sourceVocabulary": "MedDra 20.0", "assessmentType": "SYSTEMATIC_ASSESSMENT", "stats": [{"groupId": "EG000", "numEvents": 0, "numAffected": 0, "numAtRisk": 90}, {"groupId": "EG001", "numEvents": 1, "numAffected": 1, "numAtRisk": 7}, {"groupId": "EG002", "numEvents": 0, "numAffected": 0, "numAtRisk": 7}, {"groupId": "EG003", "numEvents": 4, "numAffected": 2, "numAtRisk": 91}]}, {"term": "Cardiac failure congestive", "organSystem": "Cardiac disorders", "sourceVocabulary": "MedDra 20.0", "assessmentType": "SYSTEMATIC_ASSESSMENT", "stats": [{"groupId": "EG000", "numEvents": 2, "numAffected": 2, "numAtRisk": 90}, {"groupId": "EG001", "numEvents": 0, "numAffected": 0, "numAtRisk": 7}, {"groupId": "EG002", "numEvents": 0, "numAffected": 0, "numAtRisk": 7}, {"groupId": "EG003", "numEvents": 1, "numAffected": 1, "numAtRisk": 91}]}, {"term": "Atrial fibrillation", "organSystem": "Cardiac disorders", "sourceVocabulary": "MedDra 20.0", "assessmentType": "SYSTEMATIC_ASSESSMENT", "stats": [{"groupId": "EG000", "numEvents": 1, "numAffected": 1, "numAtRisk": 90}, {"groupId": "EG001", "numEvents": 0, "numAffected": 0, "numAtRisk": 7}, {"groupId": "EG002", "numEvents": 0, "numAffected": 0, "numAtRisk": 7}, {"groupId": "EG003", "numEvents": 0, "numAffected": 0, "numAtRisk": 91}]}, {"term": "Coronary artery disease", "organSystem": "Cardiac disorders", "sourceVocabulary": "MedDra 20.0", "assessmentType": "SYSTEMATIC_ASSESSMENT", "stats": [{"groupId": "EG000", "numEvents": 1, "numAffected": 1, "numAtRisk": 90}, {"groupId": "EG001", "numEvents": 0, "numAffected": 0, "numAtRisk": 7}, {"groupId": "EG002", "numEvents": 0, "numAffected": 0, "numAtRisk": 7}, {"groupId": "EG003", "numEvents": 0, "numAffected": 0, "numAtRisk": 91}]}, {"term": "Ventricular extrasystoles", "organSystem": "Cardiac disorders", "sourceVocabulary": "MedDra 20.0", "assessmentType": "SYSTEMATIC_ASSESSMENT", "stats": [{"groupId": "EG000", "numEvents": 0, "numAffected": 0, "numAtRisk": 90}, {"groupId": "EG001", "numEvents": 0, "numAffected": 0, "numAtRisk": 7}, {"groupId": "EG002", "numEvents": 0, "numAffected": 0, "numAtRisk": 7}, {"groupId": "EG003", "numEvents": 1, "numAffected": 1, "numAtRisk": 91}]}, {"term": "Ventricular tachycardia", "organSystem": "Cardiac disorders", "sourceVocabulary": "MedDra 20.0", "assessmentType": "SYSTEMATIC_ASSESSMENT", "stats": [{"groupId": "EG000", "numEvents": 0, "numAffected": 0, "numAtRisk": 90}, {"groupId": "EG001", "numEvents": 0, "numAffected": 0, "numAtRisk": 7}, {"groupId": "EG002", "numEvents": 0, "numAffected": 0, "numAtRisk": 7}, {"groupId": "EG003", "numEvents": 1, "numAffected": 1, "numAtRisk": 91}]}, {"term": "Cardiac failure", "organSystem": "Cardiac disorders", "sourceVocabulary": "MedDra 20.0", "assessmentType": "SYSTEMATIC_ASSESSMENT", "stats": [{"groupId": "EG000", "numEvents": 2, "numAffected": 2, "numAtRisk": 90}, {"groupId": "EG001", "numEvents": 0, "numAffected": 0, "numAtRisk": 7}, {"groupId": "EG002", "numEvents": 1, "numAffected": 1, "numAtRisk": 7}, {"groupId": "EG003", "numEvents": 0, "numAffected": 0, "numAtRisk": 91}]}, {"term": "Vertigo", "organSystem": "Ear and labyrinth disorders", "sourceVocabulary": "MedDra 20.0", "assessmentType": "SYSTEMATIC_ASSESSMENT", "stats": [{"groupId": "EG000", "numEvents": 1, "numAffected": 1, "numAtRisk": 90}, {"groupId": "EG001", "numEvents": 0, "numAffected": 0, "numAtRisk": 7}, {"groupId": "EG002", "numEvents": 0, "numAffected": 0, "numAtRisk": 7}, {"groupId": "EG003", "numEvents": 1, "numAffected": 1, "numAtRisk": 91}]}, {"term": "Tinnitus", "organSystem": "Ear and labyrinth disorders", "sourceVocabulary": "MedDra 20.0", "assessmentType": "SYSTEMATIC_ASSESSMENT", "stats": [{"groupId": "EG000", "numEvents": 1, "numAffected": 1, "numAtRisk": 90}, {"groupId": "EG001", "numEvents": 0, "numAffected": 0, "numAtRisk": 7}, {"groupId": "EG002", "numEvents": 0, "numAffected": 0, "numAtRisk": 7}, {"groupId": "EG003", "numEvents": 0, "numAffected": 0, "numAtRisk": 91}]}, {"term": "Goitre", "organSystem": "Endocrine disorders", "sourceVocabulary": "MedDra 20.0", "assessmentType": "SYSTEMATIC_ASSESSMENT", "stats": [{"groupId": "EG000", "numEvents": 0, "numAffected": 0, "numAtRisk": 90}, {"groupId": "EG001", "numEvents": 0, "numAffected": 0, "numAtRisk": 7}, {"groupId": "EG002", "numEvents": 1, "numAffected": 1, "numAtRisk": 7}, {"groupId": "EG003", "numEvents": 0, "numAffected": 0, "numAtRisk": 91}]}, {"term": "Cataract", "organSystem": "Eye disorders", "sourceVocabulary": "MedDra 20.0", "assessmentType": "SYSTEMATIC_ASSESSMENT", "stats": [{"groupId": "EG000", "numEvents": 0, "numAffected": 0, "numAtRisk": 90}, {"groupId": "EG001", "numEvents": 0, "numAffected": 0, "numAtRisk": 7}, {"groupId": "EG002", "numEvents": 0, "numAffected": 0, "numAtRisk": 7}, {"groupId": "EG003", "numEvents": 1, "numAffected": 1, "numAtRisk": 91}]}, {"term": "Lacrimation increased", "organSystem": "Eye disorders", "sourceVocabulary": "MedDra 20.0", "assessmentType": "SYSTEMATIC_ASSESSMENT", "stats": [{"groupId": "EG000", "numEvents": 0, "numAffected": 0, "numAtRisk": 90}, {"groupId": "EG001", "numEvents": 0, "numAffected": 0, "numAtRisk": 7}, {"groupId": "EG002", "numEvents": 0, "numAffected": 0, "numAtRisk": 7}, {"groupId": "EG003", "numEvents": 1, "numAffected": 1, "numAtRisk": 91}]}, {"term": "Ocular hyperaemia", "organSystem": "Eye disorders", "sourceVocabulary": "MedDra 20.0", "assessmentType": "SYSTEMATIC_ASSESSMENT", "stats": [{"groupId": "EG000", "numEvents": 0, "numAffected": 0, "numAtRisk": 90}, {"groupId": "EG001", "numEvents": 0, "numAffected": 0, "numAtRisk": 7}, {"groupId": "EG002", "numEvents": 0, "numAffected": 0, "numAtRisk": 7}, {"groupId": "EG003", "numEvents": 1, "numAffected": 1, "numAtRisk": 91}]}, {"term": "Conjunctival haemorrhage", "organSystem": "Eye disorders", "sourceVocabulary": "MedDra 20.0", "assessmentType": "SYSTEMATIC_ASSESSMENT", "stats": [{"groupId": "EG000", "numEvents": 1, "numAffected": 1, "numAtRisk": 90}, {"groupId": "EG001", "numEvents": 0, "numAffected": 0, "numAtRisk": 7}, {"groupId": "EG002", "numEvents": 0, "numAffected": 0, "numAtRisk": 7}, {"groupId": "EG003", "numEvents": 0, "numAffected": 0, "numAtRisk": 91}]}, {"term": "Diarrhoea", "organSystem": "Gastrointestinal disorders", "sourceVocabulary": "MedDra 20.0", "assessmentType": "SYSTEMATIC_ASSESSMENT", "stats": [{"groupId": "EG000", "numEvents": 5, "numAffected": 5, "numAtRisk": 90}, {"groupId": "EG001", "numEvents": 0, "numAffected": 0, "numAtRisk": 7}, {"groupId": "EG002", "numEvents": 0, "numAffected": 0, "numAtRisk": 7}, {"groupId": "EG003", "numEvents": 4, "numAffected": 4, "numAtRisk": 91}]}, {"term": "Nausea", "organSystem": "Gastrointestinal disorders", "sourceVocabulary": "MedDra 20.0", "assessmentType": "SYSTEMATIC_ASSESSMENT", "stats": [{"groupId": "EG000", "numEvents": 1, "numAffected": 1, "numAtRisk": 90}, {"groupId": "EG001", "numEvents": 0, "numAffected": 0, "numAtRisk": 7}, {"groupId": "EG002", "numEvents": 0, "numAffected": 0, "numAtRisk": 7}, {"groupId": "EG003", "numEvents": 3, "numAffected": 3, "numAtRisk": 91}]}, {"term": "Dyspepsia", "organSystem": "Gastrointestinal disorders", "sourceVocabulary": "MedDra 20.0", "assessmentType": "SYSTEMATIC_ASSESSMENT", "stats": [{"groupId": "EG000", "numEvents": 0, "numAffected": 0, "numAtRisk": 90}, {"groupId": "EG001", "numEvents": 0, "numAffected": 0, "numAtRisk": 7}, {"groupId": "EG002", "numEvents": 0, "numAffected": 0, "numAtRisk": 7}, {"groupId": "EG003", "numEvents": 3, "numAffected": 3, "numAtRisk": 91}]}, {"term": "Gastrooesophageal reflux disease", "organSystem": "Gastrointestinal disorders", "sourceVocabulary": "MedDra 20.0", "assessmentType": "SYSTEMATIC_ASSESSMENT", "stats": [{"groupId": "EG000", "numEvents": 1, "numAffected": 1, "numAtRisk": 90}, {"groupId": "EG001", "numEvents": 0, "numAffected": 0, "numAtRisk": 7}, {"groupId": "EG002", "numEvents": 0, "numAffected": 0, "numAtRisk": 7}, {"groupId": "EG003", "numEvents": 2, "numAffected": 2, "numAtRisk": 91}]}, {"term": "Abdominal discomfort", "organSystem": "Gastrointestinal disorders", "sourceVocabulary": "MedDra 20.0", "assessmentType": "SYSTEMATIC_ASSESSMENT", "stats": [{"groupId": "EG000", "numEvents": 1, "numAffected": 1, "numAtRisk": 90}, {"groupId": "EG001", "numEvents": 0, "numAffected": 0, "numAtRisk": 7}, {"groupId": "EG002", "numEvents": 0, "numAffected": 0, "numAtRisk": 7}, {"groupId": "EG003", "numEvents": 1, "numAffected": 1, "numAtRisk": 91}]}, {"term": "Abdominal distension", "organSystem": "Gastrointestinal disorders", "sourceVocabulary": "MedDra 20.0", "assessmentType": "SYSTEMATIC_ASSESSMENT", "stats": [{"groupId": "EG000", "numEvents": 1, "numAffected": 1, "numAtRisk": 90}, {"groupId": "EG001", "numEvents": 0, "numAffected": 0, "numAtRisk": 7}, {"groupId": "EG002", "numEvents": 0, "numAffected": 0, "numAtRisk": 7}, {"groupId": "EG003", "numEvents": 1, "numAffected": 1, "numAtRisk": 91}]}, {"term": "Rectal haemorrhage", "organSystem": "Gastrointestinal disorders", "sourceVocabulary": "MedDra 20.0", "assessmentType": "SYSTEMATIC_ASSESSMENT", "stats": [{"groupId": "EG000", "numEvents": 1, "numAffected": 1, "numAtRisk": 90}, {"groupId": "EG001", "numEvents": 0, "numAffected": 0, "numAtRisk": 7}, {"groupId": "EG002", "numEvents": 0, "numAffected": 0, "numAtRisk": 7}, {"groupId": "EG003", "numEvents": 1, "numAffected": 1, "numAtRisk": 91}]}, {"term": "Dry mouth", "organSystem": "Gastrointestinal disorders", "sourceVocabulary": "MedDra 20.0", "assessmentType": "SYSTEMATIC_ASSESSMENT", "stats": [{"groupId": "EG000", "numEvents": 0, "numAffected": 0, "numAtRisk": 90}, {"groupId": "EG001", "numEvents": 0, "numAffected": 0, "numAtRisk": 7}, {"groupId": "EG002", "numEvents": 0, "numAffected": 0, "numAtRisk": 7}, {"groupId": "EG003", "numEvents": 1, "numAffected": 1, "numAtRisk": 91}]}, {"term": "Food poisoning", "organSystem": "Gastrointestinal disorders", "sourceVocabulary": "MedDra 20.0", "assessmentType": "SYSTEMATIC_ASSESSMENT", "stats": [{"groupId": "EG000", "numEvents": 0, "numAffected": 0, "numAtRisk": 90}, {"groupId": "EG001", "numEvents": 0, "numAffected": 0, "numAtRisk": 7}, {"groupId": "EG002", "numEvents": 0, "numAffected": 0, "numAtRisk": 7}, {"groupId": "EG003", "numEvents": 1, "numAffected": 1, "numAtRisk": 91}]}, {"term": "Gastrointestinal pain", "organSystem": "Gastrointestinal disorders", "sourceVocabulary": "MedDra 20.0", "assessmentType": "SYSTEMATIC_ASSESSMENT", "stats": [{"groupId": "EG000", "numEvents": 0, "numAffected": 0, "numAtRisk": 90}, {"groupId": "EG001", "numEvents": 0, "numAffected": 0, "numAtRisk": 7}, {"groupId": "EG002", "numEvents": 0, "numAffected": 0, "numAtRisk": 7}, {"groupId": "EG003", "numEvents": 1, "numAffected": 1, "numAtRisk": 91}]}, {"term": "Haemorrhoidal haemorrhage", "organSystem": "Gastrointestinal disorders", "sourceVocabulary": "MedDra 20.0", "assessmentType": "SYSTEMATIC_ASSESSMENT", "stats": [{"groupId": "EG000", "numEvents": 0, "numAffected": 0, "numAtRisk": 90}, {"groupId": "EG001", "numEvents": 0, "numAffected": 0, "numAtRisk": 7}, {"groupId": "EG002", "numEvents": 0, "numAffected": 0, "numAtRisk": 7}, {"groupId": "EG003", "numEvents": 1, "numAffected": 1, "numAtRisk": 91}]}, {"term": "Lower gastrointestinal haemorrhage", "organSystem": "Gastrointestinal disorders", "sourceVocabulary": "MedDra 20.0", "assessmentType": "SYSTEMATIC_ASSESSMENT", "stats": [{"groupId": "EG000", "numEvents": 0, "numAffected": 0, "numAtRisk": 90}, {"groupId": "EG001", "numEvents": 0, "numAffected": 0, "numAtRisk": 7}, {"groupId": "EG002", "numEvents": 0, "numAffected": 0, "numAtRisk": 7}, {"groupId": "EG003", "numEvents": 1, "numAffected": 1, "numAtRisk": 91}]}, {"term": "Abdominal pain upper", "organSystem": "Gastrointestinal disorders", "sourceVocabulary": "MedDra 20.0", "assessmentType": "SYSTEMATIC_ASSESSMENT", "stats": [{"groupId": "EG000", "numEvents": 0, "numAffected": 0, "numAtRisk": 90}, {"groupId": "EG001", "numEvents": 1, "numAffected": 1, "numAtRisk": 7}, {"groupId": "EG002", "numEvents": 0, "numAffected": 0, "numAtRisk": 7}, {"groupId": "EG003", "numEvents": 0, "numAffected": 0, "numAtRisk": 91}]}, {"term": "Frequent bowel movements", "organSystem": "Gastrointestinal disorders", "sourceVocabulary": "MedDra 20.0", "assessmentType": "SYSTEMATIC_ASSESSMENT", "stats": [{"groupId": "EG000", "numEvents": 0, "numAffected": 0, "numAtRisk": 90}, {"groupId": "EG001", "numEvents": 1, "numAffected": 1, "numAtRisk": 7}, {"groupId": "EG002", "numEvents": 0, "numAffected": 0, "numAtRisk": 7}, {"groupId": "EG003", "numEvents": 0, "numAffected": 0, "numAtRisk": 91}]}, {"term": "Constipation", "organSystem": "Gastrointestinal disorders", "sourceVocabulary": "MedDra 20.0", "assessmentType": "SYSTEMATIC_ASSESSMENT", "stats": [{"groupId": "EG000", "numEvents": 3, "numAffected": 3, "numAtRisk": 90}, {"groupId": "EG001", "numEvents": 0, "numAffected": 0, "numAtRisk": 7}, {"groupId": "EG002", "numEvents": 0, "numAffected": 0, "numAtRisk": 7}, {"groupId": "EG003", "numEvents": 0, "numAffected": 0, "numAtRisk": 91}]}, {"term": "Abdominal pain lower", "organSystem": "Gastrointestinal disorders", "sourceVocabulary": "MedDra 20.0", "assessmentType": "SYSTEMATIC_ASSESSMENT", "stats": [{"groupId": "EG000", "numEvents": 1, "numAffected": 1, "numAtRisk": 90}, {"groupId": "EG001", "numEvents": 0, "numAffected": 0, "numAtRisk": 7}, {"groupId": "EG002", "numEvents": 0, "numAffected": 0, "numAtRisk": 7}, {"groupId": "EG003", "numEvents": 0, "numAffected": 0, "numAtRisk": 91}]}, {"term": "Diarrhoea haemorrhagic", "organSystem": "Gastrointestinal disorders", "sourceVocabulary": "MedDra 20.0", "assessmentType": "SYSTEMATIC_ASSESSMENT", "stats": [{"groupId": "EG000", "numEvents": 1, "numAffected": 1, "numAtRisk": 90}, {"groupId": "EG001", "numEvents": 0, "numAffected": 0, "numAtRisk": 7}, {"groupId": "EG002", "numEvents": 0, "numAffected": 0, "numAtRisk": 7}, {"groupId": "EG003", "numEvents": 0, "numAffected": 0, "numAtRisk": 91}]}, {"term": "Haemorrhoids", "organSystem": "Gastrointestinal disorders", "sourceVocabulary": "MedDra 20.0", "assessmentType": "SYSTEMATIC_ASSESSMENT", "stats": [{"groupId": "EG000", "numEvents": 1, "numAffected": 1, "numAtRisk": 90}, {"groupId": "EG001", "numEvents": 0, "numAffected": 0, "numAtRisk": 7}, {"groupId": "EG002", "numEvents": 0, "numAffected": 0, "numAtRisk": 7}, {"groupId": "EG003", "numEvents": 0, "numAffected": 0, "numAtRisk": 91}]}, {"term": "Proctalgia", "organSystem": "Gastrointestinal disorders", "sourceVocabulary": "MedDra 20.0", "assessmentType": "SYSTEMATIC_ASSESSMENT", "stats": [{"groupId": "EG000", "numEvents": 1, "numAffected": 1, "numAtRisk": 90}, {"groupId": "EG001", "numEvents": 0, "numAffected": 0, "numAtRisk": 7}, {"groupId": "EG002", "numEvents": 0, "numAffected": 0, "numAtRisk": 7}, {"groupId": "EG003", "numEvents": 0, "numAffected": 0, "numAtRisk": 91}]}, {"term": "Fatigue", "organSystem": "General disorders", "sourceVocabulary": "MedDra 20.0", "assessmentType": "SYSTEMATIC_ASSESSMENT", "stats": [{"groupId": "EG000", "numEvents": 5, "numAffected": 4, "numAtRisk": 90}, {"groupId": "EG001", "numEvents": 1, "numAffected": 1, "numAtRisk": 7}, {"groupId": "EG002", "numEvents": 0, "numAffected": 0, "numAtRisk": 7}, {"groupId": "EG003", "numEvents": 5, "numAffected": 5, "numAtRisk": 91}]}, {"term": "Non-cardiac chest pain", "organSystem": "General disorders", "sourceVocabulary": "MedDra 20.0", "assessmentType": "SYSTEMATIC_ASSESSMENT", "stats": [{"groupId": "EG000", "numEvents": 0, "numAffected": 0, "numAtRisk": 90}, {"groupId": "EG001", "numEvents": 0, "numAffected": 0, "numAtRisk": 7}, {"groupId": "EG002", "numEvents": 0, "numAffected": 0, "numAtRisk": 7}, {"groupId": "EG003", "numEvents": 2, "numAffected": 2, "numAtRisk": 91}]}, {"term": "Oedema peripheral", "organSystem": "General disorders", "sourceVocabulary": "MedDra 20.0", "assessmentType": "SYSTEMATIC_ASSESSMENT", "stats": [{"groupId": "EG000", "numEvents": 2, "numAffected": 2, "numAtRisk": 90}, {"groupId": "EG001", "numEvents": 0, "numAffected": 0, "numAtRisk": 7}, {"groupId": "EG002", "numEvents": 0, "numAffected": 0, "numAtRisk": 7}, {"groupId": "EG003", "numEvents": 2, "numAffected": 2, "numAtRisk": 91}]}, {"term": "Pyrexia", "organSystem": "General disorders", "sourceVocabulary": "MedDra 20.0", "assessmentType": "SYSTEMATIC_ASSESSMENT", "stats": [{"groupId": "EG000", "numEvents": 1, "numAffected": 1, "numAtRisk": 90}, {"groupId": "EG001", "numEvents": 1, "numAffected": 1, "numAtRisk": 7}, {"groupId": "EG002", "numEvents": 0, "numAffected": 0, "numAtRisk": 7}, {"groupId": "EG003", "numEvents": 1, "numAffected": 1, "numAtRisk": 91}]}, {"term": "Peripheral swelling", "organSystem": "General disorders", "sourceVocabulary": "MedDra 20.0", "assessmentType": "SYSTEMATIC_ASSESSMENT", "stats": [{"groupId": "EG000", "numEvents": 2, "numAffected": 2, "numAtRisk": 90}, {"groupId": "EG001", "numEvents": 0, "numAffected": 0, "numAtRisk": 7}, {"groupId": "EG002", "numEvents": 0, "numAffected": 0, "numAtRisk": 7}, {"groupId": "EG003", "numEvents": 1, "numAffected": 1, "numAtRisk": 91}]}, {"term": "Influenza like illness", "organSystem": "General disorders", "sourceVocabulary": "MedDra 20.0", "assessmentType": "SYSTEMATIC_ASSESSMENT", "stats": [{"groupId": "EG000", "numEvents": 1, "numAffected": 1, "numAtRisk": 90}, {"groupId": "EG001", "numEvents": 0, "numAffected": 0, "numAtRisk": 7}, {"groupId": "EG002", "numEvents": 0, "numAffected": 0, "numAtRisk": 7}, {"groupId": "EG003", "numEvents": 1, "numAffected": 1, "numAtRisk": 91}]}, {"term": "Therapeutic response unexpected", "organSystem": "General disorders", "sourceVocabulary": "MedDra 20.0", "assessmentType": "SYSTEMATIC_ASSESSMENT", "stats": [{"groupId": "EG000", "numEvents": 0, "numAffected": 0, "numAtRisk": 90}, {"groupId": "EG001", "numEvents": 0, "numAffected": 0, "numAtRisk": 7}, {"groupId": "EG002", "numEvents": 0, "numAffected": 0, "numAtRisk": 7}, {"groupId": "EG003", "numEvents": 1, "numAffected": 1, "numAtRisk": 91}]}, {"term": "Thirst", "organSystem": "General disorders", "sourceVocabulary": "MedDra 20.0", "assessmentType": "SYSTEMATIC_ASSESSMENT", "stats": [{"groupId": "EG000", "numEvents": 1, "numAffected": 1, "numAtRisk": 90}, {"groupId": "EG001", "numEvents": 1, "numAffected": 1, "numAtRisk": 7}, {"groupId": "EG002", "numEvents": 0, "numAffected": 0, "numAtRisk": 7}, {"groupId": "EG003", "numEvents": 0, "numAffected": 0, "numAtRisk": 91}]}, {"term": "Chest discomfort", "organSystem": "General disorders", "sourceVocabulary": "MedDra 20.0", "assessmentType": "SYSTEMATIC_ASSESSMENT", "stats": [{"groupId": "EG000", "numEvents": 1, "numAffected": 1, "numAtRisk": 90}, {"groupId": "EG001", "numEvents": 0, "numAffected": 0, "numAtRisk": 7}, {"groupId": "EG002", "numEvents": 0, "numAffected": 0, "numAtRisk": 7}, {"groupId": "EG003", "numEvents": 0, "numAffected": 0, "numAtRisk": 91}]}, {"term": "Drug hypersensitivity", "organSystem": "Immune system disorders", "sourceVocabulary": "MedDra 20.0", "assessmentType": "SYSTEMATIC_ASSESSMENT", "stats": [{"groupId": "EG000", "numEvents": 0, "numAffected": 0, "numAtRisk": 90}, {"groupId": "EG001", "numEvents": 0, "numAffected": 0, "numAtRisk": 7}, {"groupId": "EG002", "numEvents": 0, "numAffected": 0, "numAtRisk": 7}, {"groupId": "EG003", "numEvents": 1, "numAffected": 1, "numAtRisk": 91}]}, {"term": "Urinary tract infection", "organSystem": "Infections and infestations", "sourceVocabulary": "MedDra 20.0", "assessmentType": "SYSTEMATIC_ASSESSMENT", "stats": [{"groupId": "EG000", "numEvents": 5, "numAffected": 5, "numAtRisk": 90}, {"groupId": "EG001", "numEvents": 0, "numAffected": 0, "numAtRisk": 7}, {"groupId": "EG002", "numEvents": 1, "numAffected": 1, "numAtRisk": 7}, {"groupId": "EG003", "numEvents": 8, "numAffected": 7, "numAtRisk": 91}]}, {"term": "Viral upper respiratory tract infection", "organSystem": "Infections and infestations", "sourceVocabulary": "MedDra 20.0", "assessmentType": "SYSTEMATIC_ASSESSMENT", "stats": [{"groupId": "EG000", "numEvents": 3, "numAffected": 3, "numAtRisk": 90}, {"groupId": "EG001", "numEvents": 0, "numAffected": 0, "numAtRisk": 7}, {"groupId": "EG002", "numEvents": 0, "numAffected": 0, "numAtRisk": 7}, {"groupId": "EG003", "numEvents": 5, "numAffected": 5, "numAtRisk": 91}]}, {"term": "Cellulitis", "organSystem": "Infections and infestations", "sourceVocabulary": "MedDra 20.0", "assessmentType": "SYSTEMATIC_ASSESSMENT", "stats": [{"groupId": "EG000", "numEvents": 0, "numAffected": 0, "numAtRisk": 90}, {"groupId": "EG001", "numEvents": 0, "numAffected": 0, "numAtRisk": 7}, {"groupId": "EG002", "numEvents": 0, "numAffected": 0, "numAtRisk": 7}, {"groupId": "EG003", "numEvents": 1, "numAffected": 1, "numAtRisk": 91}]}, {"term": "Upper respiratory tract infection", "organSystem": "Infections and infestations", "sourceVocabulary": "MedDra 20.0", "assessmentType": "SYSTEMATIC_ASSESSMENT", "stats": [{"groupId": "EG000", "numEvents": 3, "numAffected": 3, "numAtRisk": 90}, {"groupId": "EG001", "numEvents": 0, "numAffected": 0, "numAtRisk": 7}, {"groupId": "EG002", "numEvents": 1, "numAffected": 1, "numAtRisk": 7}, {"groupId": "EG003", "numEvents": 1, "numAffected": 1, "numAtRisk": 91}]}, {"term": "Bronchitis", "organSystem": "Infections and infestations", "sourceVocabulary": "MedDra 20.0", "assessmentType": "SYSTEMATIC_ASSESSMENT", "stats": [{"groupId": "EG000", "numEvents": 1, "numAffected": 1, "numAtRisk": 90}, {"groupId": "EG001", "numEvents": 0, "numAffected": 0, "numAtRisk": 7}, {"groupId": "EG002", "numEvents": 0, "numAffected": 0, "numAtRisk": 7}, {"groupId": "EG003", "numEvents": 1, "numAffected": 1, "numAtRisk": 91}]}, {"term": "Bacterial infection", "organSystem": "Infections and infestations", "sourceVocabulary": "MedDra 20.0", "assessmentType": "SYSTEMATIC_ASSESSMENT", "stats": [{"groupId": "EG000", "numEvents": 0, "numAffected": 0, "numAtRisk": 90}, {"groupId": "EG001", "numEvents": 0, "numAffected": 0, "numAtRisk": 7}, {"groupId": "EG002", "numEvents": 0, "numAffected": 0, "numAtRisk": 7}, {"groupId": "EG003", "numEvents": 1, "numAffected": 1, "numAtRisk": 91}]}, {"term": "Candida infection", "organSystem": "Infections and infestations", "sourceVocabulary": "MedDra 20.0", "assessmentType": "SYSTEMATIC_ASSESSMENT", "stats": [{"groupId": "EG000", "numEvents": 0, "numAffected": 0, "numAtRisk": 90}, {"groupId": "EG001", "numEvents": 0, "numAffected": 0, "numAtRisk": 7}, {"groupId": "EG002", "numEvents": 0, "numAffected": 0, "numAtRisk": 7}, {"groupId": "EG003", "numEvents": 1, "numAffected": 1, "numAtRisk": 91}]}, {"term": "Gastroenteritis clostridial", "organSystem": "Infections and infestations", "sourceVocabulary": "MedDra 20.0", "assessmentType": "SYSTEMATIC_ASSESSMENT", "stats": [{"groupId": "EG000", "numEvents": 0, "numAffected": 0, "numAtRisk": 90}, {"groupId": "EG001", "numEvents": 0, "numAffected": 0, "numAtRisk": 7}, {"groupId": "EG002", "numEvents": 0, "numAffected": 0, "numAtRisk": 7}, {"groupId": "EG003", "numEvents": 1, "numAffected": 1, "numAtRisk": 91}]}, {"term": "Localised infection", "organSystem": "Infections and infestations", "sourceVocabulary": "MedDra 20.0", "assessmentType": "SYSTEMATIC_ASSESSMENT", "stats": [{"groupId": "EG000", "numEvents": 0, "numAffected": 0, "numAtRisk": 90}, {"groupId": "EG001", "numEvents": 0, "numAffected": 0, "numAtRisk": 7}, {"groupId": "EG002", "numEvents": 0, "numAffected": 0, "numAtRisk": 7}, {"groupId": "EG003", "numEvents": 1, "numAffected": 1, "numAtRisk": 91}]}, {"term": "Oral candidiasis", "organSystem": "Infections and infestations", "sourceVocabulary": "MedDra 20.0", "assessmentType": "SYSTEMATIC_ASSESSMENT", "stats": [{"groupId": "EG000", "numEvents": 0, "numAffected": 0, "numAtRisk": 90}, {"groupId": "EG001", "numEvents": 0, "numAffected": 0, "numAtRisk": 7}, {"groupId": "EG002", "numEvents": 0, "numAffected": 0, "numAtRisk": 7}, {"groupId": "EG003", "numEvents": 1, "numAffected": 1, "numAtRisk": 91}]}, {"term": "Urinary tract infection fungal", "organSystem": "Infections and infestations", "sourceVocabulary": "MedDra 20.0", "assessmentType": "SYSTEMATIC_ASSESSMENT", "stats": [{"groupId": "EG000", "numEvents": 0, "numAffected": 0, "numAtRisk": 90}, {"groupId": "EG001", "numEvents": 0, "numAffected": 0, "numAtRisk": 7}, {"groupId": "EG002", "numEvents": 0, "numAffected": 0, "numAtRisk": 7}, {"groupId": "EG003", "numEvents": 1, "numAffected": 1, "numAtRisk": 91}]}, {"term": "Cystitis", "organSystem": "Infections and infestations", "sourceVocabulary": "MedDra 20.0", "assessmentType": "SYSTEMATIC_ASSESSMENT", "stats": [{"groupId": "EG000", "numEvents": 2, "numAffected": 1, "numAtRisk": 90}, {"groupId": "EG001", "numEvents": 0, "numAffected": 0, "numAtRisk": 7}, {"groupId": "EG002", "numEvents": 0, "numAffected": 0, "numAtRisk": 7}, {"groupId": "EG003", "numEvents": 0, "numAffected": 0, "numAtRisk": 91}]}, {"term": "Eye infection", "organSystem": "Infections and infestations", "sourceVocabulary": "MedDra 20.0", "assessmentType": "SYSTEMATIC_ASSESSMENT", "stats": [{"groupId": "EG000", "numEvents": 1, "numAffected": 1, "numAtRisk": 90}, {"groupId": "EG001", "numEvents": 0, "numAffected": 0, "numAtRisk": 7}, {"groupId": "EG002", "numEvents": 0, "numAffected": 0, "numAtRisk": 7}, {"groupId": "EG003", "numEvents": 0, "numAffected": 0, "numAtRisk": 91}]}, {"term": "Infected skin ulcer", "organSystem": "Infections and infestations", "sourceVocabulary": "MedDra 20.0", "assessmentType": "SYSTEMATIC_ASSESSMENT", "stats": [{"groupId": "EG000", "numEvents": 1, "numAffected": 1, "numAtRisk": 90}, {"groupId": "EG001", "numEvents": 0, "numAffected": 0, "numAtRisk": 7}, {"groupId": "EG002", "numEvents": 0, "numAffected": 0, "numAtRisk": 7}, {"groupId": "EG003", "numEvents": 0, "numAffected": 0, "numAtRisk": 91}]}, {"term": "Lower respiratory tract infection", "organSystem": "Infections and infestations", "sourceVocabulary": "MedDra 20.0", "assessmentType": "SYSTEMATIC_ASSESSMENT", "stats": [{"groupId": "EG000", "numEvents": 1, "numAffected": 1, "numAtRisk": 90}, {"groupId": "EG001", "numEvents": 0, "numAffected": 0, "numAtRisk": 7}, {"groupId": "EG002", "numEvents": 0, "numAffected": 0, "numAtRisk": 7}, {"groupId": "EG003", "numEvents": 0, "numAffected": 0, "numAtRisk": 91}]}, {"term": "Tooth infection", "organSystem": "Infections and infestations", "sourceVocabulary": "MedDra 20.0", "assessmentType": "SYSTEMATIC_ASSESSMENT", "stats": [{"groupId": "EG000", "numEvents": 1, "numAffected": 1, "numAtRisk": 90}, {"groupId": "EG001", "numEvents": 0, "numAffected": 0, "numAtRisk": 7}, {"groupId": "EG002", "numEvents": 0, "numAffected": 0, "numAtRisk": 7}, {"groupId": "EG003", "numEvents": 0, "numAffected": 0, "numAtRisk": 91}]}, {"term": "Fall", "organSystem": "Injury, poisoning and procedural complications", "sourceVocabulary": "MedDra 20.0", "assessmentType": "SYSTEMATIC_ASSESSMENT", "stats": [{"groupId": "EG000", "numEvents": 2, "numAffected": 2, "numAtRisk": 90}, {"groupId": "EG001", "numEvents": 1, "numAffected": 1, "numAtRisk": 7}, {"groupId": "EG002", "numEvents": 0, "numAffected": 0, "numAtRisk": 7}, {"groupId": "EG003", "numEvents": 3, "numAffected": 3, "numAtRisk": 91}]}, {"term": "Muscle strain", "organSystem": "Injury, poisoning and procedural complications", "sourceVocabulary": "MedDra 20.0", "assessmentType": "SYSTEMATIC_ASSESSMENT", "stats": [{"groupId": "EG000", "numEvents": 1, "numAffected": 1, "numAtRisk": 90}, {"groupId": "EG001", "numEvents": 0, "numAffected": 0, "numAtRisk": 7}, {"groupId": "EG002", "numEvents": 0, "numAffected": 0, "numAtRisk": 7}, {"groupId": "EG003", "numEvents": 1, "numAffected": 1, "numAtRisk": 91}]}, {"term": "Anaemia postoperative", "organSystem": "Injury, poisoning and procedural complications", "sourceVocabulary": "MedDra 20.0", "assessmentType": "SYSTEMATIC_ASSESSMENT", "stats": [{"groupId": "EG000", "numEvents": 0, "numAffected": 0, "numAtRisk": 90}, {"groupId": "EG001", "numEvents": 0, "numAffected": 0, "numAtRisk": 7}, {"groupId": "EG002", "numEvents": 0, "numAffected": 0, "numAtRisk": 7}, {"groupId": "EG003", "numEvents": 1, "numAffected": 1, "numAtRisk": 91}]}, {"term": "Post-traumatic pain", "organSystem": "Injury, poisoning and procedural complications", "sourceVocabulary": "MedDra 20.0", "assessmentType": "SYSTEMATIC_ASSESSMENT", "stats": [{"groupId": "EG000", "numEvents": 0, "numAffected": 0, "numAtRisk": 90}, {"groupId": "EG001", "numEvents": 0, "numAffected": 0, "numAtRisk": 7}, {"groupId": "EG002", "numEvents": 0, "numAffected": 0, "numAtRisk": 7}, {"groupId": "EG003", "numEvents": 1, "numAffected": 1, "numAtRisk": 91}]}, {"term": "Postoperative ileus", "organSystem": "Injury, poisoning and procedural complications", "sourceVocabulary": "MedDra 20.0", "assessmentType": "SYSTEMATIC_ASSESSMENT", "stats": [{"groupId": "EG000", "numEvents": 0, "numAffected": 0, "numAtRisk": 90}, {"groupId": "EG001", "numEvents": 0, "numAffected": 0, "numAtRisk": 7}, {"groupId": "EG002", "numEvents": 0, "numAffected": 0, "numAtRisk": 7}, {"groupId": "EG003", "numEvents": 1, "numAffected": 1, "numAtRisk": 91}]}, {"term": "Spinal compression fracture", "organSystem": "Injury, poisoning and procedural complications", "sourceVocabulary": "MedDra 20.0", "assessmentType": "SYSTEMATIC_ASSESSMENT", "stats": [{"groupId": "EG000", "numEvents": 0, "numAffected": 0, "numAtRisk": 90}, {"groupId": "EG001", "numEvents": 0, "numAffected": 0, "numAtRisk": 7}, {"groupId": "EG002", "numEvents": 0, "numAffected": 0, "numAtRisk": 7}, {"groupId": "EG003", "numEvents": 1, "numAffected": 1, "numAtRisk": 91}]}, {"term": "Traumatic haematoma", "organSystem": "Injury, poisoning and procedural complications", "sourceVocabulary": "MedDra 20.0", "assessmentType": "SYSTEMATIC_ASSESSMENT", "stats": [{"groupId": "EG000", "numEvents": 0, "numAffected": 0, "numAtRisk": 90}, {"groupId": "EG001", "numEvents": 0, "numAffected": 0, "numAtRisk": 7}, {"groupId": "EG002", "numEvents": 0, "numAffected": 0, "numAtRisk": 7}, {"groupId": "EG003", "numEvents": 1, "numAffected": 1, "numAtRisk": 91}]}, {"term": "Contusion", "organSystem": "Injury, poisoning and procedural complications", "sourceVocabulary": "MedDra 20.0", "assessmentType": "SYSTEMATIC_ASSESSMENT", "stats": [{"groupId": "EG000", "numEvents": 2, "numAffected": 2, "numAtRisk": 90}, {"groupId": "EG001", "numEvents": 0, "numAffected": 0, "numAtRisk": 7}, {"groupId": "EG002", "numEvents": 0, "numAffected": 0, "numAtRisk": 7}, {"groupId": "EG003", "numEvents": 0, "numAffected": 0, "numAtRisk": 91}]}, {"term": "Foot fracture", "organSystem": "Injury, poisoning and procedural complications", "sourceVocabulary": "MedDra 20.0", "assessmentType": "SYSTEMATIC_ASSESSMENT", "stats": [{"groupId": "EG000", "numEvents": 1, "numAffected": 1, "numAtRisk": 90}, {"groupId": "EG001", "numEvents": 0, "numAffected": 0, "numAtRisk": 7}, {"groupId": "EG002", "numEvents": 0, "numAffected": 0, "numAtRisk": 7}, {"groupId": "EG003", "numEvents": 0, "numAffected": 0, "numAtRisk": 91}]}, {"term": "Blood chloride decreased", "organSystem": "Investigations", "sourceVocabulary": "MedDra 20.0", "assessmentType": "SYSTEMATIC_ASSESSMENT", "stats": [{"groupId": "EG000", "numEvents": 0, "numAffected": 0, "numAtRisk": 90}, {"groupId": "EG001", "numEvents": 0, "numAffected": 0, "numAtRisk": 7}, {"groupId": "EG002", "numEvents": 0, "numAffected": 0, "numAtRisk": 7}, {"groupId": "EG003", "numEvents": 1, "numAffected": 1, "numAtRisk": 91}]}, {"term": "Blood glucose increased", "organSystem": "Investigations", "sourceVocabulary": "MedDra 20.0", "assessmentType": "SYSTEMATIC_ASSESSMENT", "stats": [{"groupId": "EG000", "numEvents": 0, "numAffected": 0, "numAtRisk": 90}, {"groupId": "EG001", "numEvents": 0, "numAffected": 0, "numAtRisk": 7}, {"groupId": "EG002", "numEvents": 0, "numAffected": 0, "numAtRisk": 7}, {"groupId": "EG003", "numEvents": 1, "numAffected": 1, "numAtRisk": 91}]}, {"term": "Blood triglycerides increased", "organSystem": "Investigations", "sourceVocabulary": "MedDra 20.0", "assessmentType": "SYSTEMATIC_ASSESSMENT", "stats": [{"groupId": "EG000", "numEvents": 0, "numAffected": 0, "numAtRisk": 90}, {"groupId": "EG001", "numEvents": 0, "numAffected": 0, "numAtRisk": 7}, {"groupId": "EG002", "numEvents": 0, "numAffected": 0, "numAtRisk": 7}, {"groupId": "EG003", "numEvents": 1, "numAffected": 1, "numAtRisk": 91}]}, {"term": "Globulins decreased", "organSystem": "Investigations", "sourceVocabulary": "MedDra 20.0", "assessmentType": "SYSTEMATIC_ASSESSMENT", "stats": [{"groupId": "EG000", "numEvents": 0, "numAffected": 0, "numAtRisk": 90}, {"groupId": "EG001", "numEvents": 0, "numAffected": 0, "numAtRisk": 7}, {"groupId": "EG002", "numEvents": 0, "numAffected": 0, "numAtRisk": 7}, {"groupId": "EG003", "numEvents": 1, "numAffected": 1, "numAtRisk": 91}]}, {"term": "Red blood cell sedimentation rate increased", "organSystem": "Investigations", "sourceVocabulary": "MedDra 20.0", "assessmentType": "SYSTEMATIC_ASSESSMENT", "stats": [{"groupId": "EG000", "numEvents": 0, "numAffected": 0, "numAtRisk": 90}, {"groupId": "EG001", "numEvents": 0, "numAffected": 0, "numAtRisk": 7}, {"groupId": "EG002", "numEvents": 0, "numAffected": 0, "numAtRisk": 7}, {"groupId": "EG003", "numEvents": 1, "numAffected": 1, "numAtRisk": 91}]}, {"term": "Transferrin saturation decreased", "organSystem": "Investigations", "sourceVocabulary": "MedDra 20.0", "assessmentType": "SYSTEMATIC_ASSESSMENT", "stats": [{"groupId": "EG000", "numEvents": 0, "numAffected": 0, "numAtRisk": 90}, {"groupId": "EG001", "numEvents": 0, "numAffected": 0, "numAtRisk": 7}, {"groupId": "EG002", "numEvents": 0, "numAffected": 0, "numAtRisk": 7}, {"groupId": "EG003", "numEvents": 1, "numAffected": 1, "numAtRisk": 91}]}, {"term": "Urine analysis abnormal", "organSystem": "Investigations", "sourceVocabulary": "MedDra 20.0", "assessmentType": "SYSTEMATIC_ASSESSMENT", "stats": [{"groupId": "EG000", "numEvents": 0, "numAffected": 0, "numAtRisk": 90}, {"groupId": "EG001", "numEvents": 0, "numAffected": 0, "numAtRisk": 7}, {"groupId": "EG002", "numEvents": 0, "numAffected": 0, "numAtRisk": 7}, {"groupId": "EG003", "numEvents": 1, "numAffected": 1, "numAtRisk": 91}]}, {"term": "Urine leukocyte esterase positive", "organSystem": "Investigations", "sourceVocabulary": "MedDra 20.0", "assessmentType": "SYSTEMATIC_ASSESSMENT", "stats": [{"groupId": "EG000", "numEvents": 0, "numAffected": 0, "numAtRisk": 90}, {"groupId": "EG001", "numEvents": 0, "numAffected": 0, "numAtRisk": 7}, {"groupId": "EG002", "numEvents": 0, "numAffected": 0, "numAtRisk": 7}, {"groupId": "EG003", "numEvents": 1, "numAffected": 1, "numAtRisk": 91}]}, {"term": "Blood uric acid increased", "organSystem": "Investigations", "sourceVocabulary": "MedDra 20.0", "assessmentType": "SYSTEMATIC_ASSESSMENT", "stats": [{"groupId": "EG000", "numEvents": 1, "numAffected": 1, "numAtRisk": 90}, {"groupId": "EG001", "numEvents": 0, "numAffected": 0, "numAtRisk": 7}, {"groupId": "EG002", "numEvents": 2, "numAffected": 1, "numAtRisk": 7}, {"groupId": "EG003", "numEvents": 0, "numAffected": 0, "numAtRisk": 91}]}, {"term": "Breath sounds abnormal", "organSystem": "Investigations", "sourceVocabulary": "MedDra 20.0", "assessmentType": "SYSTEMATIC_ASSESSMENT", "stats": [{"groupId": "EG000", "numEvents": 0, "numAffected": 0, "numAtRisk": 90}, {"groupId": "EG001", "numEvents": 0, "numAffected": 0, "numAtRisk": 7}, {"groupId": "EG002", "numEvents": 1, "numAffected": 1, "numAtRisk": 7}, {"groupId": "EG003", "numEvents": 0, "numAffected": 0, "numAtRisk": 91}]}, {"term": "Mean cell volume increased", "organSystem": "Investigations", "sourceVocabulary": "MedDra 20.0", "assessmentType": "SYSTEMATIC_ASSESSMENT", "stats": [{"groupId": "EG000", "numEvents": 0, "numAffected": 0, "numAtRisk": 90}, {"groupId": "EG001", "numEvents": 0, "numAffected": 0, "numAtRisk": 7}, {"groupId": "EG002", "numEvents": 1, "numAffected": 1, "numAtRisk": 7}, {"groupId": "EG003", "numEvents": 0, "numAffected": 0, "numAtRisk": 91}]}, {"term": "Weight increased", "organSystem": "Investigations", "sourceVocabulary": "MedDra 20.0", "assessmentType": "SYSTEMATIC_ASSESSMENT", "stats": [{"groupId": "EG000", "numEvents": 0, "numAffected": 0, "numAtRisk": 90}, {"groupId": "EG001", "numEvents": 2, "numAffected": 2, "numAtRisk": 7}, {"groupId": "EG002", "numEvents": 0, "numAffected": 0, "numAtRisk": 7}, {"groupId": "EG003", "numEvents": 0, "numAffected": 0, "numAtRisk": 91}]}, {"term": "Blood creatinine increased", "organSystem": "Investigations", "sourceVocabulary": "MedDra 20.0", "assessmentType": "SYSTEMATIC_ASSESSMENT", "stats": [{"groupId": "EG000", "numEvents": 2, "numAffected": 2, "numAtRisk": 90}, {"groupId": "EG001", "numEvents": 0, "numAffected": 0, "numAtRisk": 7}, {"groupId": "EG002", "numEvents": 0, "numAffected": 0, "numAtRisk": 7}, {"groupId": "EG003", "numEvents": 0, "numAffected": 0, "numAtRisk": 91}]}, {"term": "Venous pressure jugular increased", "organSystem": "Investigations", "sourceVocabulary": "MedDra 20.0", "assessmentType": "SYSTEMATIC_ASSESSMENT", "stats": [{"groupId": "EG000", "numEvents": 2, "numAffected": 2, "numAtRisk": 90}, {"groupId": "EG001", "numEvents": 0, "numAffected": 0, "numAtRisk": 7}, {"groupId": "EG002", "numEvents": 0, "numAffected": 0, "numAtRisk": 7}, {"groupId": "EG003", "numEvents": 0, "numAffected": 0, "numAtRisk": 91}]}, {"term": "Blood potassium increased", "organSystem": "Investigations", "sourceVocabulary": "MedDra 20.0", "assessmentType": "SYSTEMATIC_ASSESSMENT", "stats": [{"groupId": "EG000", "numEvents": 1, "numAffected": 1, "numAtRisk": 90}, {"groupId": "EG001", "numEvents": 0, "numAffected": 0, "numAtRisk": 7}, {"groupId": "EG002", "numEvents": 0, "numAffected": 0, "numAtRisk": 7}, {"groupId": "EG003", "numEvents": 0, "numAffected": 0, "numAtRisk": 91}]}, {"term": "Blood pressure increased", "organSystem": "Investigations", "sourceVocabulary": "MedDra 20.0", "assessmentType": "SYSTEMATIC_ASSESSMENT", "stats": [{"groupId": "EG000", "numEvents": 1, "numAffected": 1, "numAtRisk": 90}, {"groupId": "EG001", "numEvents": 0, "numAffected": 0, "numAtRisk": 7}, {"groupId": "EG002", "numEvents": 0, "numAffected": 0, "numAtRisk": 7}, {"groupId": "EG003", "numEvents": 0, "numAffected": 0, "numAtRisk": 91}]}, {"term": "Blood sodium decreased", "organSystem": "Investigations", "sourceVocabulary": "MedDra 20.0", "assessmentType": "SYSTEMATIC_ASSESSMENT", "stats": [{"groupId": "EG000", "numEvents": 1, "numAffected": 1, "numAtRisk": 90}, {"groupId": "EG001", "numEvents": 0, "numAffected": 0, "numAtRisk": 7}, {"groupId": "EG002", "numEvents": 0, "numAffected": 0, "numAtRisk": 7}, {"groupId": "EG003", "numEvents": 0, "numAffected": 0, "numAtRisk": 91}]}, {"term": "Blood urea increased", "organSystem": "Investigations", "sourceVocabulary": "MedDra 20.0", "assessmentType": "SYSTEMATIC_ASSESSMENT", "stats": [{"groupId": "EG000", "numEvents": 1, "numAffected": 1, "numAtRisk": 90}, {"groupId": "EG001", "numEvents": 0, "numAffected": 0, "numAtRisk": 7}, {"groupId": "EG002", "numEvents": 0, "numAffected": 0, "numAtRisk": 7}, {"groupId": "EG003", "numEvents": 0, "numAffected": 0, "numAtRisk": 91}]}, {"term": "Glomerular filtration rate decreased", "organSystem": "Investigations", "sourceVocabulary": "MedDra 20.0", "assessmentType": "SYSTEMATIC_ASSESSMENT", "stats": [{"groupId": "EG000", "numEvents": 1, "numAffected": 1, "numAtRisk": 90}, {"groupId": "EG001", "numEvents": 0, "numAffected": 0, "numAtRisk": 7}, {"groupId": "EG002", "numEvents": 0, "numAffected": 0, "numAtRisk": 7}, {"groupId": "EG003", "numEvents": 0, "numAffected": 0, "numAtRisk": 91}]}, {"term": "International normalised ratio increased", "organSystem": "Investigations", "sourceVocabulary": "MedDra 20.0", "assessmentType": "SYSTEMATIC_ASSESSMENT", "stats": [{"groupId": "EG000", "numEvents": 1, "numAffected": 1, "numAtRisk": 90}, {"groupId": "EG001", "numEvents": 0, "numAffected": 0, "numAtRisk": 7}, {"groupId": "EG002", "numEvents": 0, "numAffected": 0, "numAtRisk": 7}, {"groupId": "EG003", "numEvents": 0, "numAffected": 0, "numAtRisk": 91}]}, {"term": "White blood cell count increased", "organSystem": "Investigations", "sourceVocabulary": "MedDra 20.0", "assessmentType": "SYSTEMATIC_ASSESSMENT", "stats": [{"groupId": "EG000", "numEvents": 1, "numAffected": 1, "numAtRisk": 90}, {"groupId": "EG001", "numEvents": 0, "numAffected": 0, "numAtRisk": 7}, {"groupId": "EG002", "numEvents": 0, "numAffected": 0, "numAtRisk": 7}, {"groupId": "EG003", "numEvents": 0, "numAffected": 0, "numAtRisk": 91}]}, {"term": "Hyperkalaemia", "organSystem": "Metabolism and nutrition disorders", "sourceVocabulary": "MedDra 20.0", "assessmentType": "SYSTEMATIC_ASSESSMENT", "stats": [{"groupId": "EG000", "numEvents": 3, "numAffected": 3, "numAtRisk": 90}, {"groupId": "EG001", "numEvents": 0, "numAffected": 0, "numAtRisk": 7}, {"groupId": "EG002", "numEvents": 0, "numAffected": 0, "numAtRisk": 7}, {"groupId": "EG003", "numEvents": 3, "numAffected": 3, "numAtRisk": 91}]}, {"term": "Hypoglycaemia", "organSystem": "Metabolism and nutrition disorders", "sourceVocabulary": "MedDra 20.0", "assessmentType": "SYSTEMATIC_ASSESSMENT", "stats": [{"groupId": "EG000", "numEvents": 2, "numAffected": 2, "numAtRisk": 90}, {"groupId": "EG001", "numEvents": 0, "numAffected": 0, "numAtRisk": 7}, {"groupId": "EG002", "numEvents": 0, "numAffected": 0, "numAtRisk": 7}, {"groupId": "EG003", "numEvents": 2, "numAffected": 2, "numAtRisk": 91}]}, {"term": "Fluid overload", "organSystem": "Metabolism and nutrition disorders", "sourceVocabulary": "MedDra 20.0", "assessmentType": "SYSTEMATIC_ASSESSMENT", "stats": [{"groupId": "EG000", "numEvents": 0, "numAffected": 0, "numAtRisk": 90}, {"groupId": "EG001", "numEvents": 0, "numAffected": 0, "numAtRisk": 7}, {"groupId": "EG002", "numEvents": 0, "numAffected": 0, "numAtRisk": 7}, {"groupId": "EG003", "numEvents": 2, "numAffected": 2, "numAtRisk": 91}]}, {"term": "Type 2 diabetes mellitus", "organSystem": "Metabolism and nutrition disorders", "sourceVocabulary": "MedDra 20.0", "assessmentType": "SYSTEMATIC_ASSESSMENT", "stats": [{"groupId": "EG000", "numEvents": 0, "numAffected": 0, "numAtRisk": 90}, {"groupId": "EG001", "numEvents": 0, "numAffected": 0, "numAtRisk": 7}, {"groupId": "EG002", "numEvents": 1, "numAffected": 1, "numAtRisk": 7}, {"groupId": "EG003", "numEvents": 1, "numAffected": 1, "numAtRisk": 91}]}, {"term": "Hyponatraemia", "organSystem": "Metabolism and nutrition disorders", "sourceVocabulary": "MedDra 20.0", "assessmentType": "SYSTEMATIC_ASSESSMENT", "stats": [{"groupId": "EG000", "numEvents": 2, "numAffected": 2, "numAtRisk": 90}, {"groupId": "EG001", "numEvents": 0, "numAffected": 0, "numAtRisk": 7}, {"groupId": "EG002", "numEvents": 0, "numAffected": 0, "numAtRisk": 7}, {"groupId": "EG003", "numEvents": 1, "numAffected": 1, "numAtRisk": 91}]}, {"term": "Diabetes mellitus", "organSystem": "Metabolism and nutrition disorders", "sourceVocabulary": "MedDra 20.0", "assessmentType": "SYSTEMATIC_ASSESSMENT", "stats": [{"groupId": "EG000", "numEvents": 1, "numAffected": 1, "numAtRisk": 90}, {"groupId": "EG001", "numEvents": 0, "numAffected": 0, "numAtRisk": 7}, {"groupId": "EG002", "numEvents": 0, "numAffected": 0, "numAtRisk": 7}, {"groupId": "EG003", "numEvents": 1, "numAffected": 1, "numAtRisk": 91}]}, {"term": "Hypomagnesaemia", "organSystem": "Metabolism and nutrition disorders", "sourceVocabulary": "MedDra 20.0", "assessmentType": "SYSTEMATIC_ASSESSMENT", "stats": [{"groupId": "EG000", "numEvents": 1, "numAffected": 1, "numAtRisk": 90}, {"groupId": "EG001", "numEvents": 0, "numAffected": 0, "numAtRisk": 7}, {"groupId": "EG002", "numEvents": 0, "numAffected": 0, "numAtRisk": 7}, {"groupId": "EG003", "numEvents": 1, "numAffected": 1, "numAtRisk": 91}]}, {"term": "Glucose tolerance impaired", "organSystem": "Metabolism and nutrition disorders", "sourceVocabulary": "MedDra 20.0", "assessmentType": "SYSTEMATIC_ASSESSMENT", "stats": [{"groupId": "EG000", "numEvents": 0, "numAffected": 0, "numAtRisk": 90}, {"groupId": "EG001", "numEvents": 0, "numAffected": 0, "numAtRisk": 7}, {"groupId": "EG002", "numEvents": 0, "numAffected": 0, "numAtRisk": 7}, {"groupId": "EG003", "numEvents": 1, "numAffected": 1, "numAtRisk": 91}]}, {"term": "Hypercreatininaemia", "organSystem": "Metabolism and nutrition disorders", "sourceVocabulary": "MedDra 20.0", "assessmentType": "SYSTEMATIC_ASSESSMENT", "stats": [{"groupId": "EG000", "numEvents": 0, "numAffected": 0, "numAtRisk": 90}, {"groupId": "EG001", "numEvents": 0, "numAffected": 0, "numAtRisk": 7}, {"groupId": "EG002", "numEvents": 0, "numAffected": 0, "numAtRisk": 7}, {"groupId": "EG003", "numEvents": 1, "numAffected": 1, "numAtRisk": 91}]}, {"term": "Hyperglycaemia", "organSystem": "Metabolism and nutrition disorders", "sourceVocabulary": "MedDra 20.0", "assessmentType": "SYSTEMATIC_ASSESSMENT", "stats": [{"groupId": "EG000", "numEvents": 0, "numAffected": 0, "numAtRisk": 90}, {"groupId": "EG001", "numEvents": 0, "numAffected": 0, "numAtRisk": 7}, {"groupId": "EG002", "numEvents": 0, "numAffected": 0, "numAtRisk": 7}, {"groupId": "EG003", "numEvents": 1, "numAffected": 1, "numAtRisk": 91}]}, {"term": "Malnutrition", "organSystem": "Metabolism and nutrition disorders", "sourceVocabulary": "MedDra 20.0", "assessmentType": "SYSTEMATIC_ASSESSMENT", "stats": [{"groupId": "EG000", "numEvents": 0, "numAffected": 0, "numAtRisk": 90}, {"groupId": "EG001", "numEvents": 0, "numAffected": 0, "numAtRisk": 7}, {"groupId": "EG002", "numEvents": 0, "numAffected": 0, "numAtRisk": 7}, {"groupId": "EG003", "numEvents": 1, "numAffected": 1, "numAtRisk": 91}]}, {"term": "Hypertriglyceridaemia", "organSystem": "Metabolism and nutrition disorders", "sourceVocabulary": "MedDra 20.0", "assessmentType": "SYSTEMATIC_ASSESSMENT", "stats": [{"groupId": "EG000", "numEvents": 0, "numAffected": 0, "numAtRisk": 90}, {"groupId": "EG001", "numEvents": 0, "numAffected": 0, "numAtRisk": 7}, {"groupId": "EG002", "numEvents": 1, "numAffected": 1, "numAtRisk": 7}, {"groupId": "EG003", "numEvents": 0, "numAffected": 0, "numAtRisk": 91}]}, {"term": "Decreased appetite", "organSystem": "Metabolism and nutrition disorders", "sourceVocabulary": "MedDra 20.0", "assessmentType": "SYSTEMATIC_ASSESSMENT", "stats": [{"groupId": "EG000", "numEvents": 1, "numAffected": 1, "numAtRisk": 90}, {"groupId": "EG001", "numEvents": 1, "numAffected": 1, "numAtRisk": 7}, {"groupId": "EG002", "numEvents": 0, "numAffected": 0, "numAtRisk": 7}, {"groupId": "EG003", "numEvents": 0, "numAffected": 0, "numAtRisk": 91}]}, {"term": "Dehydration", "organSystem": "Metabolism and nutrition disorders", "sourceVocabulary": "MedDra 20.0", "assessmentType": "SYSTEMATIC_ASSESSMENT", "stats": [{"groupId": "EG000", "numEvents": 1, "numAffected": 1, "numAtRisk": 90}, {"groupId": "EG001", "numEvents": 0, "numAffected": 0, "numAtRisk": 7}, {"groupId": "EG002", "numEvents": 0, "numAffected": 0, "numAtRisk": 7}, {"groupId": "EG003", "numEvents": 0, "numAffected": 0, "numAtRisk": 91}]}, {"term": "Gout", "organSystem": "Metabolism and nutrition disorders", "sourceVocabulary": "MedDra 20.0", "assessmentType": "SYSTEMATIC_ASSESSMENT", "stats": [{"groupId": "EG000", "numEvents": 1, "numAffected": 1, "numAtRisk": 90}, {"groupId": "EG001", "numEvents": 0, "numAffected": 0, "numAtRisk": 7}, {"groupId": "EG002", "numEvents": 0, "numAffected": 0, "numAtRisk": 7}, {"groupId": "EG003", "numEvents": 0, "numAffected": 0, "numAtRisk": 91}]}, {"term": "Hypokalaemia", "organSystem": "Metabolism and nutrition disorders", "sourceVocabulary": "MedDra 20.0", "assessmentType": "SYSTEMATIC_ASSESSMENT", "stats": [{"groupId": "EG000", "numEvents": 1, "numAffected": 1, "numAtRisk": 90}, {"groupId": "EG001", "numEvents": 0, "numAffected": 0, "numAtRisk": 7}, {"groupId": "EG002", "numEvents": 0, "numAffected": 0, "numAtRisk": 7}, {"groupId": "EG003", "numEvents": 0, "numAffected": 0, "numAtRisk": 91}]}, {"term": "Back pain", "organSystem": "Musculoskeletal and connective tissue disorders", "sourceVocabulary": "MedDra 20.0", "assessmentType": "SYSTEMATIC_ASSESSMENT", "stats": [{"groupId": "EG000", "numEvents": 1, "numAffected": 1, "numAtRisk": 90}, {"groupId": "EG001", "numEvents": 1, "numAffected": 1, "numAtRisk": 7}, {"groupId": "EG002", "numEvents": 0, "numAffected": 0, "numAtRisk": 7}, {"groupId": "EG003", "numEvents": 3, "numAffected": 3, "numAtRisk": 91}]}, {"term": "Arthralgia", "organSystem": "Musculoskeletal and connective tissue disorders", "sourceVocabulary": "MedDra 20.0", "assessmentType": "SYSTEMATIC_ASSESSMENT", "stats": [{"groupId": "EG000", "numEvents": 3, "numAffected": 3, "numAtRisk": 90}, {"groupId": "EG001", "numEvents": 0, "numAffected": 0, "numAtRisk": 7}, {"groupId": "EG002", "numEvents": 0, "numAffected": 0, "numAtRisk": 7}, {"groupId": "EG003", "numEvents": 4, "numAffected": 3, "numAtRisk": 91}]}, {"term": "Myalgia", "organSystem": "Musculoskeletal and connective tissue disorders", "sourceVocabulary": "MedDra 20.0", "assessmentType": "SYSTEMATIC_ASSESSMENT", "stats": [{"groupId": "EG000", "numEvents": 0, "numAffected": 0, "numAtRisk": 90}, {"groupId": "EG001", "numEvents": 0, "numAffected": 0, "numAtRisk": 7}, {"groupId": "EG002", "numEvents": 0, "numAffected": 0, "numAtRisk": 7}, {"groupId": "EG003", "numEvents": 2, "numAffected": 2, "numAtRisk": 91}]}, {"term": "Muscle spasms", "organSystem": "Musculoskeletal and connective tissue disorders", "sourceVocabulary": "MedDra 20.0", "assessmentType": "SYSTEMATIC_ASSESSMENT", "stats": [{"groupId": "EG000", "numEvents": 1, "numAffected": 1, "numAtRisk": 90}, {"groupId": "EG001", "numEvents": 0, "numAffected": 0, "numAtRisk": 7}, {"groupId": "EG002", "numEvents": 0, "numAffected": 0, "numAtRisk": 7}, {"groupId": "EG003", "numEvents": 1, "numAffected": 1, "numAtRisk": 91}]}, {"term": "Pain in extremity", "organSystem": "Musculoskeletal and connective tissue disorders", "sourceVocabulary": "MedDra 20.0", "assessmentType": "SYSTEMATIC_ASSESSMENT", "stats": [{"groupId": "EG000", "numEvents": 1, "numAffected": 1, "numAtRisk": 90}, {"groupId": "EG001", "numEvents": 0, "numAffected": 0, "numAtRisk": 7}, {"groupId": "EG002", "numEvents": 0, "numAffected": 0, "numAtRisk": 7}, {"groupId": "EG003", "numEvents": 1, "numAffected": 1, "numAtRisk": 91}]}, {"term": "Musculoskeletal pain", "organSystem": "Musculoskeletal and connective tissue disorders", "sourceVocabulary": "MedDra 20.0", "assessmentType": "SYSTEMATIC_ASSESSMENT", "stats": [{"groupId": "EG000", "numEvents": 0, "numAffected": 0, "numAtRisk": 90}, {"groupId": "EG001", "numEvents": 0, "numAffected": 0, "numAtRisk": 7}, {"groupId": "EG002", "numEvents": 0, "numAffected": 0, "numAtRisk": 7}, {"groupId": "EG003", "numEvents": 1, "numAffected": 1, "numAtRisk": 91}]}, {"term": "Neck pain", "organSystem": "Musculoskeletal and connective tissue disorders", "sourceVocabulary": "MedDra 20.0", "assessmentType": "SYSTEMATIC_ASSESSMENT", "stats": [{"groupId": "EG000", "numEvents": 0, "numAffected": 0, "numAtRisk": 90}, {"groupId": "EG001", "numEvents": 0, "numAffected": 0, "numAtRisk": 7}, {"groupId": "EG002", "numEvents": 0, "numAffected": 0, "numAtRisk": 7}, {"groupId": "EG003", "numEvents": 1, "numAffected": 1, "numAtRisk": 91}]}, {"term": "Rotator cuff syndrome", "organSystem": "Musculoskeletal and connective tissue disorders", "sourceVocabulary": "MedDra 20.0", "assessmentType": "SYSTEMATIC_ASSESSMENT", "stats": [{"groupId": "EG000", "numEvents": 0, "numAffected": 0, "numAtRisk": 90}, {"groupId": "EG001", "numEvents": 0, "numAffected": 0, "numAtRisk": 7}, {"groupId": "EG002", "numEvents": 0, "numAffected": 0, "numAtRisk": 7}, {"groupId": "EG003", "numEvents": 1, "numAffected": 1, "numAtRisk": 91}]}, {"term": "Osteoarthritis", "organSystem": "Musculoskeletal and connective tissue disorders", "sourceVocabulary": "MedDra 20.0", "assessmentType": "SYSTEMATIC_ASSESSMENT", "stats": [{"groupId": "EG000", "numEvents": 3, "numAffected": 3, "numAtRisk": 90}, {"groupId": "EG001", "numEvents": 0, "numAffected": 0, "numAtRisk": 7}, {"groupId": "EG002", "numEvents": 0, "numAffected": 0, "numAtRisk": 7}, {"groupId": "EG003", "numEvents": 0, "numAffected": 0, "numAtRisk": 91}]}, {"term": "Arthritis", "organSystem": "Musculoskeletal and connective tissue disorders", "sourceVocabulary": "MedDra 20.0", "assessmentType": "SYSTEMATIC_ASSESSMENT", "stats": [{"groupId": "EG000", "numEvents": 1, "numAffected": 1, "numAtRisk": 90}, {"groupId": "EG001", "numEvents": 0, "numAffected": 0, "numAtRisk": 7}, {"groupId": "EG002", "numEvents": 0, "numAffected": 0, "numAtRisk": 7}, {"groupId": "EG003", "numEvents": 0, "numAffected": 0, "numAtRisk": 91}]}, {"term": "Costochondritis", "organSystem": "Musculoskeletal and connective tissue disorders", "sourceVocabulary": "MedDra 20.0", "assessmentType": "SYSTEMATIC_ASSESSMENT", "stats": [{"groupId": "EG000", "numEvents": 1, "numAffected": 1, "numAtRisk": 90}, {"groupId": "EG001", "numEvents": 0, "numAffected": 0, "numAtRisk": 7}, {"groupId": "EG002", "numEvents": 0, "numAffected": 0, "numAtRisk": 7}, {"groupId": "EG003", "numEvents": 0, "numAffected": 0, "numAtRisk": 91}]}, {"term": "Osteopenia", "organSystem": "Musculoskeletal and connective tissue disorders", "sourceVocabulary": "MedDra 20.0", "assessmentType": "SYSTEMATIC_ASSESSMENT", "stats": [{"groupId": "EG000", "numEvents": 1, "numAffected": 1, "numAtRisk": 90}, {"groupId": "EG001", "numEvents": 0, "numAffected": 0, "numAtRisk": 7}, {"groupId": "EG002", "numEvents": 0, "numAffected": 0, "numAtRisk": 7}, {"groupId": "EG003", "numEvents": 0, "numAffected": 0, "numAtRisk": 91}]}, {"term": "Acoustic neuroma", "organSystem": "Neoplasms benign, malignant and unspecified (incl cysts and polyps)", "sourceVocabulary": "MedDra 20.0", "assessmentType": "SYSTEMATIC_ASSESSMENT", "stats": [{"groupId": "EG000", "numEvents": 0, "numAffected": 0, "numAtRisk": 90}, {"groupId": "EG001", "numEvents": 0, "numAffected": 0, "numAtRisk": 7}, {"groupId": "EG002", "numEvents": 0, "numAffected": 0, "numAtRisk": 7}, {"groupId": "EG003", "numEvents": 1, "numAffected": 1, "numAtRisk": 91}]}, {"term": "Basal cell carcinoma", "organSystem": "Neoplasms benign, malignant and unspecified (incl cysts and polyps)", "sourceVocabulary": "MedDra 20.0", "assessmentType": "SYSTEMATIC_ASSESSMENT", "stats": [{"groupId": "EG000", "numEvents": 0, "numAffected": 0, "numAtRisk": 90}, {"groupId": "EG001", "numEvents": 0, "numAffected": 0, "numAtRisk": 7}, {"groupId": "EG002", "numEvents": 0, "numAffected": 0, "numAtRisk": 7}, {"groupId": "EG003", "numEvents": 1, "numAffected": 1, "numAtRisk": 91}]}, {"term": "Squamous cell carcinoma of skin", "organSystem": "Neoplasms benign, malignant and unspecified (incl cysts and polyps)", "sourceVocabulary": "MedDra 20.0", "assessmentType": "SYSTEMATIC_ASSESSMENT", "stats": [{"groupId": "EG000", "numEvents": 0, "numAffected": 0, "numAtRisk": 90}, {"groupId": "EG001", "numEvents": 0, "numAffected": 0, "numAtRisk": 7}, {"groupId": "EG002", "numEvents": 0, "numAffected": 0, "numAtRisk": 7}, {"groupId": "EG003", "numEvents": 1, "numAffected": 1, "numAtRisk": 91}]}, {"term": "Bladder transitional cell carcinoma", "organSystem": "Neoplasms benign, malignant and unspecified (incl cysts and polyps)", "sourceVocabulary": "MedDra 20.0", "assessmentType": "SYSTEMATIC_ASSESSMENT", "stats": [{"groupId": "EG000", "numEvents": 1, "numAffected": 1, "numAtRisk": 90}, {"groupId": "EG001", "numEvents": 0, "numAffected": 0, "numAtRisk": 7}, {"groupId": "EG002", "numEvents": 0, "numAffected": 0, "numAtRisk": 7}, {"groupId": "EG003", "numEvents": 0, "numAffected": 0, "numAtRisk": 91}]}, {"term": "Hypergammaglobulinaemia benign monoclonal", "organSystem": "Neoplasms benign, malignant and unspecified (incl cysts and polyps)", "sourceVocabulary": "MedDra 20.0", "assessmentType": "SYSTEMATIC_ASSESSMENT", "stats": [{"groupId": "EG000", "numEvents": 1, "numAffected": 1, "numAtRisk": 90}, {"groupId": "EG001", "numEvents": 0, "numAffected": 0, "numAtRisk": 7}, {"groupId": "EG002", "numEvents": 0, "numAffected": 0, "numAtRisk": 7}, {"groupId": "EG003", "numEvents": 0, "numAffected": 0, "numAtRisk": 91}]}, {"term": "Skin cancer", "organSystem": "Neoplasms benign, malignant and unspecified (incl cysts and polyps)", "sourceVocabulary": "MedDra 20.0", "assessmentType": "SYSTEMATIC_ASSESSMENT", "stats": [{"groupId": "EG000", "numEvents": 1, "numAffected": 1, "numAtRisk": 90}, {"groupId": "EG001", "numEvents": 0, "numAffected": 0, "numAtRisk": 7}, {"groupId": "EG002", "numEvents": 0, "numAffected": 0, "numAtRisk": 7}, {"groupId": "EG003", "numEvents": 0, "numAffected": 0, "numAtRisk": 91}]}, {"term": "Headache", "organSystem": "Nervous system disorders", "sourceVocabulary": "MedDra 20.0", "assessmentType": "SYSTEMATIC_ASSESSMENT", "stats": [{"groupId": "EG000", "numEvents": 7, "numAffected": 6, "numAtRisk": 90}, {"groupId": "EG001", "numEvents": 1, "numAffected": 1, "numAtRisk": 7}, {"groupId": "EG002", "numEvents": 0, "numAffected": 0, "numAtRisk": 7}, {"groupId": "EG003", "numEvents": 10, "numAffected": 10, "numAtRisk": 91}]}, {"term": "Dizziness", "organSystem": "Nervous system disorders", "sourceVocabulary": "MedDra 20.0", "assessmentType": "SYSTEMATIC_ASSESSMENT", "stats": [{"groupId": "EG000", "numEvents": 1, "numAffected": 1, "numAtRisk": 90}, {"groupId": "EG001", "numEvents": 0, "numAffected": 0, "numAtRisk": 7}, {"groupId": "EG002", "numEvents": 0, "numAffected": 0, "numAtRisk": 7}, {"groupId": "EG003", "numEvents": 9, "numAffected": 8, "numAtRisk": 91}]}, {"term": "Sciatica", "organSystem": "Nervous system disorders", "sourceVocabulary": "MedDra 20.0", "assessmentType": "SYSTEMATIC_ASSESSMENT", "stats": [{"groupId": "EG000", "numEvents": 2, "numAffected": 2, "numAtRisk": 90}, {"groupId": "EG001", "numEvents": 0, "numAffected": 0, "numAtRisk": 7}, {"groupId": "EG002", "numEvents": 0, "numAffected": 0, "numAtRisk": 7}, {"groupId": "EG003", "numEvents": 2, "numAffected": 2, "numAtRisk": 91}]}, {"term": "Cervical radiculopathy", "organSystem": "Nervous system disorders", "sourceVocabulary": "MedDra 20.0", "assessmentType": "SYSTEMATIC_ASSESSMENT", "stats": [{"groupId": "EG000", "numEvents": 0, "numAffected": 0, "numAtRisk": 90}, {"groupId": "EG001", "numEvents": 0, "numAffected": 0, "numAtRisk": 7}, {"groupId": "EG002", "numEvents": 0, "numAffected": 0, "numAtRisk": 7}, {"groupId": "EG003", "numEvents": 1, "numAffected": 1, "numAtRisk": 91}]}, {"term": "Restless legs syndrome", "organSystem": "Nervous system disorders", "sourceVocabulary": "MedDra 20.0", "assessmentType": "SYSTEMATIC_ASSESSMENT", "stats": [{"groupId": "EG000", "numEvents": 0, "numAffected": 0, "numAtRisk": 90}, {"groupId": "EG001", "numEvents": 0, "numAffected": 0, "numAtRisk": 7}, {"groupId": "EG002", "numEvents": 0, "numAffected": 0, "numAtRisk": 7}, {"groupId": "EG003", "numEvents": 1, "numAffected": 1, "numAtRisk": 91}]}, {"term": "Presyncope", "organSystem": "Nervous system disorders", "sourceVocabulary": "MedDra 20.0", "assessmentType": "SYSTEMATIC_ASSESSMENT", "stats": [{"groupId": "EG000", "numEvents": 0, "numAffected": 0, "numAtRisk": 90}, {"groupId": "EG001", "numEvents": 0, "numAffected": 0, "numAtRisk": 7}, {"groupId": "EG002", "numEvents": 1, "numAffected": 1, "numAtRisk": 7}, {"groupId": "EG003", "numEvents": 0, "numAffected": 0, "numAtRisk": 91}]}, {"term": "Aura", "organSystem": "Nervous system disorders", "sourceVocabulary": "MedDra 20.0", "assessmentType": "SYSTEMATIC_ASSESSMENT", "stats": [{"groupId": "EG000", "numEvents": 1, "numAffected": 1, "numAtRisk": 90}, {"groupId": "EG001", "numEvents": 0, "numAffected": 0, "numAtRisk": 7}, {"groupId": "EG002", "numEvents": 0, "numAffected": 0, "numAtRisk": 7}, {"groupId": "EG003", "numEvents": 0, "numAffected": 0, "numAtRisk": 91}]}, {"term": "Burning sensation", "organSystem": "Nervous system disorders", "sourceVocabulary": "MedDra 20.0", "assessmentType": "SYSTEMATIC_ASSESSMENT", "stats": [{"groupId": "EG000", "numEvents": 1, "numAffected": 1, "numAtRisk": 90}, {"groupId": "EG001", "numEvents": 0, "numAffected": 0, "numAtRisk": 7}, {"groupId": "EG002", "numEvents": 0, "numAffected": 0, "numAtRisk": 7}, {"groupId": "EG003", "numEvents": 0, "numAffected": 0, "numAtRisk": 91}]}, {"term": "Cognitive disorder", "organSystem": "Nervous system disorders", "sourceVocabulary": "MedDra 20.0", "assessmentType": "SYSTEMATIC_ASSESSMENT", "stats": [{"groupId": "EG000", "numEvents": 1, "numAffected": 1, "numAtRisk": 90}, {"groupId": "EG001", "numEvents": 0, "numAffected": 0, "numAtRisk": 7}, {"groupId": "EG002", "numEvents": 0, "numAffected": 0, "numAtRisk": 7}, {"groupId": "EG003", "numEvents": 0, "numAffected": 0, "numAtRisk": 91}]}, {"term": "Insomnia", "organSystem": "Psychiatric disorders", "sourceVocabulary": "MedDra 20.0", "assessmentType": "SYSTEMATIC_ASSESSMENT", "stats": [{"groupId": "EG000", "numEvents": 2, "numAffected": 2, "numAtRisk": 90}, {"groupId": "EG001", "numEvents": 1, "numAffected": 1, "numAtRisk": 7}, {"groupId": "EG002", "numEvents": 0, "numAffected": 0, "numAtRisk": 7}, {"groupId": "EG003", "numEvents": 4, "numAffected": 4, "numAtRisk": 91}]}, {"term": "Depression", "organSystem": "Psychiatric disorders", "sourceVocabulary": "MedDra 20.0", "assessmentType": "SYSTEMATIC_ASSESSMENT", "stats": [{"groupId": "EG000", "numEvents": 0, "numAffected": 0, "numAtRisk": 90}, {"groupId": "EG001", "numEvents": 0, "numAffected": 0, "numAtRisk": 7}, {"groupId": "EG002", "numEvents": 0, "numAffected": 0, "numAtRisk": 7}, {"groupId": "EG003", "numEvents": 3, "numAffected": 3, "numAtRisk": 91}]}, {"term": "Anxiety", "organSystem": "Psychiatric disorders", "sourceVocabulary": "MedDra 20.0", "assessmentType": "SYSTEMATIC_ASSESSMENT", "stats": [{"groupId": "EG000", "numEvents": 0, "numAffected": 0, "numAtRisk": 90}, {"groupId": "EG001", "numEvents": 0, "numAffected": 0, "numAtRisk": 7}, {"groupId": "EG002", "numEvents": 0, "numAffected": 0, "numAtRisk": 7}, {"groupId": "EG003", "numEvents": 1, "numAffected": 1, "numAtRisk": 91}]}, {"term": "Delirium", "organSystem": "Psychiatric disorders", "sourceVocabulary": "MedDra 20.0", "assessmentType": "SYSTEMATIC_ASSESSMENT", "stats": [{"groupId": "EG000", "numEvents": 0, "numAffected": 0, "numAtRisk": 90}, {"groupId": "EG001", "numEvents": 0, "numAffected": 0, "numAtRisk": 7}, {"groupId": "EG002", "numEvents": 0, "numAffected": 0, "numAtRisk": 7}, {"groupId": "EG003", "numEvents": 1, "numAffected": 1, "numAtRisk": 91}]}, {"term": "Disorientation", "organSystem": "Psychiatric disorders", "sourceVocabulary": "MedDra 20.0", "assessmentType": "SYSTEMATIC_ASSESSMENT", "stats": [{"groupId": "EG000", "numEvents": 0, "numAffected": 0, "numAtRisk": 90}, {"groupId": "EG001", "numEvents": 0, "numAffected": 0, "numAtRisk": 7}, {"groupId": "EG002", "numEvents": 0, "numAffected": 0, "numAtRisk": 7}, {"groupId": "EG003", "numEvents": 1, "numAffected": 1, "numAtRisk": 91}]}, {"term": "Abnormal dreams", "organSystem": "Psychiatric disorders", "sourceVocabulary": "MedDra 20.0", "assessmentType": "SYSTEMATIC_ASSESSMENT", "stats": [{"groupId": "EG000", "numEvents": 2, "numAffected": 2, "numAtRisk": 90}, {"groupId": "EG001", "numEvents": 0, "numAffected": 0, "numAtRisk": 7}, {"groupId": "EG002", "numEvents": 0, "numAffected": 0, "numAtRisk": 7}, {"groupId": "EG003", "numEvents": 0, "numAffected": 0, "numAtRisk": 91}]}, {"term": "Pica", "organSystem": "Psychiatric disorders", "sourceVocabulary": "MedDra 20.0", "assessmentType": "SYSTEMATIC_ASSESSMENT", "stats": [{"groupId": "EG000", "numEvents": 1, "numAffected": 1, "numAtRisk": 90}, {"groupId": "EG001", "numEvents": 0, "numAffected": 0, "numAtRisk": 7}, {"groupId": "EG002", "numEvents": 0, "numAffected": 0, "numAtRisk": 7}, {"groupId": "EG003", "numEvents": 0, "numAffected": 0, "numAtRisk": 91}]}, {"term": "Acute kidney injury", "organSystem": "Renal and urinary disorders", "sourceVocabulary": "MedDra 20.0", "assessmentType": "SYSTEMATIC_ASSESSMENT", "stats": [{"groupId": "EG000", "numEvents": 0, "numAffected": 0, "numAtRisk": 90}, {"groupId": "EG001", "numEvents": 1, "numAffected": 1, "numAtRisk": 7}, {"groupId": "EG002", "numEvents": 0, "numAffected": 0, "numAtRisk": 7}, {"groupId": "EG003", "numEvents": 2, "numAffected": 2, "numAtRisk": 91}]}, {"term": "Glycosuria", "organSystem": "Renal and urinary disorders", "sourceVocabulary": "MedDra 20.0", "assessmentType": "SYSTEMATIC_ASSESSMENT", "stats": [{"groupId": "EG000", "numEvents": 0, "numAffected": 0, "numAtRisk": 90}, {"groupId": "EG001", "numEvents": 0, "numAffected": 0, "numAtRisk": 7}, {"groupId": "EG002", "numEvents": 0, "numAffected": 0, "numAtRisk": 7}, {"groupId": "EG003", "numEvents": 1, "numAffected": 1, "numAtRisk": 91}]}, {"term": "Dysuria", "organSystem": "Renal and urinary disorders", "sourceVocabulary": "MedDra 20.0", "assessmentType": "SYSTEMATIC_ASSESSMENT", "stats": [{"groupId": "EG000", "numEvents": 1, "numAffected": 1, "numAtRisk": 90}, {"groupId": "EG001", "numEvents": 0, "numAffected": 0, "numAtRisk": 7}, {"groupId": "EG002", "numEvents": 0, "numAffected": 0, "numAtRisk": 7}, {"groupId": "EG003", "numEvents": 0, "numAffected": 0, "numAtRisk": 91}]}, {"term": "Urinary hesitation", "organSystem": "Renal and urinary disorders", "sourceVocabulary": "MedDra 20.0", "assessmentType": "SYSTEMATIC_ASSESSMENT", "stats": [{"groupId": "EG000", "numEvents": 1, "numAffected": 1, "numAtRisk": 90}, {"groupId": "EG001", "numEvents": 0, "numAffected": 0, "numAtRisk": 7}, {"groupId": "EG002", "numEvents": 0, "numAffected": 0, "numAtRisk": 7}, {"groupId": "EG003", "numEvents": 0, "numAffected": 0, "numAtRisk": 91}]}, {"term": "Balanoposthitis", "organSystem": "Reproductive system and breast disorders", "sourceVocabulary": "MedDra 20.0", "assessmentType": "SYSTEMATIC_ASSESSMENT", "stats": [{"groupId": "EG000", "numEvents": 0, "numAffected": 0, "numAtRisk": 90}, {"groupId": "EG001", "numEvents": 0, "numAffected": 0, "numAtRisk": 7}, {"groupId": "EG002", "numEvents": 0, "numAffected": 0, "numAtRisk": 7}, {"groupId": "EG003", "numEvents": 1, "numAffected": 1, "numAtRisk": 91}]}, {"term": "Prostatitis", "organSystem": "Reproductive system and breast disorders", "sourceVocabulary": "MedDra 20.0", "assessmentType": "SYSTEMATIC_ASSESSMENT", "stats": [{"groupId": "EG000", "numEvents": 0, "numAffected": 0, "numAtRisk": 90}, {"groupId": "EG001", "numEvents": 0, "numAffected": 0, "numAtRisk": 7}, {"groupId": "EG002", "numEvents": 0, "numAffected": 0, "numAtRisk": 7}, {"groupId": "EG003", "numEvents": 1, "numAffected": 1, "numAtRisk": 91}]}, {"term": "Dyspnoea", "organSystem": "Respiratory, thoracic and mediastinal disorders", "sourceVocabulary": "MedDra 20.0", "assessmentType": "SYSTEMATIC_ASSESSMENT", "stats": [{"groupId": "EG000", "numEvents": 7, "numAffected": 6, "numAtRisk": 90}, {"groupId": "EG001", "numEvents": 0, "numAffected": 0, "numAtRisk": 7}, {"groupId": "EG002", "numEvents": 0, "numAffected": 0, "numAtRisk": 7}, {"groupId": "EG003", "numEvents": 3, "numAffected": 3, "numAtRisk": 91}]}, {"term": "Asthma", "organSystem": "Respiratory, thoracic and mediastinal disorders", "sourceVocabulary": "MedDra 20.0", "assessmentType": "SYSTEMATIC_ASSESSMENT", "stats": [{"groupId": "EG000", "numEvents": 0, "numAffected": 0, "numAtRisk": 90}, {"groupId": "EG001", "numEvents": 0, "numAffected": 0, "numAtRisk": 7}, {"groupId": "EG002", "numEvents": 0, "numAffected": 0, "numAtRisk": 7}, {"groupId": "EG003", "numEvents": 3, "numAffected": 2, "numAtRisk": 91}]}, {"term": "Hypoxia", "organSystem": "Respiratory, thoracic and mediastinal disorders", "sourceVocabulary": "MedDra 20.0", "assessmentType": "SYSTEMATIC_ASSESSMENT", "stats": [{"groupId": "EG000", "numEvents": 1, "numAffected": 1, "numAtRisk": 90}, {"groupId": "EG001", "numEvents": 0, "numAffected": 0, "numAtRisk": 7}, {"groupId": "EG002", "numEvents": 0, "numAffected": 0, "numAtRisk": 7}, {"groupId": "EG003", "numEvents": 1, "numAffected": 1, "numAtRisk": 91}]}, {"term": "Pleural effusion", "organSystem": "Respiratory, thoracic and mediastinal disorders", "sourceVocabulary": "MedDra 20.0", "assessmentType": "SYSTEMATIC_ASSESSMENT", "stats": [{"groupId": "EG000", "numEvents": 0, "numAffected": 0, "numAtRisk": 90}, {"groupId": "EG001", "numEvents": 0, "numAffected": 0, "numAtRisk": 7}, {"groupId": "EG002", "numEvents": 0, "numAffected": 0, "numAtRisk": 7}, {"groupId": "EG003", "numEvents": 1, "numAffected": 1, "numAtRisk": 91}]}, {"term": "Dyspnoea exertional", "organSystem": "Respiratory, thoracic and mediastinal disorders", "sourceVocabulary": "MedDra 20.0", "assessmentType": "SYSTEMATIC_ASSESSMENT", "stats": [{"groupId": "EG000", "numEvents": 0, "numAffected": 0, "numAtRisk": 90}, {"groupId": "EG001", "numEvents": 0, "numAffected": 0, "numAtRisk": 7}, {"groupId": "EG002", "numEvents": 1, "numAffected": 1, "numAtRisk": 7}, {"groupId": "EG003", "numEvents": 0, "numAffected": 0, "numAtRisk": 91}]}, {"term": "Rales", "organSystem": "Respiratory, thoracic and mediastinal disorders", "sourceVocabulary": "MedDra 20.0", "assessmentType": "SYSTEMATIC_ASSESSMENT", "stats": [{"groupId": "EG000", "numEvents": 2, "numAffected": 2, "numAtRisk": 90}, {"groupId": "EG001", "numEvents": 0, "numAffected": 0, "numAtRisk": 7}, {"groupId": "EG002", "numEvents": 0, "numAffected": 0, "numAtRisk": 7}, {"groupId": "EG003", "numEvents": 0, "numAffected": 0, "numAtRisk": 91}]}, {"term": "Cough", "organSystem": "Respiratory, thoracic and mediastinal disorders", "sourceVocabulary": "MedDra 20.0", "assessmentType": "SYSTEMATIC_ASSESSMENT", "stats": [{"groupId": "EG000", "numEvents": 1, "numAffected": 1, "numAtRisk": 90}, {"groupId": "EG001", "numEvents": 0, "numAffected": 0, "numAtRisk": 7}, {"groupId": "EG002", "numEvents": 0, "numAffected": 0, "numAtRisk": 7}, {"groupId": "EG003", "numEvents": 0, "numAffected": 0, "numAtRisk": 91}]}, {"term": "Dry throat", "organSystem": "Respiratory, thoracic and mediastinal disorders", "sourceVocabulary": "MedDra 20.0", "assessmentType": "SYSTEMATIC_ASSESSMENT", "stats": [{"groupId": "EG000", "numEvents": 1, "numAffected": 1, "numAtRisk": 90}, {"groupId": "EG001", "numEvents": 0, "numAffected": 0, "numAtRisk": 7}, {"groupId": "EG002", "numEvents": 0, "numAffected": 0, "numAtRisk": 7}, {"groupId": "EG003", "numEvents": 0, "numAffected": 0, "numAtRisk": 91}]}, {"term": "Epistaxis", "organSystem": "Respiratory, thoracic and mediastinal disorders", "sourceVocabulary": "MedDra 20.0", "assessmentType": "SYSTEMATIC_ASSESSMENT", "stats": [{"groupId": "EG000", "numEvents": 1, "numAffected": 1, "numAtRisk": 90}, {"groupId": "EG001", "numEvents": 0, "numAffected": 0, "numAtRisk": 7}, {"groupId": "EG002", "numEvents": 0, "numAffected": 0, "numAtRisk": 7}, {"groupId": "EG003", "numEvents": 0, "numAffected": 0, "numAtRisk": 91}]}, {"term": "Oropharyngeal pain", "organSystem": "Respiratory, thoracic and mediastinal disorders", "sourceVocabulary": "MedDra 20.0", "assessmentType": "SYSTEMATIC_ASSESSMENT", "stats": [{"groupId": "EG000", "numEvents": 1, "numAffected": 1, "numAtRisk": 90}, {"groupId": "EG001", "numEvents": 0, "numAffected": 0, "numAtRisk": 7}, {"groupId": "EG002", "numEvents": 0, "numAffected": 0, "numAtRisk": 7}, {"groupId": "EG003", "numEvents": 0, "numAffected": 0, "numAtRisk": 91}]}, {"term": "Productive cough", "organSystem": "Respiratory, thoracic and mediastinal disorders", "sourceVocabulary": "MedDra 20.0", "assessmentType": "SYSTEMATIC_ASSESSMENT", "stats": [{"groupId": "EG000", "numEvents": 1, "numAffected": 1, "numAtRisk": 90}, {"groupId": "EG001", "numEvents": 0, "numAffected": 0, "numAtRisk": 7}, {"groupId": "EG002", "numEvents": 0, "numAffected": 0, "numAtRisk": 7}, {"groupId": "EG003", "numEvents": 0, "numAffected": 0, "numAtRisk": 91}]}, {"term": "Pruritus", "organSystem": "Skin and subcutaneous tissue disorders", "sourceVocabulary": "MedDra 20.0", "assessmentType": "SYSTEMATIC_ASSESSMENT", "stats": [{"groupId": "EG000", "numEvents": 1, "numAffected": 1, "numAtRisk": 90}, {"groupId": "EG001", "numEvents": 0, "numAffected": 0, "numAtRisk": 7}, {"groupId": "EG002", "numEvents": 0, "numAffected": 0, "numAtRisk": 7}, {"groupId": "EG003", "numEvents": 1, "numAffected": 1, "numAtRisk": 91}]}, {"term": "Erythema", "organSystem": "Skin and subcutaneous tissue disorders", "sourceVocabulary": "MedDra 20.0", "assessmentType": "SYSTEMATIC_ASSESSMENT", "stats": [{"groupId": "EG000", "numEvents": 0, "numAffected": 0, "numAtRisk": 90}, {"groupId": "EG001", "numEvents": 0, "numAffected": 0, "numAtRisk": 7}, {"groupId": "EG002", "numEvents": 0, "numAffected": 0, "numAtRisk": 7}, {"groupId": "EG003", "numEvents": 1, "numAffected": 1, "numAtRisk": 91}]}, {"term": "Seborrhoeic dermatitis", "organSystem": "Skin and subcutaneous tissue disorders", "sourceVocabulary": "MedDra 20.0", "assessmentType": "SYSTEMATIC_ASSESSMENT", "stats": [{"groupId": "EG000", "numEvents": 0, "numAffected": 0, "numAtRisk": 90}, {"groupId": "EG001", "numEvents": 0, "numAffected": 0, "numAtRisk": 7}, {"groupId": "EG002", "numEvents": 0, "numAffected": 0, "numAtRisk": 7}, {"groupId": "EG003", "numEvents": 1, "numAffected": 1, "numAtRisk": 91}]}, {"term": "Urticaria", "organSystem": "Skin and subcutaneous tissue disorders", "sourceVocabulary": "MedDra 20.0", "assessmentType": "SYSTEMATIC_ASSESSMENT", "stats": [{"groupId": "EG000", "numEvents": 0, "numAffected": 0, "numAtRisk": 90}, {"groupId": "EG001", "numEvents": 0, "numAffected": 0, "numAtRisk": 7}, {"groupId": "EG002", "numEvents": 0, "numAffected": 0, "numAtRisk": 7}, {"groupId": "EG003", "numEvents": 1, "numAffected": 1, "numAtRisk": 91}]}, {"term": "Eczema", "organSystem": "Skin and subcutaneous tissue disorders", "sourceVocabulary": "MedDra 20.0", "assessmentType": "SYSTEMATIC_ASSESSMENT", "stats": [{"groupId": "EG000", "numEvents": 0, "numAffected": 0, "numAtRisk": 90}, {"groupId": "EG001", "numEvents": 0, "numAffected": 0, "numAtRisk": 7}, {"groupId": "EG002", "numEvents": 1, "numAffected": 1, "numAtRisk": 7}, {"groupId": "EG003", "numEvents": 0, "numAffected": 0, "numAtRisk": 91}]}, {"term": "Diabetic foot", "organSystem": "Skin and subcutaneous tissue disorders", "sourceVocabulary": "MedDra 20.0", "assessmentType": "SYSTEMATIC_ASSESSMENT", "stats": [{"groupId": "EG000", "numEvents": 1, "numAffected": 1, "numAtRisk": 90}, {"groupId": "EG001", "numEvents": 0, "numAffected": 0, "numAtRisk": 7}, {"groupId": "EG002", "numEvents": 0, "numAffected": 0, "numAtRisk": 7}, {"groupId": "EG003", "numEvents": 0, "numAffected": 0, "numAtRisk": 91}]}, {"term": "Night sweats", "organSystem": "Skin and subcutaneous tissue disorders", "sourceVocabulary": "MedDra 20.0", "assessmentType": "SYSTEMATIC_ASSESSMENT", "stats": [{"groupId": "EG000", "numEvents": 1, "numAffected": 1, "numAtRisk": 90}, {"groupId": "EG001", "numEvents": 0, "numAffected": 0, "numAtRisk": 7}, {"groupId": "EG002", "numEvents": 0, "numAffected": 0, "numAtRisk": 7}, {"groupId": "EG003", "numEvents": 0, "numAffected": 0, "numAtRisk": 91}]}, {"term": "Sinus operation", "organSystem": "Surgical and medical procedures", "sourceVocabulary": "MedDra 20.0", "assessmentType": "SYSTEMATIC_ASSESSMENT", "stats": [{"groupId": "EG000", "numEvents": 1, "numAffected": 1, "numAtRisk": 90}, {"groupId": "EG001", "numEvents": 0, "numAffected": 0, "numAtRisk": 7}, {"groupId": "EG002", "numEvents": 0, "numAffected": 0, "numAtRisk": 7}, {"groupId": "EG003", "numEvents": 0, "numAffected": 0, "numAtRisk": 91}]}, {"term": "Hypotension", "organSystem": "Vascular disorders", "sourceVocabulary": "MedDra 20.0", "assessmentType": "SYSTEMATIC_ASSESSMENT", "stats": [{"groupId": "EG000", "numEvents": 0, "numAffected": 0, "numAtRisk": 90}, {"groupId": "EG001", "numEvents": 0, "numAffected": 0, "numAtRisk": 7}, {"groupId": "EG002", "numEvents": 0, "numAffected": 0, "numAtRisk": 7}, {"groupId": "EG003", "numEvents": 9, "numAffected": 8, "numAtRisk": 91}]}, {"term": "Flushing", "organSystem": "Vascular disorders", "sourceVocabulary": "MedDra 20.0", "assessmentType": "SYSTEMATIC_ASSESSMENT", "stats": [{"groupId": "EG000", "numEvents": 0, "numAffected": 0, "numAtRisk": 90}, {"groupId": "EG001", "numEvents": 0, "numAffected": 0, "numAtRisk": 7}, {"groupId": "EG002", "numEvents": 0, "numAffected": 0, "numAtRisk": 7}, {"groupId": "EG003", "numEvents": 2, "numAffected": 2, "numAtRisk": 91}]}, {"term": "Hypertension", "organSystem": "Vascular disorders", "sourceVocabulary": "MedDra 20.0", "assessmentType": "SYSTEMATIC_ASSESSMENT", "stats": [{"groupId": "EG000", "numEvents": 2, "numAffected": 2, "numAtRisk": 90}, {"groupId": "EG001", "numEvents": 0, "numAffected": 0, "numAtRisk": 7}, {"groupId": "EG002", "numEvents": 0, "numAffected": 0, "numAtRisk": 7}, {"groupId": "EG003", "numEvents": 1, "numAffected": 1, "numAtRisk": 91}]}, {"term": "Arterioenteric fistula", "organSystem": "Vascular disorders", "sourceVocabulary": "MedDra 20.0", "assessmentType": "SYSTEMATIC_ASSESSMENT", "stats": [{"groupId": "EG000", "numEvents": 0, "numAffected": 0, "numAtRisk": 90}, {"groupId": "EG001", "numEvents": 0, "numAffected": 0, "numAtRisk": 7}, {"groupId": "EG002", "numEvents": 0, "numAffected": 0, "numAtRisk": 7}, {"groupId": "EG003", "numEvents": 1, "numAffected": 1, "numAtRisk": 91}]}, {"term": "Orthostatic hypotension", "organSystem": "Vascular disorders", "sourceVocabulary": "MedDra 20.0", "assessmentType": "SYSTEMATIC_ASSESSMENT", "stats": [{"groupId": "EG000", "numEvents": 0, "numAffected": 0, "numAtRisk": 90}, {"groupId": "EG001", "numEvents": 0, "numAffected": 0, "numAtRisk": 7}, {"groupId": "EG002", "numEvents": 0, "numAffected": 0, "numAtRisk": 7}, {"groupId": "EG003", "numEvents": 1, "numAffected": 1, "numAtRisk": 91}]}, {"term": "Thrombophlebitis", "organSystem": "Vascular disorders", "sourceVocabulary": "MedDra 20.0", "assessmentType": "SYSTEMATIC_ASSESSMENT", "stats": [{"groupId": "EG000", "numEvents": 0, "numAffected": 0, "numAtRisk": 90}, {"groupId": "EG001", "numEvents": 0, "numAffected": 0, "numAtRisk": 7}, {"groupId": "EG002", "numEvents": 0, "numAffected": 0, "numAtRisk": 7}, {"groupId": "EG003", "numEvents": 1, "numAffected": 1, "numAtRisk": 91}]}]}, "moreInfoModule": {"limitationsAndCaveats": {"description": "Due to changes in study objectives and design (protocol amendment 3), all efficacy analyses was performed using only the praliciguat 40 mg and placebo groups; the praliciguat 10 mg and 20 mg groups were excluded from all efficacy analysis. For completeness, participants treated with both 10 mg and 20 mg praliciguat are included in the AE summaries for safety analyses, as well as for Participant Flow and Baseline Characteristics."}, "certainAgreement": {"piSponsorEmployee": false, "restrictiveAgreement": true}, "pointOfContact": {"title": "Akebia Therapeutics", "organization": "Akebia Therapeutics", "email": "trials@akebia.com", "phone": "6178446128"}}}, "documentSection": {"largeDocumentModule": {"largeDocs": [{"typeAbbrev": "Prot", "hasProtocol": true, "hasSap": false, "hasIcf": false, "label": "Study Protocol", "date": "2018-06-27", "uploadDate": "2022-08-12T10:24", "filename": "Prot_000.pdf", "size": 7794716}, {"typeAbbrev": "SAP", "hasProtocol": false, "hasSap": true, "hasIcf": false, "label": "Statistical Analysis Plan", "date": "2019-06-13", "uploadDate": "2022-08-12T10:23", "filename": "SAP_001.pdf", "size": 3219926}]}}, "derivedSection": {"miscInfoModule": {"versionHolder": "2024-06-24"}, "conditionBrowseModule": {"meshes": [{"id": "D000006333", "term": "Heart Failure"}], "ancestors": [{"id": "D000006331", "term": "Heart Diseases"}, {"id": "D000002318", "term": "Cardiovascular Diseases"}], "browseLeaves": [{"id": "M9421", "name": "Heart Failure", "asFound": "Heart Failure", "relevance": "HIGH"}, {"id": "M9419", "name": "Heart Diseases", "relevance": "LOW"}], "browseBranches": [{"abbrev": "BC14", "name": "Heart and Blood Diseases"}, {"abbrev": "All", "name": "All Conditions"}]}, "interventionBrowseModule": {"meshes": [{"id": "C000631485", "term": "Praliciguat"}], "ancestors": [{"id": "D000074268", "term": "Guanylyl Cyclase C Agonists"}, {"id": "D000020536", "term": "Enzyme Activators"}, {"id": "D000045504", "term": "Molecular Mechanisms of Pharmacological Action"}, {"id": "D000005765", "term": "Gastrointestinal Agents"}], "browseLeaves": [{"id": "M328912", "name": "Praliciguat", "asFound": "Food and drink", "relevance": "HIGH"}, {"id": "M8881", "name": "Gastrointestinal Agents", "relevance": "LOW"}], "browseBranches": [{"abbrev": "Gast", "name": "Gastrointestinal Agents"}, {"abbrev": "All", "name": "All Drugs and Chemicals"}]}}, "hasResults": true}