{"protocolSection": {"identificationModule": {"nctId": "NCT01076348", "orgStudyIdInfo": {"id": "4965"}, "organization": {"fullName": "Medtronic", "class": "INDUSTRY"}, "briefTitle": "Model 4965 Post-Approval Study", "officialTitle": "Medtronic Model 4965 Capsure Epi\u00ae Steroid-eluting Unipolar Epicardial Pacing Lead Post Approval Study"}, "statusModule": {"statusVerifiedDate": "2019-02", "overallStatus": "COMPLETED", "expandedAccessInfo": {"hasExpandedAccess": false}, "startDateStruct": {"date": "1996-09"}, "primaryCompletionDateStruct": {"date": "2011-04", "type": "ACTUAL"}, "completionDateStruct": {"date": "2011-04", "type": "ACTUAL"}, "studyFirstSubmitDate": "2010-02-24", "studyFirstSubmitQcDate": "2010-02-25", "studyFirstPostDateStruct": {"date": "2010-02-26", "type": "ESTIMATED"}, "resultsFirstSubmitDate": "2012-05-16", "resultsFirstSubmitQcDate": "2012-07-09", "resultsFirstPostDateStruct": {"date": "2012-08-23", "type": "ESTIMATED"}, "lastUpdateSubmitDate": "2019-02-11", "lastUpdatePostDateStruct": {"date": "2019-02-27", "type": "ACTUAL"}}, "sponsorCollaboratorsModule": {"responsibleParty": {"type": "SPONSOR"}, "leadSponsor": {"name": "Medtronic", "class": "INDUSTRY"}}, "oversightModule": {"oversightHasDmc": false}, "descriptionModule": {"briefSummary": "Safety and effectiveness will be summarized for the model 4965 lead. This study was conducted within Medtronic's System Longevity Study (SLS).", "detailedDescription": "As part of the requirement to satisfy the PMA Conditions of Approval for the Medtronic Model 4965 CapSure Epi\u00ae Steroid-Eluting Unipolar Epicardial Pacing Lead, 50 adult subjects who were \u226519 years old at time of implant were followed for one-year post-implant."}, "conditionsModule": {"conditions": ["Heart Failure", "Pacing", "Bradycardia", "Arrhythmia"], "keywords": ["Epicardial", "Pacing Lead"]}, "designModule": {"studyType": "OBSERVATIONAL", "designInfo": {"observationalModel": "COHORT", "timePerspective": "OTHER"}, "enrollmentInfo": {"count": 73, "type": "ACTUAL"}}, "outcomesModule": {"primaryOutcomes": [{"measure": "Model 4965 Complication Free Rate", "description": "A 4965 lead-related complication is an adverse event requiring invasive intervention to resolve. The complication-free rate is based on the number of leads analyzed.", "timeFrame": "1 year"}]}, "eligibilityModule": {"eligibilityCriteria": "Inclusion Criteria:\n\n* Subjects or appropriate legal guardians provide written informed consent and/or authorization for access to and use of health information, as required by an institution's IRB/MEC/REB\n\nAND one of the following (A, B, or C) must also apply:\n\nA. Subjects indicated for implant or within six months post-implant of a Medtronic market-released lead connected to a market-released IPG, ICD, or CRT Device. The Medtronic lead must be used for a pacing, sensing, or defibrillation application.\n\nB. Subjects who participated in a qualifying study of a Medtronic cardiac therapy product and for whom:\n\n* product is market-released\n* complete implant and follow-up data, including product-related adverse events, are available\n* subject or appropriate legal guardian authorizes release of subject study data to SLS C. Subjects implanted with Medtronic CapSure Epi Leads (model 4965 and 4968) at a minimum of three pre-selected sites to retrospectively collect data for post approval requirements. Post approval requirements indicate 50 adult subjects implanted with a model 4965 and 100 subjects (pediatric and adult) implanted with a model 4968. The study plans to enroll approximately 100 subjects with a model 4965 lead and approximately 200 subjects with a model 4968 lead.\n\nNote: Subjects currently active in the Chronic Lead Study or Tachyarrhythmia Chronic Systems Study will continue in the follow-up phase of the SLS.\n\nExclusion Criteria:\n\n* Subjects receiving an implant of a Medtronic lead at a non-participating center and the implant data and current status cannot be confirmed within 30 days after implant\n* Subjects who are, or will be inaccessible for follow-up at a SLS center\n* Subjects implanted with a Medtronic cardiac therapy device whose predetermined enrollment limit for that specific product has been exceeded\n* Subjects with exclusion criteria required by local law (EMEA only)", "healthyVolunteers": false, "sex": "ALL", "minimumAge": "19 Years", "stdAges": ["ADULT", "OLDER_ADULT"], "studyPopulation": "Subjects 19 years or older implanted with Model 4965 Capsure Epi Lead.", "samplingMethod": "NON_PROBABILITY_SAMPLE"}, "contactsLocationsModule": {"overallOfficials": [{"name": "4965 Post-Approval Study Clinical Trial Leader", "affiliation": "Medtronic", "role": "STUDY_CHAIR"}], "locations": [{"city": "Birmingham", "state": "Alabama", "country": "United States", "geoPoint": {"lat": 33.52066, "lon": -86.80249}}, {"city": "Anchorage", "state": "Alaska", "country": "United States", "geoPoint": {"lat": 61.21806, "lon": -149.90028}}, {"city": "Phoenix", "state": "Arizona", "country": "United States", "geoPoint": {"lat": 33.44838, "lon": -112.07404}}, {"city": "Scottsdale", "state": "Arizona", "country": "United States", "geoPoint": {"lat": 33.50921, "lon": -111.89903}}, {"city": "Little Rock", "state": "Arkansas", "country": "United States", "geoPoint": {"lat": 34.74648, "lon": -92.28959}}, {"city": "Bakersfield", "state": "California", "country": "United States", "geoPoint": {"lat": 35.37329, "lon": -119.01871}}, {"city": "Chula Vista", "state": "California", "country": "United States", "geoPoint": {"lat": 32.64005, "lon": -117.0842}}, {"city": "Downey", "state": "California", "country": "United States", "geoPoint": {"lat": 33.94001, "lon": -118.13257}}, {"city": "East Palo Alto", "state": "California", "country": "United States", "geoPoint": {"lat": 37.46883, "lon": -122.14108}}, {"city": "Los Angeles", "state": "California", "country": "United States", "geoPoint": {"lat": 34.05223, "lon": -118.24368}}, {"city": "Salinas", "state": "California", "country": "United States", "geoPoint": {"lat": 36.67774, "lon": -121.6555}}, {"city": "Torrance", "state": "California", "country": "United States", "geoPoint": {"lat": 33.83585, "lon": -118.34063}}, {"city": "Van Nuys", "state": "California", "country": "United States", "geoPoint": {"lat": 34.18667, "lon": -118.44897}}, {"city": "Colorado Springs", "state": "Colorado", "country": "United States", "geoPoint": {"lat": 38.83388, "lon": -104.82136}}, {"city": "Denver", "state": "Colorado", "country": "United States", "geoPoint": {"lat": 39.73915, "lon": -104.9847}}, {"city": "Washington", "state": "District of Columbia", "country": "United States", "geoPoint": {"lat": 38.89511, "lon": -77.03637}}, {"city": "Clearwater", "state": "Florida", "country": "United States", "geoPoint": {"lat": 27.96585, "lon": -82.8001}}, {"city": "Jacksonville", "state": "Florida", "country": "United States", "geoPoint": {"lat": 30.33218, "lon": -81.65565}}, {"city": "Melbourne", "state": "Florida", "country": "United States", "geoPoint": {"lat": 28.08363, "lon": -80.60811}}, {"city": "Ocala", "state": "Florida", "country": "United States", "geoPoint": {"lat": 29.1872, "lon": -82.14009}}, {"city": "Wellington", "state": "Florida", "country": "United States", "geoPoint": {"lat": 26.65868, "lon": -80.24144}}, {"city": "Atlanta", "state": "Georgia", "country": "United States", "geoPoint": {"lat": 33.749, "lon": -84.38798}}, {"city": "Columbus", "state": "Georgia", "country": "United States", "geoPoint": {"lat": 32.46098, "lon": -84.98771}}, {"city": "Marietta", "state": "Georgia", "country": "United States", "geoPoint": {"lat": 33.9526, "lon": -84.54993}}, {"city": "Oak Lawn", "state": "Illinois", "country": "United States", "geoPoint": {"lat": 41.71087, "lon": -87.75811}}, {"city": "Indianapolis", "state": "Indiana", "country": "United States", "geoPoint": {"lat": 39.76838, "lon": -86.15804}}, {"city": "Newburgh", "state": "Indiana", "country": "United States", "geoPoint": {"lat": 37.94449, "lon": -87.40529}}, {"city": "Des Moines", "state": "Iowa", "country": "United States", "geoPoint": {"lat": 41.60054, "lon": -93.60911}}, {"city": "Kansas City", "state": "Kansas", "country": "United States", "geoPoint": {"lat": 39.11417, "lon": -94.62746}}, {"city": "Lexington", "state": "Kentucky", "country": "United States", "geoPoint": {"lat": 37.98869, "lon": -84.47772}}, {"city": "Louisville", "state": "Kentucky", "country": "United States", "geoPoint": {"lat": 38.25424, "lon": -85.75941}}, {"city": "Alexandria", "state": "Louisiana", "country": "United States", "geoPoint": {"lat": 31.31129, "lon": -92.44514}}, {"city": "Baton Rouge", "state": "Louisiana", "country": "United States", "geoPoint": {"lat": 30.45075, "lon": -91.15455}}, {"city": "Salisbury", "state": "Maryland", "country": "United States", "geoPoint": {"lat": 38.36067, "lon": -75.59937}}, {"city": "Silver Spring", "state": "Maryland", "country": "United States", "geoPoint": {"lat": 38.99067, "lon": -77.02609}}, {"city": "Towson", "state": "Maryland", "country": "United States", "geoPoint": {"lat": 39.4015, "lon": -76.60191}}, {"city": "Grand Blanc", "state": "Michigan", "country": "United States", "geoPoint": {"lat": 42.92753, "lon": -83.62995}}, {"city": "Marquette", "state": "Michigan", "country": "United States", "geoPoint": {"lat": 46.54354, "lon": -87.39542}}, {"city": "Saginaw", "state": "Michigan", "country": "United States", "geoPoint": {"lat": 43.41947, "lon": -83.95081}}, {"city": "Southfield", "state": "Michigan", "country": "United States", "geoPoint": {"lat": 42.47337, "lon": -83.22187}}, {"city": "Robbinsdale", "state": "Minnesota", "country": "United States", "geoPoint": {"lat": 45.03219, "lon": -93.33856}}, {"city": "Rochester", "state": "Minnesota", "country": "United States", "geoPoint": {"lat": 44.02163, "lon": -92.4699}}, {"city": "Saint Paul", "state": "Minnesota", "country": "United States", "geoPoint": {"lat": 44.94441, "lon": -93.09327}}, {"city": "Kansas City", "state": "Missouri", "country": "United States", "geoPoint": {"lat": 39.09973, "lon": -94.57857}}, {"city": "Lebanon", "state": "New Hampshire", "country": "United States", "geoPoint": {"lat": 43.64229, "lon": -72.25176}}, {"city": "Browns Mills", "state": "New Jersey", "country": "United States", "geoPoint": {"lat": 39.97261, "lon": -74.58293}}, {"city": "Newark", "state": "New Jersey", "country": "United States", "geoPoint": {"lat": 40.73566, "lon": -74.17237}}, {"city": "Ocean City", "state": "New Jersey", "country": "United States", "geoPoint": {"lat": 39.27762, "lon": -74.5746}}, {"city": "Parlin", "state": "New Jersey", "country": "United States", "geoPoint": {"lat": 40.46205, "lon": -74.3382}}, {"city": "West Orange", "state": "New Jersey", "country": "United States", "geoPoint": {"lat": 40.79871, "lon": -74.23904}}, {"city": "Albuquerque", "state": "New Mexico", "country": "United States", "geoPoint": {"lat": 35.08449, "lon": -106.65114}}, {"city": "Mineola", "state": "New York", "country": "United States", "geoPoint": {"lat": 40.74927, "lon": -73.64068}}, {"city": "Rochester", "state": "New York", "country": "United States", "geoPoint": {"lat": 43.15478, "lon": -77.61556}}, {"city": "Greensboro", "state": "North Carolina", "country": "United States", "geoPoint": {"lat": 36.07264, "lon": -79.79198}}, {"city": "Hickory", "state": "North Carolina", "country": "United States", "geoPoint": {"lat": 35.73319, "lon": -81.3412}}, {"city": "Cincinnati", "state": "Ohio", "country": "United States", "geoPoint": {"lat": 39.12713, "lon": -84.51435}}, {"city": "Cleveland", "state": "Ohio", "country": "United States", "geoPoint": {"lat": 41.4995, "lon": -81.69541}}, {"city": "Columbus", "state": "Ohio", "country": "United States", "geoPoint": {"lat": 39.96118, "lon": -82.99879}}, {"city": "Toledo", "state": "Ohio", "country": "United States", "geoPoint": {"lat": 41.66394, "lon": -83.55521}}, {"city": "Portland", "state": "Oregon", "country": "United States", "geoPoint": {"lat": 45.52345, "lon": -122.67621}}, {"city": "Doylestown", "state": "Pennsylvania", "country": "United States", "geoPoint": {"lat": 40.31011, "lon": -75.12989}}, {"city": "Lancaster", "state": "Pennsylvania", "country": "United States", "geoPoint": {"lat": 40.03788, "lon": -76.30551}}, {"city": "Sayre", "state": "Pennsylvania", "country": "United States", "geoPoint": {"lat": 41.97896, "lon": -76.5155}}, {"city": "Columbia", "state": "South Carolina", "country": "United States", "geoPoint": {"lat": 34.00071, "lon": -81.03481}}, {"city": "Florence", "state": "South Carolina", "country": "United States", "geoPoint": {"lat": 34.19543, "lon": -79.76256}}, {"city": "Sioux Falls", "state": "South Dakota", "country": "United States", "geoPoint": {"lat": 43.54997, "lon": -96.70033}}, {"city": "Chattanooga", "state": "Tennessee", "country": "United States", "geoPoint": {"lat": 35.04563, "lon": -85.30968}}, {"city": "Germantown", "state": "Tennessee", "country": "United States", "geoPoint": {"lat": 35.08676, "lon": -89.81009}}, {"city": "Memphis", "state": "Tennessee", "country": "United States", "geoPoint": {"lat": 35.14953, "lon": -90.04898}}, {"city": "Nashville", "state": "Tennessee", "country": "United States", "geoPoint": {"lat": 36.16589, "lon": -86.78444}}, {"city": "Amarillo", "state": "Texas", "country": "United States", "geoPoint": {"lat": 35.222, "lon": -101.8313}}, {"city": "Austin", "state": "Texas", "country": "United States", "geoPoint": {"lat": 30.26715, "lon": -97.74306}}, {"city": "Dallas", "state": "Texas", "country": "United States", "geoPoint": {"lat": 32.78306, "lon": -96.80667}}, {"city": "Fort Worth", "state": "Texas", "country": "United States", "geoPoint": {"lat": 32.72541, "lon": -97.32085}}, {"city": "Houston", "state": "Texas", "country": "United States", "geoPoint": {"lat": 29.76328, "lon": -95.36327}}, {"city": "San Antonio", "state": "Texas", "country": "United States", "geoPoint": {"lat": 29.42412, "lon": -98.49363}}, {"city": "The Woodlands", "state": "Texas", "country": "United States", "geoPoint": {"lat": 30.15799, "lon": -95.48938}}, {"city": "Burlington", "state": "Vermont", "country": "United States", "geoPoint": {"lat": 44.47588, "lon": -73.21207}}, {"city": "Chesapeake", "state": "Virginia", "country": "United States", "geoPoint": {"lat": 36.81904, "lon": -76.27494}}, {"city": "Fairfax", "state": "Virginia", "country": "United States", "geoPoint": {"lat": 38.84622, "lon": -77.30637}}, {"city": "Olympia", "state": "Washington", "country": "United States", "geoPoint": {"lat": 47.03787, "lon": -122.9007}}, {"city": "Spokane", "state": "Washington", "country": "United States", "geoPoint": {"lat": 47.65966, "lon": -117.42908}}, {"city": "Madison", "state": "Wisconsin", "country": "United States", "geoPoint": {"lat": 43.07305, "lon": -89.40123}}, {"city": "Milwaukee", "state": "Wisconsin", "country": "United States", "geoPoint": {"lat": 43.0389, "lon": -87.90647}}, {"city": "Bedford Park", "state": "South Australia", "country": "Australia", "geoPoint": {"lat": -35.03333, "lon": 138.56667}}, {"city": "Linz", "country": "Austria", "geoPoint": {"lat": 48.30639, "lon": 14.28611}}, {"city": "Vienna", "country": "Austria", "geoPoint": {"lat": 48.20849, "lon": 16.37208}}, {"city": "Hasselt", "country": "Belgium", "geoPoint": {"lat": 50.93106, "lon": 5.33781}}, {"city": "Calgary", "state": "Alberta", "country": "Canada", "geoPoint": {"lat": 51.05011, "lon": -114.08529}}, {"city": "Hamilton", "state": "Ontario", "country": "Canada", "geoPoint": {"lat": 43.25011, "lon": -79.84963}}, {"city": "Ottawa", "state": "Ontario", "country": "Canada", "geoPoint": {"lat": 45.41117, "lon": -75.69812}}, {"city": "Toronto", "state": "Ontario", "country": "Canada", "geoPoint": {"lat": 43.70011, "lon": -79.4163}}, {"city": "Montreal", "state": "Quebec", "country": "Canada", "geoPoint": {"lat": 45.50884, "lon": -73.58781}}, {"city": "Ste-Foy", "state": "Quebec", "country": "Canada", "geoPoint": {"lat": 46.75615, "lon": -71.29543}}, {"city": "Regina", "state": "Saskatchewan", "country": "Canada", "geoPoint": {"lat": 50.45008, "lon": -104.6178}}, {"city": "Copenhagen", "country": "Denmark", "geoPoint": {"lat": 55.67594, "lon": 12.56553}}, {"city": "Marseille", "country": "France", "geoPoint": {"lat": 43.29551, "lon": 5.38958}}, {"city": "Homburg/Saar", "country": "Germany", "geoPoint": {"lat": 49.32637, "lon": 7.33867}}, {"city": "Catanzaro", "country": "Italy", "geoPoint": {"lat": 38.88247, "lon": 16.60086}}, {"city": "Reggio Emilia", "country": "Italy", "geoPoint": {"lat": 44.69825, "lon": 10.63125}}, {"city": "Udine", "country": "Italy", "geoPoint": {"lat": 46.0693, "lon": 13.23715}}, {"city": "Eindhoven", "country": "Netherlands", "geoPoint": {"lat": 51.44083, "lon": 5.47778}}, {"city": "Rotterdam", "country": "Netherlands", "geoPoint": {"lat": 51.9225, "lon": 4.47917}}, {"city": "Belgrad", "country": "Serbia", "geoPoint": {"lat": 44.80401, "lon": 20.46513}}, {"city": "Valencia", "country": "Spain", "geoPoint": {"lat": 39.46975, "lon": -0.37739}}, {"city": "Skovde", "country": "Sweden", "geoPoint": {"lat": 58.39118, "lon": 13.84506}}, {"city": "Zurich", "country": "Switzerland", "geoPoint": {"lat": 47.36667, "lon": 8.54999}}]}}, "resultsSection": {"participantFlowModule": {"recruitmentDetails": "The study utilized centers that had implanted model 4965 leads in adult subjects to obtain information regarding safety, lead events, and lead survival.", "groups": [{"id": "FG000", "title": "Medtronic 4965 Subjects", "description": "Single arm registry of Model 4965 implanted patients"}], "periods": [{"title": "Overall Study", "milestones": [{"type": "STARTED", "achievements": [{"groupId": "FG000", "numSubjects": "73"}]}, {"type": "COMPLETED", "achievements": [{"groupId": "FG000", "numSubjects": "51"}]}, {"type": "NOT COMPLETED", "achievements": [{"groupId": "FG000", "numSubjects": "22"}]}]}]}, "baselineCharacteristicsModule": {"groups": [{"id": "BG000", "title": "Medtronic 4965 Subjects", "description": "Single arm registry of Model 4965 implanted patients"}], "denoms": [{"units": "Participants", "counts": [{"groupId": "BG000", "value": "73"}]}], "measures": [{"title": "Age, Categorical", "paramType": "COUNT_OF_PARTICIPANTS", "unitOfMeasure": "Participants", "classes": [{"categories": [{"title": "<=18 years", "measurements": [{"groupId": "BG000", "value": "0"}]}, {"title": "Between 18 and 65 years", "measurements": [{"groupId": "BG000", "value": "32"}]}, {"title": ">=65 years", "measurements": [{"groupId": "BG000", "value": "41"}]}]}]}, {"title": "Age, Continuous", "paramType": "MEAN", "dispersionType": "STANDARD_DEVIATION", "unitOfMeasure": "years", "classes": [{"categories": [{"measurements": [{"groupId": "BG000", "value": "61.8", "spread": "15.5"}]}]}]}, {"title": "Sex: Female, Male", "paramType": "COUNT_OF_PARTICIPANTS", "unitOfMeasure": "Participants", "classes": [{"categories": [{"title": "Female", "measurements": [{"groupId": "BG000", "value": "29"}]}, {"title": "Male", "measurements": [{"groupId": "BG000", "value": "44"}]}]}]}, {"title": "Region of Enrollment", "paramType": "NUMBER", "unitOfMeasure": "participants", "classes": [{"title": "United States", "categories": [{"measurements": [{"groupId": "BG000", "value": "72"}]}]}, {"title": "Germany", "categories": [{"measurements": [{"groupId": "BG000", "value": "1"}]}]}]}]}, "outcomeMeasuresModule": {"outcomeMeasures": [{"type": "PRIMARY", "title": "Model 4965 Complication Free Rate", "description": "A 4965 lead-related complication is an adverse event requiring invasive intervention to resolve. The complication-free rate is based on the number of leads analyzed.", "populationDescription": "Patients \u2265 19 yrs at implant of MDT 4965 Epicardial Lead.", "reportingStatus": "POSTED", "paramType": "NUMBER", "dispersionType": "95% Confidence Interval", "unitOfMeasure": "Model 4965 complication free rate", "timeFrame": "1 year", "typeUnitsAnalyzed": "4965 leads", "denomUnitsSelected": "4965 leads", "groups": [{"id": "OG000", "title": "Medtronic 4965 Epicardial Lead", "description": "Subjects who were implanted with at least 1 model 4965 lead."}], "denoms": [{"units": "Participants", "counts": [{"groupId": "OG000", "value": "73"}]}, {"units": "4965 leads", "counts": [{"groupId": "OG000", "value": "98"}]}], "classes": [{"categories": [{"measurements": [{"groupId": "OG000", "value": "98.8", "lowerLimit": "91.8", "upperLimit": "99.8"}]}]}]}]}, "adverseEventsModule": {"frequencyThreshold": "5", "description": "For this study, \"serious\" is defined as requiring an invasive intervention to resolve.", "eventGroups": [{"id": "EG000", "title": "Medtronic 4965 Subjects", "description": "Single arm registry of Model 4965 implanted patients", "seriousNumAffected": 2, "seriousNumAtRisk": 73, "otherNumAffected": 0, "otherNumAtRisk": 73}], "seriousEvents": [{"term": "Failure to capture", "organSystem": "Vascular disorders", "assessmentType": "SYSTEMATIC_ASSESSMENT", "notes": "Intermittent", "stats": [{"groupId": "EG000", "numEvents": 1, "numAffected": 1, "numAtRisk": 73}]}, {"term": "Lead conductor fracture", "organSystem": "Vascular disorders", "assessmentType": "SYSTEMATIC_ASSESSMENT", "notes": "Lead electrically abandoned", "stats": [{"groupId": "EG000", "numEvents": 1, "numAffected": 1, "numAtRisk": 73}]}]}, "moreInfoModule": {"limitationsAndCaveats": {"description": "The study cohort was limited to subjects \\>19 years of age at the time of implant, limiting the survival analysis of the Model 4965 lead in a pediatric population."}, "certainAgreement": {"piSponsorEmployee": false, "restrictiveAgreement": false}, "pointOfContact": {"title": "Stefanie Lorinser, Sr. Clinical Research Specialist", "organization": "Medtronic, Inc.", "email": "stefanie.lorinser@medtronic.com", "phone": "763-526-2742"}}}, "derivedSection": {"miscInfoModule": {"versionHolder": "2024-06-24", "removedCountries": ["Former Serbia and Montenegro"]}, "conditionBrowseModule": {"meshes": [{"id": "D000001919", "term": "Bradycardia"}], "ancestors": [{"id": "D000006331", "term": "Heart Diseases"}, {"id": "D000002318", "term": "Cardiovascular Diseases"}, {"id": "D000001145", "term": "Arrhythmias, Cardiac"}, {"id": "D000010335", "term": "Pathologic Processes"}], "browseLeaves": [{"id": "M9421", "name": "Heart Failure", "relevance": "LOW"}, {"id": "M5196", "name": "Bradycardia", "asFound": "Bradycardia", "relevance": "HIGH"}, {"id": "M4453", "name": "Arrhythmias, Cardiac", "relevance": "LOW"}, {"id": "M9419", "name": "Heart Diseases", "relevance": "LOW"}], "browseBranches": [{"abbrev": "BC14", "name": "Heart and Blood Diseases"}, {"abbrev": "All", "name": "All Conditions"}, {"abbrev": "BC23", "name": "Symptoms and General Pathology"}]}}, "hasResults": true}