{"protocolSection": {"identificationModule": {"nctId": "NCT03155724", "orgStudyIdInfo": {"id": "MPP Sub-Study"}, "organization": {"fullName": "Biotronik, Inc.", "class": "INDUSTRY"}, "briefTitle": "QP ExCELs: MultiPole Pacing (MPP) Sub-Study", "officialTitle": "QP ExCELs: MultiPole Pacing (MPP) Sub-Study"}, "statusModule": {"statusVerifiedDate": "2021-02", "overallStatus": "COMPLETED", "expandedAccessInfo": {"hasExpandedAccess": false}, "startDateStruct": {"date": "2017-05-19", "type": "ACTUAL"}, "primaryCompletionDateStruct": {"date": "2020-01-23", "type": "ACTUAL"}, "completionDateStruct": {"date": "2020-01-23", "type": "ACTUAL"}, "studyFirstSubmitDate": "2017-05-15", "studyFirstSubmitQcDate": "2017-05-15", "studyFirstPostDateStruct": {"date": "2017-05-16", "type": "ACTUAL"}, "resultsFirstSubmitDate": "2021-01-18", "resultsFirstSubmitQcDate": "2021-02-16", "resultsFirstPostDateStruct": {"date": "2021-03-08", "type": "ACTUAL"}, "lastUpdateSubmitDate": "2021-02-16", "lastUpdatePostDateStruct": {"date": "2021-03-08", "type": "ACTUAL"}}, "sponsorCollaboratorsModule": {"responsibleParty": {"type": "SPONSOR"}, "leadSponsor": {"name": "Biotronik, Inc.", "class": "INDUSTRY"}}, "oversightModule": {"oversightHasDmc": true, "isFdaRegulatedDrug": false, "isFdaRegulatedDevice": true, "isUsExport": false}, "descriptionModule": {"briefSummary": "The objective of this MultiPole Pacing (MPP) sub-study of the QP ExCELs study is to demonstrate that the MPP feature is effective by converting a percentage of cardiac resynchronization therapy (CRT) non-responders to responders. The MPP sub-study is a single-arm, multi-center, prospective trial within the ongoing QP ExCELs study (NCT02290028)."}, "conditionsModule": {"conditions": ["Heart Failure"]}, "designModule": {"studyType": "INTERVENTIONAL", "phases": ["NA"], "designInfo": {"allocation": "NA", "interventionModel": "SINGLE_GROUP", "primaryPurpose": "TREATMENT", "maskingInfo": {"masking": "NONE"}}, "enrollmentInfo": {"count": 53, "type": "ACTUAL"}}, "armsInterventionsModule": {"armGroups": [{"label": "MultiPole Pacing", "type": "EXPERIMENTAL", "description": "Traditional biventricular pacing CRT non-responders at the 3 or 6 month QP ExCELs study follow-up.", "interventionNames": ["Device: MultiPole Pacing"]}], "interventions": [{"type": "DEVICE", "name": "MultiPole Pacing", "description": "CRT non-responders are programmed with MultiPole pacing ON.", "armGroupLabels": ["MultiPole Pacing"]}]}, "outcomesModule": {"primaryOutcomes": [{"measure": "Cardiac Resynchronization Therapy (CRT) Responder Status With the MPP Feature", "description": "Count of participants who are classified as \"Improved\", where responder classification is derived from a clinical composite score (CCS) based on changes in New York Heart Association (NYHA) class, Heart Failure (HF) hospitalization, and cardiovascular death.\n\nResponder classification at 6 months (evaluated compared to MPP Enrollment Visit) :\n\n* \"Improved\"\n\n  * No HF hospitalization or cardiovascular death, AND\n  * NYHA class is improved\n* \"Unchanged\"\n\n  * No HF hospitalization or cardiovascular death, AND\n  * NYHA class is unchanged\n* \"Worsened\"\n\n  * HF hospitalization or cardiovascular death has occurred, OR\n  * NYHA class is worsened", "timeFrame": "Enrollment to 6 Months"}], "secondaryOutcomes": [{"measure": "Percentage of Participants Without MPP System Related Adverse Events Requiring Additional Invasive Intervention to Resolve at 6 Months.", "description": "Evaluate adverse events that require additional invasive intervention to resolve specifically related to the MPP feature. These adverse events include any software issues related to MPP programming or any adverse event that occurs while MPP is enabled and that may be attributed to the use of the MPP feature. Outcome was evaluated as an adverse event free-rate (AEFR).", "timeFrame": "Enrollment to 6 Months"}, {"measure": "Clinical Composite Score (CCS) + Patient Global Assessment (PGA) Responder Status Utilizing a Modified CCS That Incorporates the PGA", "description": "Evaluate a modified CCS, determining a responder classification based on changes in NYHA class, PGA, HF hospitalization, and cardiovascular death, where the PGA will ask participantss to assess how their overall status has changed since prior to receiving CRT therapy (markedly better, better, unchanged, worse, markedly worse).\n\nModified responder classification (CCS + PGA) at 6 months (evaluated compared to MPP Enrollment Visit):\n\n* \"Improved\"\n\n  * No HF hospitalization or cardiovascular death, AND\n  * Neither NYHA class is worsened or PGA is worsened (\"worse\" or \"markedly worse\"), AND\n  * NYHA class is improved or PGA is improved (\"better\" or \"markedly better\")\n* \"Unchanged\"\n\n  * No HF hospitalization or cardiovascular death, AND\n  * NYHA class is unchanged, AND\n  * PGA is unchanged (\"unchanged\")\n* \"Worsened\"\n\n  * HF hospitalization or cardiovascular death has occurred, OR\n  * NYHA class is worsened or PGA is worsened (\"worse\" or \"markedly worse\")", "timeFrame": "Enrollment to 6 Months"}, {"measure": "CCS Responder Status Utilizing an Expanded Responder Classification", "description": "Evaluate a modified CCS with an expanded responder classification where \"Improved\" and \"Unchanged\" are considered responders.\n\nResponder classification at 6 months (evaluated compared to MPP Enrollment Visit) :\n\n* \"Improved\"\n\n  * No HF hospitalization or cardiovascular death, AND\n  * NYHA class is improved\n* \"Unchanged\"\n\n  * No HF hospitalization or cardiovascular death, AND\n  * NYHA class is unchanged\n* \"Worsened\"\n\n  * HF hospitalization or cardiovascular death has occurred, OR\n  * NYHA class is worsened", "timeFrame": "Enrollment to 6 Months"}]}, "eligibilityModule": {"eligibilityCriteria": "Inclusion Criteria:\n\n* Currently enrolled in the ongoing QP ExCELs study\n* Successfully implanted with a BIOTRONIK Ilivia 7 HF-T QP family CRT-D system, or future-marketed CRT-D system with the MPP feature. Successful implantation is defined as having at least two LV pacing vectors with a measured pacing threshold of \u2264 5.0 V @ any pulse width (allowing for a minimum 2.5 V safety margin) without phrenic nerve stimulation at the final programmed pacing output at the time of enrollment into the MPP sub-study.\n* CRT Responder Assessment classification as \"Worsened\" or \"Unchanged\"\n* Standard continuous biventricular (BiV) pacing from implant until the 6-Month QP ExCELs follow-up visit. (Implant to 3-Month QP ExCELs follow-up who qualify due to a Heart Failure (HF) hospitalization event)\n* Able to understand the nature of the sub-study and give informed consent\n* Available for an additional follow-up visit specific to the MPP sub-study at the investigational site\n* No evidence of non-compliance to their ongoing commitment in the QP ExCELs study\n\nExclusion Criteria:\n\n* Have a life expectancy of less than 6 months\n* Expected to receive heart transplantation or ventricular assist device within 6 months\n* Chronic atrial fibrillation\n* Presence of another life-threatening, underlying illness separate from their cardiac disorder\n* Received MPP pacing prior to enrolment into the MPP sub-study", "healthyVolunteers": false, "sex": "ALL", "minimumAge": "18 Years", "stdAges": ["ADULT", "OLDER_ADULT"]}, "contactsLocationsModule": {"locations": [{"facility": "Thomas Hospital", "city": "Fairhope", "state": "Alabama", "zip": "36532", "country": "United States", "geoPoint": {"lat": 30.52297, "lon": -87.90333}}, {"facility": "South Bay Electrophysiology", "city": "Inglewood", "state": "California", "zip": "90301", "country": "United States", "geoPoint": {"lat": 33.96168, "lon": -118.35313}}, {"facility": "Eisenhower Desert Cardiology", "city": "Rancho Mirage", "state": "California", "zip": "92270", "country": "United States", "geoPoint": {"lat": 33.73974, "lon": -116.41279}}, {"facility": "MedStar Washington Hospital Center", "city": "Washington", "state": "District of Columbia", "zip": "20010", "country": "United States", "geoPoint": {"lat": 38.89511, "lon": -77.03637}}, {"facility": "Florida Hospital", "city": "Orlando", "state": "Florida", "zip": "32803", "country": "United States", "geoPoint": {"lat": 28.53834, "lon": -81.37924}}, {"facility": "Orlando Health Heart Institute", "city": "Orlando", "state": "Florida", "zip": "32806", "country": "United States", "geoPoint": {"lat": 28.53834, "lon": -81.37924}}, {"facility": "Florida Hospital Tampa Pepin Heart Institute", "city": "Tampa", "state": "Florida", "zip": "33613", "country": "United States", "geoPoint": {"lat": 27.94752, "lon": -82.45843}}, {"facility": "Piedmont Heart Institute", "city": "Atlanta", "state": "Georgia", "zip": "30309", "country": "United States", "geoPoint": {"lat": 33.749, "lon": -84.38798}}, {"facility": "University of Chicago Medical Center", "city": "Chicago", "state": "Illinois", "zip": "60637", "country": "United States", "geoPoint": {"lat": 41.85003, "lon": -87.65005}}, {"facility": "Parkview Physicians Group - Cardiology", "city": "Fort Wayne", "state": "Indiana", "zip": "46845", "country": "United States", "geoPoint": {"lat": 41.1306, "lon": -85.12886}}, {"facility": "University of Iowa Hospitals and Clinics", "city": "Iowa City", "state": "Iowa", "zip": "52242", "country": "United States", "geoPoint": {"lat": 41.66113, "lon": -91.53017}}, {"facility": "University of Kansas Hospital", "city": "Kansas City", "state": "Kansas", "zip": "66160", "country": "United States", "geoPoint": {"lat": 39.11417, "lon": -94.62746}}, {"facility": "Baptist Health - Lexington", "city": "Lexington", "state": "Kentucky", "zip": "40503", "country": "United States", "geoPoint": {"lat": 37.98869, "lon": -84.47772}}, {"facility": "University of Kentucky", "city": "Lexington", "state": "Kentucky", "zip": "40536", "country": "United States", "geoPoint": {"lat": 37.98869, "lon": -84.47772}}, {"facility": "Northeast Cardiology", "city": "Bangor", "state": "Maine", "zip": "04401", "country": "United States", "geoPoint": {"lat": 44.80118, "lon": -68.77781}}, {"facility": "Massachusetts General Hospital", "city": "Boston", "state": "Massachusetts", "zip": "02114", "country": "United States", "geoPoint": {"lat": 42.35843, "lon": -71.05977}}, {"facility": "Southcoast Health", "city": "Fall River", "state": "Massachusetts", "zip": "02720", "country": "United States", "geoPoint": {"lat": 41.70149, "lon": -71.15505}}, {"facility": "University of Massachusetts Medical School", "city": "Worcester", "state": "Massachusetts", "zip": "01655", "country": "United States", "geoPoint": {"lat": 42.26259, "lon": -71.80229}}, {"facility": "University of Michigan Hospital", "city": "Ann Arbor", "state": "Michigan", "zip": "48109", "country": "United States", "geoPoint": {"lat": 42.27756, "lon": -83.74088}}, {"facility": "Henry Ford Hospital", "city": "Detroit", "state": "Michigan", "zip": "48202", "country": "United States", "geoPoint": {"lat": 42.33143, "lon": -83.04575}}, {"facility": "Michigan Heart", "city": "Ypsilanti", "state": "Michigan", "zip": "48197", "country": "United States", "geoPoint": {"lat": 42.24115, "lon": -83.61299}}, {"facility": "Cardiology Associates of North Mississippi", "city": "Tupelo", "state": "Mississippi", "zip": "38801", "country": "United States", "geoPoint": {"lat": 34.25807, "lon": -88.70464}}, {"facility": "SSM Health St. Joseph Hospital - St. Charles", "city": "Saint Charles", "state": "Missouri", "zip": "63301", "country": "United States", "geoPoint": {"lat": 38.78394, "lon": -90.48123}}, {"facility": "St. Louis Heart and Vascular", "city": "Saint Louis", "state": "Missouri", "zip": "63136", "country": "United States", "geoPoint": {"lat": 38.62727, "lon": -90.19789}}, {"facility": "Mercy Clinic Cardiology", "city": "Springfield", "state": "Missouri", "zip": "65804", "country": "United States", "geoPoint": {"lat": 37.21533, "lon": -93.29824}}, {"facility": "Glacier View Medical Research Institute, Cardiology", "city": "Kalispell", "state": "Montana", "zip": "59901", "country": "United States", "geoPoint": {"lat": 48.19579, "lon": -114.31291}}, {"facility": "Jersey Shore University Medical Center", "city": "Neptune", "state": "New Jersey", "zip": "07753", "country": "United States", "geoPoint": {"lat": 40.20011, "lon": -74.02792}}, {"facility": "Montefiore Medical Center", "city": "Bronx", "state": "New York", "zip": "10467", "country": "United States", "geoPoint": {"lat": 40.84985, "lon": -73.86641}}, {"facility": "New York Presbyterian Queens", "city": "Flushing", "state": "New York", "zip": "11355", "country": "United States", "geoPoint": {"lat": 40.76538, "lon": -73.81736}}, {"facility": "Weill Cornell Medicine", "city": "New York", "state": "New York", "zip": "10021", "country": "United States", "geoPoint": {"lat": 40.71427, "lon": -74.00597}}, {"facility": "Mt. Sinai St. Luke's Hospital", "city": "New York", "state": "New York", "zip": "10025", "country": "United States", "geoPoint": {"lat": 40.71427, "lon": -74.00597}}, {"facility": "Westchester Medical Center", "city": "Valhalla", "state": "New York", "zip": "10595", "country": "United States", "geoPoint": {"lat": 41.07482, "lon": -73.77513}}, {"facility": "Asheville Cardiology Associates", "city": "Asheville", "state": "North Carolina", "zip": "28803", "country": "United States", "geoPoint": {"lat": 35.60095, "lon": -82.55402}}, {"facility": "Novant Health Winston-Salem Cardiology", "city": "Winston-Salem", "state": "North Carolina", "zip": "27103", "country": "United States", "geoPoint": {"lat": 36.09986, "lon": -80.24422}}, {"facility": "Wake Forest Baptist Health Medical Center", "city": "Winston-Salem", "state": "North Carolina", "zip": "27157", "country": "United States", "geoPoint": {"lat": 36.09986, "lon": -80.24422}}, {"facility": "Sanford Medical Center - Fargo", "city": "Fargo", "state": "North Dakota", "zip": "58102", "country": "United States", "geoPoint": {"lat": 46.87719, "lon": -96.7898}}, {"facility": "University of Cincinnati", "city": "Cincinnati", "state": "Ohio", "zip": "45219", "country": "United States", "geoPoint": {"lat": 39.12713, "lon": -84.51435}}, {"facility": "Temple Heart and Vascular Institute", "city": "Philadelphia", "state": "Pennsylvania", "zip": "19140", "country": "United States", "geoPoint": {"lat": 39.95233, "lon": -75.16379}}, {"facility": "Upstate Cardiology", "city": "Greenville", "state": "South Carolina", "zip": "29607", "country": "United States", "geoPoint": {"lat": 34.85262, "lon": -82.39401}}, {"facility": "UT Erlanger Cardiology", "city": "Chattanooga", "state": "Tennessee", "zip": "37403", "country": "United States", "geoPoint": {"lat": 35.04563, "lon": -85.30968}}, {"facility": "Fort Worth Heart", "city": "Fort Worth", "state": "Texas", "zip": "76104", "country": "United States", "geoPoint": {"lat": 32.72541, "lon": -97.32085}}, {"facility": "UT Health Science Center", "city": "The Woodlands", "state": "Texas", "zip": "77380", "country": "United States", "geoPoint": {"lat": 30.15799, "lon": -95.48938}}, {"facility": "University of Utah Medical Center", "city": "Salt Lake City", "state": "Utah", "zip": "84132", "country": "United States", "geoPoint": {"lat": 40.76078, "lon": -111.89105}}, {"facility": "UVM Medical", "city": "Burlington", "state": "Vermont", "zip": "05401", "country": "United States", "geoPoint": {"lat": 44.47588, "lon": -73.21207}}]}}, "resultsSection": {"participantFlowModule": {"groups": [{"id": "FG000", "title": "MultiPole Pacing", "description": "Traditional biventricular pacing CRT non-responders at the 3 or 6 month QP ExCELs study follow-up.\n\nMultiPole Pacing: CRT non-responders are programmed with MultiPole pacing ON."}], "periods": [{"title": "Overall Study", "milestones": [{"type": "STARTED", "achievements": [{"groupId": "FG000", "numSubjects": "53"}]}, {"type": "COMPLETED", "achievements": [{"groupId": "FG000", "numSubjects": "42"}]}, {"type": "NOT COMPLETED", "achievements": [{"groupId": "FG000", "numSubjects": "11"}]}], "dropWithdraws": [{"type": "Death", "reasons": [{"groupId": "FG000", "numSubjects": "3"}]}, {"type": "Physician Decision", "reasons": [{"groupId": "FG000", "numSubjects": "1"}]}, {"type": "Study closure", "reasons": [{"groupId": "FG000", "numSubjects": "7"}]}]}]}, "baselineCharacteristicsModule": {"populationDescription": "Baseline data collected from all participants enrolled, when available.", "groups": [{"id": "BG000", "title": "MultiPole Pacing", "description": "Traditional biventricular pacing CRT non-responders at the 3 or 6 month QP ExCELs study follow-up.\n\nMultiPole Pacing: CRT non-responders are programmed with MultiPole pacing ON."}], "denoms": [{"units": "Participants", "counts": [{"groupId": "BG000", "value": "53"}]}], "measures": [{"title": "Age, Continuous", "paramType": "MEAN", "dispersionType": "STANDARD_DEVIATION", "unitOfMeasure": "Years", "classes": [{"denoms": [{"units": "Participants", "counts": [{"groupId": "BG000", "value": "53"}]}], "categories": [{"measurements": [{"groupId": "BG000", "value": "69.3", "spread": "12.13"}]}]}]}, {"title": "Sex: Female, Male", "paramType": "COUNT_OF_PARTICIPANTS", "unitOfMeasure": "Participants", "classes": [{"denoms": [{"units": "Participants", "counts": [{"groupId": "BG000", "value": "53"}]}], "categories": [{"title": "Female", "measurements": [{"groupId": "BG000", "value": "11"}]}, {"title": "Male", "measurements": [{"groupId": "BG000", "value": "42"}]}]}]}, {"title": "Race and Ethnicity Not Collected", "populationDescription": "Race and Ethnicity were not collected from any participant.", "paramType": "COUNT_OF_PARTICIPANTS", "unitOfMeasure": "Participants", "classes": [{"denoms": [{"units": "Participants", "counts": [{"groupId": "BG000", "value": "0"}]}]}]}, {"title": "Height", "paramType": "MEAN", "dispersionType": "STANDARD_DEVIATION", "unitOfMeasure": "in", "classes": [{"denoms": [{"units": "Participants", "counts": [{"groupId": "BG000", "value": "53"}]}], "categories": [{"measurements": [{"groupId": "BG000", "value": "68.5", "spread": "4.0"}]}]}]}, {"title": "Weight", "paramType": "MEAN", "dispersionType": "STANDARD_DEVIATION", "unitOfMeasure": "Pounds", "classes": [{"denoms": [{"units": "Participants", "counts": [{"groupId": "BG000", "value": "53"}]}], "categories": [{"measurements": [{"groupId": "BG000", "value": "212.7", "spread": "52.69"}]}]}]}]}, "outcomeMeasuresModule": {"outcomeMeasures": [{"type": "PRIMARY", "title": "Cardiac Resynchronization Therapy (CRT) Responder Status With the MPP Feature", "description": "Count of participants who are classified as \"Improved\", where responder classification is derived from a clinical composite score (CCS) based on changes in New York Heart Association (NYHA) class, Heart Failure (HF) hospitalization, and cardiovascular death.\n\nResponder classification at 6 months (evaluated compared to MPP Enrollment Visit) :\n\n* \"Improved\"\n\n  * No HF hospitalization or cardiovascular death, AND\n  * NYHA class is improved\n* \"Unchanged\"\n\n  * No HF hospitalization or cardiovascular death, AND\n  * NYHA class is unchanged\n* \"Worsened\"\n\n  * HF hospitalization or cardiovascular death has occurred, OR\n  * NYHA class is worsened", "populationDescription": "Participants who have completed the MultiPole Pacing (MPP) Sub-study 6-Month follow-up visit or experienced a qualifying outcome event as of January 23, 2020.", "reportingStatus": "POSTED", "paramType": "COUNT_OF_PARTICIPANTS", "unitOfMeasure": "Participants", "timeFrame": "Enrollment to 6 Months", "groups": [{"id": "OG000", "title": "MultiPole Pacing", "description": "Traditional biventricular pacing CRT non-responders at the 3 or 6 month QP ExCELs study follow-up.\n\nMultiPole Pacing: CRT non-responders are programmed with MultiPole pacing ON."}], "denoms": [{"units": "Participants", "counts": [{"groupId": "OG000", "value": "45"}]}], "classes": [{"categories": [{"title": "Improved", "measurements": [{"groupId": "OG000", "value": "16"}]}, {"title": "Unchanged", "measurements": [{"groupId": "OG000", "value": "23"}]}, {"title": "Worsened", "measurements": [{"groupId": "OG000", "value": "6"}]}]}], "analyses": [{"groupIds": ["OG000"], "groupDescription": "The primary endpoint 1 hypothesis was evaluated by performing an exact, binomial test comparing the binomial proportion of 'improved' patients to 3.0% with power of 80% and type 1 error (alpha) of 0.0224. A pre-planned interim analysis at 45 patients required a type 1 error (alpha) of 0.0026 to demonstrate significance.", "nonInferiorityType": "SUPERIORITY", "pValue": "<0.0001", "statisticalMethod": "Exact, binomial, one-sided"}]}, {"type": "SECONDARY", "title": "Percentage of Participants Without MPP System Related Adverse Events Requiring Additional Invasive Intervention to Resolve at 6 Months.", "description": "Evaluate adverse events that require additional invasive intervention to resolve specifically related to the MPP feature. These adverse events include any software issues related to MPP programming or any adverse event that occurs while MPP is enabled and that may be attributed to the use of the MPP feature. Outcome was evaluated as an adverse event free-rate (AEFR).", "populationDescription": "Evaluable participants for Secondary Endpoint 1 include all participants who have been enrolled into the MPP Sub-Study.", "reportingStatus": "POSTED", "paramType": "NUMBER", "dispersionType": "95% Confidence Interval", "unitOfMeasure": "percentage of participants", "timeFrame": "Enrollment to 6 Months", "groups": [{"id": "OG000", "title": "MultiPole Pacing", "description": "Traditional biventricular pacing CRT non-responders at the 3 or 6 month QP ExCELs study follow-up.\n\nMultiPole Pacing: CRT non-responders are programmed with MultiPole pacing ON."}], "denoms": [{"units": "Participants", "counts": [{"groupId": "OG000", "value": "53"}]}], "classes": [{"categories": [{"measurements": [{"groupId": "OG000", "value": "100", "lowerLimit": "93.28", "upperLimit": "100.00"}]}]}]}, {"type": "SECONDARY", "title": "Clinical Composite Score (CCS) + Patient Global Assessment (PGA) Responder Status Utilizing a Modified CCS That Incorporates the PGA", "description": "Evaluate a modified CCS, determining a responder classification based on changes in NYHA class, PGA, HF hospitalization, and cardiovascular death, where the PGA will ask participantss to assess how their overall status has changed since prior to receiving CRT therapy (markedly better, better, unchanged, worse, markedly worse).\n\nModified responder classification (CCS + PGA) at 6 months (evaluated compared to MPP Enrollment Visit):\n\n* \"Improved\"\n\n  * No HF hospitalization or cardiovascular death, AND\n  * Neither NYHA class is worsened or PGA is worsened (\"worse\" or \"markedly worse\"), AND\n  * NYHA class is improved or PGA is improved (\"better\" or \"markedly better\")\n* \"Unchanged\"\n\n  * No HF hospitalization or cardiovascular death, AND\n  * NYHA class is unchanged, AND\n  * PGA is unchanged (\"unchanged\")\n* \"Worsened\"\n\n  * HF hospitalization or cardiovascular death has occurred, OR\n  * NYHA class is worsened or PGA is worsened (\"worse\" or \"markedly worse\")", "populationDescription": "Participants who have completed the MPP Sub-Study 6-Month follow-up visit or experienced a qualifying outcome event as of January 23, 2020.", "reportingStatus": "POSTED", "paramType": "COUNT_OF_PARTICIPANTS", "unitOfMeasure": "Participants", "timeFrame": "Enrollment to 6 Months", "groups": [{"id": "OG000", "title": "MultiPole Pacing", "description": "Traditional biventricular pacing CRT non-responders at the 3 or 6 month QP ExCELs study follow-up.\n\nMultiPole Pacing: CRT non-responders are programmed with MultiPole pacing ON."}], "denoms": [{"units": "Participants", "counts": [{"groupId": "OG000", "value": "45"}]}], "classes": [{"categories": [{"title": "Improved", "measurements": [{"groupId": "OG000", "value": "27"}]}, {"title": "Unchanged", "measurements": [{"groupId": "OG000", "value": "11"}]}, {"title": "Worsened", "measurements": [{"groupId": "OG000", "value": "7"}]}]}]}, {"type": "SECONDARY", "title": "CCS Responder Status Utilizing an Expanded Responder Classification", "description": "Evaluate a modified CCS with an expanded responder classification where \"Improved\" and \"Unchanged\" are considered responders.\n\nResponder classification at 6 months (evaluated compared to MPP Enrollment Visit) :\n\n* \"Improved\"\n\n  * No HF hospitalization or cardiovascular death, AND\n  * NYHA class is improved\n* \"Unchanged\"\n\n  * No HF hospitalization or cardiovascular death, AND\n  * NYHA class is unchanged\n* \"Worsened\"\n\n  * HF hospitalization or cardiovascular death has occurred, OR\n  * NYHA class is worsened", "populationDescription": "Participants who have completed the MPP Sub-Study 6-Month follow-up visit or experienced a qualifying outcome event as of January 23, 2020.", "reportingStatus": "POSTED", "paramType": "COUNT_OF_PARTICIPANTS", "unitOfMeasure": "Participants", "timeFrame": "Enrollment to 6 Months", "groups": [{"id": "OG000", "title": "MultiPole Pacing", "description": "Traditional biventricular pacing CRT non-responders at the 3 or 6 month QP ExCELs study follow-up.\n\nMultiPole Pacing: CRT non-responders are programmed with MultiPole pacing ON."}], "denoms": [{"units": "Participants", "counts": [{"groupId": "OG000", "value": "45"}]}], "classes": [{"categories": [{"title": "Responder", "measurements": [{"groupId": "OG000", "value": "39"}]}, {"title": "Non-Responder", "measurements": [{"groupId": "OG000", "value": "6"}]}]}]}]}, "adverseEventsModule": {"frequencyThreshold": "0", "timeFrame": "6 months", "description": "Sites were required to report any cardiovascular hospitalizations and any other hospitalizations in which cardiovascular symptoms occur on or before the date of the MPP 6-Month follow-up. These hospitalizations were categorized as Heart Failure Hospitalization, Non-Heart Failure Hospitalization, or if applicable, Non-system related/non-protocol defined. Extracardiac stimulation was assessed/categorized however other specific adverse event terms were not assessed.", "eventGroups": [{"id": "EG000", "title": "MultiPole Pacing", "description": "Traditional biventricular pacing CRT non-responders at the 3 or 6 month QP ExCELs study follow-up.\n\nMultiPole Pacing: CRT non-responders are programmed with MultiPole pacing ON.", "deathsNumAffected": 3, "deathsNumAtRisk": 53, "seriousNumAffected": 5, "seriousNumAtRisk": 53, "otherNumAffected": 6, "otherNumAtRisk": 53}], "seriousEvents": [{"term": "Heart Failure Hospitalization", "organSystem": "Cardiac disorders", "assessmentType": "SYSTEMATIC_ASSESSMENT", "stats": [{"groupId": "EG000", "numAffected": 3, "numAtRisk": 53}]}, {"term": "Non-Heart failure Hospitalization", "organSystem": "General disorders", "assessmentType": "SYSTEMATIC_ASSESSMENT", "stats": [{"groupId": "EG000", "numAffected": 3, "numAtRisk": 53}]}], "otherEvents": [{"term": "Non-system related/ Non Protocol-defined", "organSystem": "Cardiac disorders", "assessmentType": "SYSTEMATIC_ASSESSMENT", "stats": [{"groupId": "EG000", "numEvents": 2, "numAffected": 2, "numAtRisk": 53}]}, {"term": "Extracardiac stimulation", "organSystem": "Cardiac disorders", "assessmentType": "SYSTEMATIC_ASSESSMENT", "stats": [{"groupId": "EG000", "numEvents": 4, "numAffected": 4, "numAtRisk": 53}]}]}, "moreInfoModule": {"certainAgreement": {"piSponsorEmployee": false, "restrictiveAgreement": true}, "pointOfContact": {"title": "Clinical Studies Engineer Manager", "organization": "BIOTRONIK", "email": "crystal.miller@biotronik.com", "phone": "800-547-0394"}}}, "documentSection": {"largeDocumentModule": {"largeDocs": [{"typeAbbrev": "Prot_SAP", "hasProtocol": true, "hasSap": true, "hasIcf": false, "label": "Study Protocol and Statistical Analysis Plan", "date": "2019-09-06", "uploadDate": "2021-01-22T17:50", "filename": "Prot_SAP_000.pdf", "size": 2399889}]}}, "derivedSection": {"miscInfoModule": {"versionHolder": "2024-06-24", "submissionTracking": {"firstMcpInfo": {"postDateStruct": {"date": "2021-02-09", "type": "ACTUAL"}}}}, "conditionBrowseModule": {"meshes": [{"id": "D000006333", "term": "Heart Failure"}], "ancestors": [{"id": "D000006331", "term": "Heart Diseases"}, {"id": "D000002318", "term": "Cardiovascular Diseases"}], "browseLeaves": [{"id": "M9421", "name": "Heart Failure", "asFound": "Heart Failure", "relevance": "HIGH"}, {"id": "M9419", "name": "Heart Diseases", "relevance": "LOW"}], "browseBranches": [{"abbrev": "BC14", "name": "Heart and Blood Diseases"}, {"abbrev": "All", "name": "All Conditions"}]}}, "hasResults": true}