{"protocolSection": {"identificationModule": {"nctId": "NCT01202903", "orgStudyIdInfo": {"id": "CIGE025A2313"}, "organization": {"fullName": "Novartis", "class": "INDUSTRY"}, "briefTitle": "Omalizumab in Patients With Moderate to Severe Persistent Allergic Asthma Not Adequately Controlled Despite GINA (2009) Step 4 Therapy", "officialTitle": "A 24-week, Phase III Randomized, Double-blind, Placebocontrolled, Parallel-group, Multicenter Study of Xolair\u00ae (Omalizumab) in Patients With Moderate to Severe Persistent Allergic Asthma Who Remain Not Adequately Controlled Despite GINA (2009) Step 4 Therapy"}, "statusModule": {"statusVerifiedDate": "2015-03", "overallStatus": "COMPLETED", "expandedAccessInfo": {"hasExpandedAccess": false}, "startDateStruct": {"date": "2010-09"}, "primaryCompletionDateStruct": {"date": "2013-10", "type": "ACTUAL"}, "completionDateStruct": {"date": "2013-10", "type": "ACTUAL"}, "studyFirstSubmitDate": "2010-09-14", "studyFirstSubmitQcDate": "2010-09-14", "studyFirstPostDateStruct": {"date": "2010-09-16", "type": "ESTIMATED"}, "resultsFirstSubmitDate": "2014-10-24", "resultsFirstSubmitQcDate": "2015-03-16", "resultsFirstPostDateStruct": {"date": "2015-03-23", "type": "ESTIMATED"}, "lastUpdateSubmitDate": "2015-03-16", "lastUpdatePostDateStruct": {"date": "2015-03-23", "type": "ESTIMATED"}}, "sponsorCollaboratorsModule": {"responsibleParty": {"type": "SPONSOR"}, "leadSponsor": {"name": "Novartis Pharmaceuticals", "class": "INDUSTRY"}, "collaborators": [{"name": "Genentech, Inc.", "class": "INDUSTRY"}]}, "oversightModule": {"oversightHasDmc": false}, "descriptionModule": {"briefSummary": "This study will assess the efficacy, safety and tolerability of omalizumab, compared to placebo in 18 to 75 year old Chinese patients with moderate to severe persistent allergic asthma who have inadequate asthma control despite treatment according to GINA (2009) Step 4 therapy."}, "conditionsModule": {"conditions": ["Persistent Allergic Asthma"], "keywords": ["omalizumab", "asthma", "immunoglobulin E", "IgE"]}, "designModule": {"studyType": "INTERVENTIONAL", "phases": ["PHASE3"], "designInfo": {"allocation": "RANDOMIZED", "interventionModel": "PARALLEL", "primaryPurpose": "TREATMENT", "maskingInfo": {"masking": "DOUBLE", "whoMasked": ["PARTICIPANT", "INVESTIGATOR"]}}, "enrollmentInfo": {"count": 616, "type": "ACTUAL"}}, "armsInterventionsModule": {"armGroups": [{"label": "Omalizumab", "type": "EXPERIMENTAL", "description": "Omalizumab was supplied as lyophilized, sterile powder in a single-use, 5 mL vial that was designed to deliver 150 mg of omalizumab for subcutaneous administration upon reconstitution with 1.4 mL sterile water for injection. The minimum dose of 0.016 mg/kg/IgE (IU/mL) omalizumab was administered every 4 weeks by subcutaneous injection.", "interventionNames": ["Drug: Omalizumab"]}, {"label": "Placebo", "type": "PLACEBO_COMPARATOR", "description": "The placebo was the same mixture of inactive excipients, in quality and quantity, as those used for the drug product. The minimum dose of 0.016 mg/kg/IgE (IU/mL) placebo was administered every 4 weeks by subcutaneous injection.", "interventionNames": ["Drug: Placebo"]}], "interventions": [{"type": "DRUG", "name": "Omalizumab", "description": "The minimum dose of 0.016 mg/kg/IgE (IU/mL) omalizumab was administered every 4 weeks by subcutaneous injection.", "armGroupLabels": ["Omalizumab"]}, {"type": "DRUG", "name": "Placebo", "description": "The minimum dose of 0.016 mg/kg/IgE (IU/mL) placebo was administered every 4 weeks by subcutaneous injection.", "armGroupLabels": ["Placebo"]}]}, "outcomesModule": {"primaryOutcomes": [{"measure": "Change From Baseline in Mean Morning Peak Expiratory Flow (PEF) Following the 24-week Treatment Period", "description": "A Peak Expiratory Flow (PEF) meter was distributed to patients at Visit 1, to be used to measure PEF twice-daily as directed. During the Screening and Treatment Periods, PEF was measured in the morning and evening every day. the morning PEF was performed within 15 minutes after waking, and the evening PEF approximately 12 hours later. Patients were encouraged to perform morning and evening PEF measurements before the use of any LABA or rescue medication. The highest of 3 values was recorded as the daily personal best. The personal best was used to calculate the mean morning PEF and mean evening PEF value collected between assessment Visits LS Mean of change from baseline in mean morning PEF is calculated with the ANCOVA model using treatment, stratification group, dosing schedule, gender, center grouping, smoking status, and baseline mean morning PEF as covariates.", "timeFrame": "Baseline, 24 weeks"}], "secondaryOutcomes": [{"measure": "Change From Baseline in Mean Evening PEF (L/Min) Following 24-week Treatment", "description": "A Peak Expiratory Flow (PEF) meter was distributed to patients at Visit 1, to be used to measure PEF twice-daily as directed. During the Screening and Treatment Periods, PEF was measured in the morning and evening every day. the morning PEF was performed within 15 minutes after waking, and the evening PEF approximately 12 hours later. Patients were encouraged to perform morning and evening PEF measurements before the use of any LABA or rescue medication. The highest of 3 values was recorded as the daily personal best. The personal best was used to calculate the mean morning PEF and mean evening PEF value collected between assessment Visits. LS Mean of change from baseline in mean morning PEF is calculated with the ANCOVA model using treatment, stratification group, dosing schedule, gender, center grouping, smoking status, and baseline mean morning PEF as covariates.", "timeFrame": "Baseline, 24 weeks"}, {"measure": "Change From Baseline in % Predicted FEV1 Following 24-week Treatment", "description": "Spirometry was used at defined time points throughout the study to assess the clinical status of patients and to capture the following variables: forced expiratory volume in one second (FEV1), FEV1 percent predicted, forced vital capacity (FVC) and the FEV1/FVC ratio. During the Screening assessment, spirometry was performed pre- and post-bronchodilator administration to assess reversibility. During the treatment period (including prerandomization assessments on Day 1), spirometry was performed after withholding bronchodilators. The results of spirometry were required to meet the ATS/ERS criteria for acceptability and repeatability. Acceptability criteria were applied before repeatability was determined. LS Mean of change from baseline in % predicted FEV1 is calculated with the ANCOVA model using treatment, stratification group, dosing schedule, gender, center grouping, smoking status, and baseline % predicted FEV1 as covariates.", "timeFrame": "Baseline, 24 weeks"}, {"measure": "Change From Baseline in AQLQ Score Following 24-week Treatment", "description": "The standardized version of the Asthma Quality of Life Questionnaire (AQLQs)), was used to assess the patients' asthma-related quality of life. There are 32 questions in the AQLQ and they are in 4 domains (symptoms, activity limitation, emotional function and environmental exposure). Each question was answered on a 7 point scale (1-totally limited/problems all the time, 7-not at all limited/no problems). The overall AQLQ score is the mean of all 32 responses, and the individual domain scores are the means of the items in those domains (a minimum domain / overall score of 1 = Severely impaired whereas a maximum domain / overall score of 7 = not impaired at all). A positive change from baseline score indicates improvement.", "timeFrame": "24 weeks"}, {"measure": "Percentage of Patients Achieving at Least a 0.5, 1.0 or 1.5 Point Improvement From Baseline in AQLQ Overall Score Following 24-week Treatment", "description": "The standardized version of the Asthma Quality of Life Questionnaire (AQLQs)), was used to assess the patients' asthma-related quality of life. There are 32 questions in the AQLQ and they are in 4 domains (symptoms, activity limitation, emotional function and environmental exposure). Each question was answered on a 7 point scale (1-totally limited/problems all the time, 7-not at all limited/no problems). The overall AQLQ score is the mean of all 32 responses, and the individual domain scores are the means of the items in those domains (a minimum domain / overall score of 1 = Severely impaired whereas a maximum domain / overall score of 7 = not impaired at all). A positive change from baseline score indicates improvement.", "timeFrame": "24 weeks"}, {"measure": "Change From Baseline in ACQ Score Following 24-week Treatment", "description": "The Asthma Control Questionnaire (ACQ) is a questionnaire consisting of 7 questions assessing symptoms, airway caliber and rescue \u03b22-agonist use. One value representing overall asthma control on that occasion was calculated. Decrease in scores of 0.5 or higher between ACQ assessments are considered clinically meaningful. The ACQ was completed by the patient at the Investigator's site at Visit 2 (Week 1, pre-dose), Visit 6 (after completion of 16 weeks of treatment) and at the End of Study/Early Termination visit. LS Mean of change from baseline in ACQ score is calculated with the ANCOVA model using treatment, stratification group, dosing schedule, center grouping, smoking status, and baseline ACQ score as covariates. Score 0= totally controlled, 6= extremely poorly controlled", "timeFrame": "24 weeks"}, {"measure": "Percentage of Patients With at Least a 0.5 or 0.75 Point Improvement in the ACQ Score at Week 24", "description": "The Asthma Control Questionnaire (ACQ) is a questionnaire consisting of 7 questions assessing symptoms, airway caliber and rescue \u03b22-agonist use. One value representing overall asthma control on that occasion was calculated. Decrease in scores of 0.5 or higher between ACQ assessments are considered clinically meaningful. The ACQ was completed by the patient at the Investigator's site at Visit 2 (Week 1, pre-dose), Visit 6 (after completion of 16 weeks of treatment) and at the End of Study/Early Termination visit. Only patients with no more than 1 item missing are included, and the missing item was imputed by interpolation", "timeFrame": "24 weeks"}, {"measure": "Change From Baseline in Asthma Symptom Scores Following 24-week Treatment", "description": "Total asthma symptom score was derived for each day as the total of the morning (scale 0-1), daytime (scale 0-4) and nocturnal (scale 0-4) scores with a max score of 9. The mean score across the 28 days prior to the week 24 assessment visit was used to calculate a change from baseline. Analysis of total asthma symptom score was performed using ANCOVA model and Van-Elteren test. LS Mean of change from baseline in mean asthma symptom score is calculated with the ANCOVA model using treatment, stratification group, dosing schedule, gender, smoking status, center grouping, and baseline mean asthma symptom scores as covariates. Decrease of score on change from baseline means improvement of asthma symptom control.", "timeFrame": "24 weeks"}, {"measure": "Percentage of Participants With Investigator and Patient Global Evaluation of Treatment Effectiveness (GETE) at Weeks 16 and 24", "description": "The global evaluation of treatment effectiveness (GETE) is an assessment of asthma symptom control and overall response to asthma treatment. The evaluation was performed by both investigator and patient, each using the same 5 point scale. The GETE scale ranges were as follows: excellent, good, moderate, poor and worsening. A good or excellent response on the 5 point scale indicated that a patient had responded to treatment. 1=excellent 2=good 3=moderate 4=poor 5= worsening. Responder is defined as the patient who achieved an excellent or good response. Non-responder isdefined as the patient who achieved a moderate or poor or worsening response.", "timeFrame": "16 and 24 weeks"}, {"measure": "Change From Baseline in Number of Puffs of Asthma Rescue Medication Following 24-week Treatment", "description": "Analysis of rescue medication use followed a similar method to that employed for total asthma symptom score. The mean number of puffs across the 28 days prior to the Week 24 assessment visit was used to calculate a change from baseline. LS Mean of change from baseline in mean number of puffs of asthma rescue medication is calculated with the ANCOVA model using treatment, stratification group, dosing schedule, gender, smoking status, center grouping, and baseline mean number of puffs of asthma rescue medication as covariates.", "timeFrame": "24 weeks"}]}, "eligibilityModule": {"eligibilityCriteria": "Inclusion Criteria:\n\n* Met study drug-dosing table eligibility criteria (serum baseline total IgE level \u2265 30 to \u2264 700 IU/mL and body weight \\> 20 kg and \u2264 150 kg)\n* Diagnosed with asthma \u2265 1 year duration at Screening, and a history of asthma that is not adequately controlled with GINA (2009) Step 4 therapy\n* Received medium-to-high dose inhaled corticosteroid \\> 500 \u00b5g Beclomethasone Diproprionate (BDP), or equivalent plus regularly inhaled LABA, either separately or in combination, for at least 8 weeks prior to screening\n* Met specific asthma exacerbations eligibility criteria prior to the screening period\n* Exhibited inadequate symptom control as demonstrated by specific criteria (in keeping with GINA 2009 guidelines)\n* Positive skin prick test to at least one perennial aeroallergen documented by a historical test within 12 months prior to screening, or at Visit 1\n* FEV1 \u2265 40% and \\< 80% of the predicted normal value for the patient (using local standards), after withholding bronchodilators at Visit 2\n\nExclusion Criteria:\n\n* Used other investigational drugs at the time of enrollment, or within 30 days or 5 half-lives of enrollment, whichever is longer. For biological agent-based investigational drugs, such as monoclonal antibodies, at least six months will need to have passed between the last administration of the drug and the patient's Screening Visit.\n* History of malignancy\n* History of allergies and diseases that could interfere with the analyses\n* Clinically significant abnormality on a 12-lead ECG recorded at Visit 1\n* Elevated IgE levels for reasons other than allergy\n* Current smokers, or a former smoker with a smoking history of \\> 10 pack-years. A former smoker must have abstained for a minimum of 12 months before randomization\n* Receiving specific medications\n* Clinically significant laboratory abnormalities (not associated with the study indication) at Visit 1\n\nOther protocol-defined inclusion/exclusion criteria may apply", "healthyVolunteers": false, "sex": "ALL", "minimumAge": "18 Years", "maximumAge": "75 Years", "stdAges": ["ADULT", "OLDER_ADULT"]}, "contactsLocationsModule": {"overallOfficials": [{"name": "Novartis Pharmaceuticals", "affiliation": "Novartis Pharmaceuticals", "role": "STUDY_DIRECTOR"}], "locations": [{"facility": "Novartis Investigative Site", "city": "Beijing", "state": "Beijing", "zip": "100023", "country": "China", "geoPoint": {"lat": 39.9075, "lon": 116.39723}}, {"facility": "Novartis Investigative Site", "city": "Beijing", "state": "Beijing", "country": "China", "geoPoint": {"lat": 39.9075, "lon": 116.39723}}, {"facility": "Novartis Investigative Site", "city": "Guangzhou", "state": "Guangdong", "zip": "510030", "country": "China", "geoPoint": {"lat": 23.11667, "lon": 113.25}}, {"facility": "Novartis Investigative Site", "city": "Guangzhou", "state": "Guangdong", "zip": "510515", "country": "China", "geoPoint": {"lat": 23.11667, "lon": 113.25}}, {"facility": "Novartis Investigative Site", "city": "Nanning", "state": "Guangxi", "zip": "530021", "country": "China", "geoPoint": {"lat": 22.81667, "lon": 108.31667}}, {"facility": "Novartis Investigative Site", "city": "Shijiazhuang", "state": "Hebei", "zip": "050000", "country": "China", "geoPoint": {"lat": 38.04139, "lon": 114.47861}}, {"facility": "Novartis Investigative Site", "city": "Wuhan", "state": "Hubei", "zip": "430022", "country": "China", "geoPoint": {"lat": 30.58333, "lon": 114.26667}}, {"facility": "Novartis Investigative Site", "city": "Wuhan", "state": "Hubei", "zip": "430070", "country": "China", "geoPoint": {"lat": 30.58333, "lon": 114.26667}}, {"facility": "Novartis Investigative Site", "city": "Changsha City", "state": "Hunan", "zip": "410011", "country": "China"}, {"facility": "Novartis Investigative Site", "city": "Changsha", "state": "Hunan", "zip": "410003", "country": "China", "geoPoint": {"lat": 28.19874, "lon": 112.97087}}, {"facility": "Novartis Investigative Site", "city": "Changsha", "state": "Hunan", "zip": "410008", "country": "China", "geoPoint": {"lat": 28.19874, "lon": 112.97087}}, {"facility": "Novartis Investigative Site", "city": "Nanjing", "state": "Jiangsu", "country": "China", "geoPoint": {"lat": 32.06167, "lon": 118.77778}}, {"facility": "Novartis Investigative Site", "city": "Suzhou", "state": "Jiangsu", "zip": "215004", "country": "China", "geoPoint": {"lat": 31.30408, "lon": 120.59538}}, {"facility": "Novartis Investigative Site", "city": "Suzhou", "state": "Jiangsu", "zip": "215006", "country": "China", "geoPoint": {"lat": 31.30408, "lon": 120.59538}}, {"facility": "Novartis Investigative Site", "city": "Nanchang", "state": "Jiangxi", "zip": "330006", "country": "China", "geoPoint": {"lat": 28.68396, "lon": 115.85306}}, {"facility": "Novartis Investigative Site", "city": "Changchun", "state": "Jilin", "zip": "130041", "country": "China", "geoPoint": {"lat": 43.88, "lon": 125.32278}}, {"facility": "Novartis Investigative Site", "city": "Shengyang", "state": "Liaoning", "zip": "110016", "country": "China"}, {"facility": "Novartis Investigative Site", "city": "Shenyang", "state": "Liaoning", "country": "China", "geoPoint": {"lat": 41.79222, "lon": 123.43278}}, {"facility": "Novartis Investigative Site", "city": "Shanghai", "state": "Shanghai", "zip": "200433", "country": "China", "geoPoint": {"lat": 31.22222, "lon": 121.45806}}, {"facility": "Novartis Investigative Site", "city": "Xi'an", "state": "Shanxi", "zip": "710032", "country": "China", "geoPoint": {"lat": 34.25833, "lon": 108.92861}}, {"facility": "Novartis Investigative Site", "city": "Xi'an", "state": "Shanxi", "zip": "710038", "country": "China", "geoPoint": {"lat": 34.25833, "lon": 108.92861}}, {"facility": "Novartis Investigative Site", "city": "Xian", "state": "Shanxi", "zip": "710004", "country": "China", "geoPoint": {"lat": 34.25833, "lon": 108.92861}}, {"facility": "Novartis Investigative Site", "city": "Chengdu", "state": "Sichuan", "zip": "610041", "country": "China", "geoPoint": {"lat": 30.66667, "lon": 104.06667}}, {"facility": "Novartis Investigative Site", "city": "Hangzhou", "state": "Zhejiang", "zip": "310003", "country": "China", "geoPoint": {"lat": 30.29365, "lon": 120.16142}}, {"facility": "Novartis Investigative Site", "city": "Beijing", "zip": "100029", "country": "China", "geoPoint": {"lat": 39.9075, "lon": 116.39723}}, {"facility": "Novartis Investigative Site", "city": "Beijing", "zip": "100034", "country": "China", "geoPoint": {"lat": 39.9075, "lon": 116.39723}}, {"facility": "Novartis Investigative Site", "city": "Beijing", "zip": "100050", "country": "China", "geoPoint": {"lat": 39.9075, "lon": 116.39723}}, {"facility": "Novartis Investigative Site", "city": "Beijing", "zip": "100088", "country": "China", "geoPoint": {"lat": 39.9075, "lon": 116.39723}}, {"facility": "Novartis Investigative Site", "city": "Beijing", "zip": "100730", "country": "China", "geoPoint": {"lat": 39.9075, "lon": 116.39723}}, {"facility": "Novartis Investigative Site", "city": "Beijing", "country": "China", "geoPoint": {"lat": 39.9075, "lon": 116.39723}}, {"facility": "Novartis Investigative Site", "city": "Chongqing", "zip": "400037", "country": "China", "geoPoint": {"lat": 29.56278, "lon": 106.55278}}, {"facility": "Novartis Investigative Site", "city": "Chongqing", "zip": "400038", "country": "China", "geoPoint": {"lat": 29.56278, "lon": 106.55278}}, {"facility": "Novartis Investigative Site", "city": "Chongqing", "zip": "400042", "country": "China", "geoPoint": {"lat": 29.56278, "lon": 106.55278}}, {"facility": "Novartis Investigative Site", "city": "Guang zhou", "zip": "510080", "country": "China"}, {"facility": "Novartis Investigative Site", "city": "Nanjing", "country": "China", "geoPoint": {"lat": 32.06167, "lon": 118.77778}}, {"facility": "Novartis Investigative Site", "city": "Shanghai", "zip": "200025", "country": "China", "geoPoint": {"lat": 31.22222, "lon": 121.45806}}, {"facility": "Novartis Investigative Site", "city": "Shanghai", "zip": "200032", "country": "China", "geoPoint": {"lat": 31.22222, "lon": 121.45806}}, {"facility": "Novartis Investigative Site", "city": "Shanghai", "zip": "200233", "country": "China", "geoPoint": {"lat": 31.22222, "lon": 121.45806}}, {"facility": "Novartis Investigative Site", "city": "Shanghai", "zip": "200433", "country": "China", "geoPoint": {"lat": 31.22222, "lon": 121.45806}}]}, "referencesModule": {"references": [{"pmid": "34611470", "type": "DERIVED", "citation": "Li J, Wang C, Liu C, Kang J, Kong L, Huang Y, Liu S, Huang M, Wang L, Fogel R, Jaumont X, Yang J, Zhong N. Efficacy predictors of omalizumab in Chinese patients with moderate-to-severe allergic asthma: Findings from a post-hoc analysis of a randomised phase III study. World Allergy Organ J. 2020 Nov 24;13(12):100469. doi: 10.1016/j.waojou.2020.100469. eCollection 2020 Dec."}]}}, "resultsSection": {"participantFlowModule": {"preAssignmentDetails": "One additional patient did not receive study drug for greater than 60 days and was also removed from the FAS. 4 patients initially randomized to the placebo group received omalizumab at one or more administration and were considered part of the omalizumab group for the Safety Set.", "recruitmentDetails": "Of the 616 patients randomized 7 (2 omalizumab and 5 placebo) did not receive drug and were excluded from the Full Analysis Set (FAS) and Safety Set.", "groups": [{"id": "FG000", "title": "Omalizumab", "description": "Omalizumab was supplied as lyophilized, sterile powder in a single-use, 5 mL vial that was designed to deliver 150 mg of omalizumab for subcutaneous administration upon reconstitution with 1.4 mL sterile water for injection. The minimum dose of 0.016 mg/kg/IgE (IU/mL) omalizumab was administered every 4 weeks by subcutaneous injection."}, {"id": "FG001", "title": "Placebo", "description": "The placebo was the same mixture of inactive excipients, in quality and quantity, as those used for the drug product. The minimum dose of 0.016 mg/kg/IgE (IU/mL) placebo was administered every 4 weeks by subcutaneous injection."}], "periods": [{"title": "Overall Study", "milestones": [{"type": "STARTED", "achievements": [{"groupId": "FG000", "numSubjects": "308"}, {"groupId": "FG001", "numSubjects": "308"}]}, {"type": "Full Analysis Set", "achievements": [{"groupId": "FG000", "numSubjects": "306"}, {"groupId": "FG001", "numSubjects": "302"}]}, {"type": "Safety Set*", "achievements": [{"groupId": "FG000", "numSubjects": "310"}, {"groupId": "FG001", "numSubjects": "299"}]}, {"type": "COMPLETED", "achievements": [{"groupId": "FG000", "numSubjects": "297"}, {"groupId": "FG001", "numSubjects": "292"}]}, {"type": "NOT COMPLETED", "achievements": [{"groupId": "FG000", "numSubjects": "11"}, {"groupId": "FG001", "numSubjects": "16"}]}], "dropWithdraws": [{"type": "Administrative Probelms", "reasons": [{"groupId": "FG000", "numSubjects": "1"}, {"groupId": "FG001", "numSubjects": "4"}]}, {"type": "Protocol Violation", "reasons": [{"groupId": "FG000", "numSubjects": "0"}, {"groupId": "FG001", "numSubjects": "1"}]}, {"type": "Death", "reasons": [{"groupId": "FG000", "numSubjects": "1"}, {"groupId": "FG001", "numSubjects": "0"}]}, {"type": "Lost to Follow-up", "reasons": [{"groupId": "FG000", "numSubjects": "1"}, {"groupId": "FG001", "numSubjects": "1"}]}, {"type": "Lack of Efficacy", "reasons": [{"groupId": "FG000", "numSubjects": "1"}, {"groupId": "FG001", "numSubjects": "3"}]}, {"type": "Adverse Event", "reasons": [{"groupId": "FG000", "numSubjects": "3"}, {"groupId": "FG001", "numSubjects": "3"}]}, {"type": "Withdrawal by Subject", "reasons": [{"groupId": "FG000", "numSubjects": "4"}, {"groupId": "FG001", "numSubjects": "4"}]}]}]}, "baselineCharacteristicsModule": {"populationDescription": "The Safety Set consisted of all patients who received at least one dose of study medication whether or not being randomized. Patients were analyzed according to the treatment they actually received. If patients switched between placebo and omalizumab during the study, they were analyzed according to omalizumab.", "groups": [{"id": "BG000", "title": "Omalizumab", "description": "Omalizumab was supplied as lyophilized, sterile powder in a single-use, 5 mL vial that was designed to deliver 150 mg of omalizumab for subcutaneous administration upon reconstitution with 1.4 mL sterile water for injection. The minimum dose of 0.016 mg/kg/IgE (IU/mL) omalizumab was administered every 4 weeks by subcutaneous injection."}, {"id": "BG001", "title": "Placebo", "description": "The placebo was the same mixture of inactive excipients, in quality and quantity, as those used for the drug product. The minimum dose of 0.016 mg/kg/IgE (IU/mL) placebo was administered every 4 weeks by subcutaneous injection."}, {"id": "BG002", "title": "Total", "description": "Total of all reporting groups"}], "denoms": [{"units": "Participants", "counts": [{"groupId": "BG000", "value": "310"}, {"groupId": "BG001", "value": "299"}, {"groupId": "BG002", "value": "609"}]}], "measures": [{"title": "Age, Continuous", "paramType": "MEAN", "dispersionType": "STANDARD_DEVIATION", "unitOfMeasure": "Years", "classes": [{"categories": [{"measurements": [{"groupId": "BG000", "value": "45.8", "spread": "12.03"}, {"groupId": "BG001", "value": "47.1", "spread": "11.64"}, {"groupId": "BG002", "value": "46.5", "spread": "11.85"}]}]}]}, {"title": "Age, Customized", "paramType": "NUMBER", "unitOfMeasure": "Participants", "classes": [{"title": "18-<65 years", "categories": [{"measurements": [{"groupId": "BG000", "value": "290"}, {"groupId": "BG001", "value": "285"}, {"groupId": "BG002", "value": "575"}]}]}, {"title": "65<=75 years", "categories": [{"measurements": [{"groupId": "BG000", "value": "20"}, {"groupId": "BG001", "value": "14"}, {"groupId": "BG002", "value": "34"}]}]}]}, {"title": "Sex: Female, Male", "paramType": "COUNT_OF_PARTICIPANTS", "unitOfMeasure": "Participants", "classes": [{"categories": [{"title": "Female", "measurements": [{"groupId": "BG000", "value": "171"}, {"groupId": "BG001", "value": "157"}, {"groupId": "BG002", "value": "328"}]}, {"title": "Male", "measurements": [{"groupId": "BG000", "value": "139"}, {"groupId": "BG001", "value": "142"}, {"groupId": "BG002", "value": "281"}]}]}]}]}, "outcomeMeasuresModule": {"outcomeMeasures": [{"type": "PRIMARY", "title": "Change From Baseline in Mean Morning Peak Expiratory Flow (PEF) Following the 24-week Treatment Period", "description": "A Peak Expiratory Flow (PEF) meter was distributed to patients at Visit 1, to be used to measure PEF twice-daily as directed. During the Screening and Treatment Periods, PEF was measured in the morning and evening every day. the morning PEF was performed within 15 minutes after waking, and the evening PEF approximately 12 hours later. Patients were encouraged to perform morning and evening PEF measurements before the use of any LABA or rescue medication. The highest of 3 values was recorded as the daily personal best. The personal best was used to calculate the mean morning PEF and mean evening PEF value collected between assessment Visits LS Mean of change from baseline in mean morning PEF is calculated with the ANCOVA model using treatment, stratification group, dosing schedule, gender, center grouping, smoking status, and baseline mean morning PEF as covariates.", "populationDescription": "The FAS consisted of all randomized patients who received at least one dose of study drug. 7 randomized patients did not receive study drug and were excluded along with 1 other patient who did not receive study drug for more than 60 days", "reportingStatus": "POSTED", "paramType": "LEAST_SQUARES_MEAN", "dispersionType": "Standard Error", "unitOfMeasure": "L/min", "timeFrame": "Baseline, 24 weeks", "groups": [{"id": "OG000", "title": "Omalizumab", "description": "Omalizumab was supplied as lyophilized, sterile powder in a single-use, 5 mL vial that was designed to deliver 150 mg of omalizumab for subcutaneous administration upon reconstitution with 1.4 mL sterile water for injection. The minimum dose of 0.016 mg/kg/IgE (IU/mL) omalizumab was administered every 4 weeks by subcutaneous injection."}, {"id": "OG001", "title": "Placebo", "description": "The placebo was the same mixture of inactive excipients, in quality and quantity, as those used for the drug product. The minimum dose of 0.016 mg/kg/IgE (IU/mL) placebo was administered every 4 weeks by subcutaneous injection."}], "denoms": [{"units": "Participants", "counts": [{"groupId": "OG000", "value": "306"}, {"groupId": "OG001", "value": "302"}]}], "classes": [{"categories": [{"measurements": [{"groupId": "OG000", "value": "27.03", "spread": "20.865"}, {"groupId": "OG001", "value": "18.18", "spread": "21.086"}]}]}]}, {"type": "SECONDARY", "title": "Change From Baseline in Mean Evening PEF (L/Min) Following 24-week Treatment", "description": "A Peak Expiratory Flow (PEF) meter was distributed to patients at Visit 1, to be used to measure PEF twice-daily as directed. During the Screening and Treatment Periods, PEF was measured in the morning and evening every day. the morning PEF was performed within 15 minutes after waking, and the evening PEF approximately 12 hours later. Patients were encouraged to perform morning and evening PEF measurements before the use of any LABA or rescue medication. The highest of 3 values was recorded as the daily personal best. The personal best was used to calculate the mean morning PEF and mean evening PEF value collected between assessment Visits. LS Mean of change from baseline in mean morning PEF is calculated with the ANCOVA model using treatment, stratification group, dosing schedule, gender, center grouping, smoking status, and baseline mean morning PEF as covariates.", "populationDescription": "The FAS consisted of all randomized patients who received at least one dose of study drug. 7 randomized patients did not receive study drug and were excluded along with 1 other patient who did not receive study drug for more than 60 days", "reportingStatus": "POSTED", "paramType": "LEAST_SQUARES_MEAN", "dispersionType": "Standard Error", "unitOfMeasure": "L/min", "timeFrame": "Baseline, 24 weeks", "groups": [{"id": "OG000", "title": "Omalizumab", "description": "Omalizumab was supplied as lyophilized, sterile powder in a single-use, 5 mL vial that was designed to deliver 150 mg of omalizumab for subcutaneous administration upon reconstitution with 1.4 mL sterile water for injection. The minimum dose of 0.016 mg/kg/IgE (IU/mL) omalizumab was administered every 4 weeks by subcutaneous injection."}, {"id": "OG001", "title": "Placebo", "description": "The placebo was the same mixture of inactive excipients, in quality and quantity, as those used for the drug product. The minimum dose of 0.016 mg/kg/IgE (IU/mL) placebo was administered every 4 weeks by subcutaneous injection."}], "denoms": [{"units": "Participants", "counts": [{"groupId": "OG000", "value": "292"}, {"groupId": "OG001", "value": "289"}]}], "classes": [{"categories": [{"measurements": [{"groupId": "OG000", "value": "22.96", "spread": "20.145"}, {"groupId": "OG001", "value": "15.53", "spread": "20.350"}]}]}]}, {"type": "SECONDARY", "title": "Change From Baseline in % Predicted FEV1 Following 24-week Treatment", "description": "Spirometry was used at defined time points throughout the study to assess the clinical status of patients and to capture the following variables: forced expiratory volume in one second (FEV1), FEV1 percent predicted, forced vital capacity (FVC) and the FEV1/FVC ratio. During the Screening assessment, spirometry was performed pre- and post-bronchodilator administration to assess reversibility. During the treatment period (including prerandomization assessments on Day 1), spirometry was performed after withholding bronchodilators. The results of spirometry were required to meet the ATS/ERS criteria for acceptability and repeatability. Acceptability criteria were applied before repeatability was determined. LS Mean of change from baseline in % predicted FEV1 is calculated with the ANCOVA model using treatment, stratification group, dosing schedule, gender, center grouping, smoking status, and baseline % predicted FEV1 as covariates.", "populationDescription": "The FAS consisted of all randomized patients who received at least one dose of study drug. 7 randomized patients did not receive study drug and were excluded along with 1 other patient who did not receive study drug for more than 60 days", "reportingStatus": "POSTED", "paramType": "LEAST_SQUARES_MEAN", "dispersionType": "Standard Error", "unitOfMeasure": "L/min", "timeFrame": "Baseline, 24 weeks", "groups": [{"id": "OG000", "title": "Omalizumab", "description": "Omalizumab was supplied as lyophilized, sterile powder in a single-use, 5 mL vial that was designed to deliver 150 mg of omalizumab for subcutaneous administration upon reconstitution with 1.4 mL sterile water for injection. The minimum dose of 0.016 mg/kg/IgE (IU/mL) omalizumab was administered every 4 weeks by subcutaneous injection."}, {"id": "OG001", "title": "Placebo", "description": "The placebo was the same mixture of inactive excipients, in quality and quantity, as those used for the drug product. The minimum dose of 0.016 mg/kg/IgE (IU/mL) placebo was administered every 4 weeks by subcutaneous injection."}], "denoms": [{"units": "Participants", "counts": [{"groupId": "OG000", "value": "306"}, {"groupId": "OG001", "value": "302"}]}], "classes": [{"categories": [{"measurements": [{"groupId": "OG000", "value": "19.113", "spread": "5.6130"}, {"groupId": "OG001", "value": "14.989", "spread": "5.6645"}]}]}]}, {"type": "SECONDARY", "title": "Change From Baseline in AQLQ Score Following 24-week Treatment", "description": "The standardized version of the Asthma Quality of Life Questionnaire (AQLQs)), was used to assess the patients' asthma-related quality of life. There are 32 questions in the AQLQ and they are in 4 domains (symptoms, activity limitation, emotional function and environmental exposure). Each question was answered on a 7 point scale (1-totally limited/problems all the time, 7-not at all limited/no problems). The overall AQLQ score is the mean of all 32 responses, and the individual domain scores are the means of the items in those domains (a minimum domain / overall score of 1 = Severely impaired whereas a maximum domain / overall score of 7 = not impaired at all). A positive change from baseline score indicates improvement.", "populationDescription": "The FAS consisted of all randomized patients who received at least one dose of study drug. 7 randomized patients did not receive study drug and were excluded along with 1 other patient who did not receive study drug for more than 60 days", "reportingStatus": "POSTED", "paramType": "LEAST_SQUARES_MEAN", "dispersionType": "Standard Error", "unitOfMeasure": "Units on a scale", "timeFrame": "24 weeks", "groups": [{"id": "OG000", "title": "Omalizumab", "description": "Omalizumab was supplied as lyophilized, sterile powder in a single-use, 5 mL vial that was designed to deliver 150 mg of omalizumab for subcutaneous administration upon reconstitution with 1.4 mL sterile water for injection. The minimum dose of 0.016 mg/kg/IgE (IU/mL) omalizumab was administered every 4 weeks by subcutaneous injection."}, {"id": "OG001", "title": "Placebo", "description": "The placebo was the same mixture of inactive excipients, in quality and quantity, as those used for the drug product. The minimum dose of 0.016 mg/kg/IgE (IU/mL) placebo was administered every 4 weeks by subcutaneous injection."}], "denoms": [{"units": "Participants", "counts": [{"groupId": "OG000", "value": "306"}, {"groupId": "OG001", "value": "302"}]}], "classes": [{"title": "Overall Score (n=182,178)", "categories": [{"measurements": [{"groupId": "OG000", "value": "0.51", "spread": "0.155"}, {"groupId": "OG001", "value": "0.10", "spread": "0.155"}]}]}, {"title": "Symptom Score (n=208,206)", "categories": [{"measurements": [{"groupId": "OG000", "value": "0.47", "spread": "0.143"}, {"groupId": "OG001", "value": "0.18", "spread": "0.142"}]}]}, {"title": "Activity Score (n=203,198)", "categories": [{"measurements": [{"groupId": "OG000", "value": "0.46", "spread": "0.133"}, {"groupId": "OG001", "value": "0.17", "spread": "0.131"}]}]}, {"title": "Emotions Score (n=217,213)", "categories": [{"measurements": [{"groupId": "OG000", "value": "0.64", "spread": "0.184"}, {"groupId": "OG001", "value": "0.36", "spread": "0.181"}]}]}, {"title": "Environmental Score (n=201,203)", "categories": [{"measurements": [{"groupId": "OG000", "value": "0.54", "spread": "0.199"}, {"groupId": "OG001", "value": "0.17", "spread": "0.199"}]}]}]}, {"type": "SECONDARY", "title": "Percentage of Patients Achieving at Least a 0.5, 1.0 or 1.5 Point Improvement From Baseline in AQLQ Overall Score Following 24-week Treatment", "description": "The standardized version of the Asthma Quality of Life Questionnaire (AQLQs)), was used to assess the patients' asthma-related quality of life. There are 32 questions in the AQLQ and they are in 4 domains (symptoms, activity limitation, emotional function and environmental exposure). Each question was answered on a 7 point scale (1-totally limited/problems all the time, 7-not at all limited/no problems). The overall AQLQ score is the mean of all 32 responses, and the individual domain scores are the means of the items in those domains (a minimum domain / overall score of 1 = Severely impaired whereas a maximum domain / overall score of 7 = not impaired at all). A positive change from baseline score indicates improvement.", "populationDescription": "The FAS consisted of all randomized patients who received at least one dose of study drug. 7 randomized patients did not receive study drug and were excluded along with 1 other patient who did not receive study drug for more than 60 days", "reportingStatus": "POSTED", "paramType": "NUMBER", "unitOfMeasure": "Percent", "timeFrame": "24 weeks", "groups": [{"id": "OG000", "title": "Omalizumab", "description": "Omalizumab was supplied as lyophilized, sterile powder in a single-use, 5 mL vial that was designed to deliver 150 mg of omalizumab for subcutaneous administration upon reconstitution with 1.4 mL sterile water for injection. The minimum dose of 0.016 mg/kg/IgE (IU/mL) omalizumab was administered every 4 weeks by subcutaneous injection."}, {"id": "OG001", "title": "Placebo", "description": "The placebo was the same mixture of inactive excipients, in quality and quantity, as those used for the drug product. The minimum dose of 0.016 mg/kg/IgE (IU/mL) placebo was administered every 4 weeks by subcutaneous injection."}], "denoms": [{"units": "Participants", "counts": [{"groupId": "OG000", "value": "306"}, {"groupId": "OG001", "value": "302"}]}], "classes": [{"title": ">=0.5 to <1.0", "categories": [{"measurements": [{"groupId": "OG000", "value": "12.1"}, {"groupId": "OG001", "value": "10.6"}]}]}, {"title": ">=1.0 to <1.5", "categories": [{"measurements": [{"groupId": "OG000", "value": "9.2"}, {"groupId": "OG001", "value": "6.6"}]}]}, {"title": ">=1.5", "categories": [{"measurements": [{"groupId": "OG000", "value": "13.4"}, {"groupId": "OG001", "value": "6.0"}]}]}, {"title": "Missing", "categories": [{"measurements": [{"groupId": "OG000", "value": "40.5"}, {"groupId": "OG001", "value": "41.1"}]}]}]}, {"type": "SECONDARY", "title": "Change From Baseline in ACQ Score Following 24-week Treatment", "description": "The Asthma Control Questionnaire (ACQ) is a questionnaire consisting of 7 questions assessing symptoms, airway caliber and rescue \u03b22-agonist use. One value representing overall asthma control on that occasion was calculated. Decrease in scores of 0.5 or higher between ACQ assessments are considered clinically meaningful. The ACQ was completed by the patient at the Investigator's site at Visit 2 (Week 1, pre-dose), Visit 6 (after completion of 16 weeks of treatment) and at the End of Study/Early Termination visit. LS Mean of change from baseline in ACQ score is calculated with the ANCOVA model using treatment, stratification group, dosing schedule, center grouping, smoking status, and baseline ACQ score as covariates. Score 0= totally controlled, 6= extremely poorly controlled", "populationDescription": "The FAS consisted of all randomized patients who received at least one dose of study drug. 7 randomized patients did not receive study drug and were excluded along with 1 other patient who did not receive study drug for more than 60 days", "reportingStatus": "POSTED", "paramType": "LEAST_SQUARES_MEAN", "dispersionType": "Standard Error", "unitOfMeasure": "Units on a scale", "timeFrame": "24 weeks", "groups": [{"id": "OG000", "title": "Omalizumab", "description": "Omalizumab was supplied as lyophilized, sterile powder in a single-use, 5 mL vial that was designed to deliver 150 mg of omalizumab for subcutaneous administration upon reconstitution with 1.4 mL sterile water for injection. The minimum dose of 0.016 mg/kg/IgE (IU/mL) omalizumab was administered every 4 weeks by subcutaneous injection."}, {"id": "OG001", "title": "Placebo", "description": "The placebo was the same mixture of inactive excipients, in quality and quantity, as those used for the drug product. The minimum dose of 0.016 mg/kg/IgE (IU/mL) placebo was administered every 4 weeks by subcutaneous injection."}], "denoms": [{"units": "Participants", "counts": [{"groupId": "OG000", "value": "210"}, {"groupId": "OG001", "value": "211"}]}], "classes": [{"categories": [{"measurements": [{"groupId": "OG000", "value": "-0.51", "spread": "0.092"}, {"groupId": "OG001", "value": "-0.34", "spread": "0.091"}]}]}]}, {"type": "SECONDARY", "title": "Percentage of Patients With at Least a 0.5 or 0.75 Point Improvement in the ACQ Score at Week 24", "description": "The Asthma Control Questionnaire (ACQ) is a questionnaire consisting of 7 questions assessing symptoms, airway caliber and rescue \u03b22-agonist use. One value representing overall asthma control on that occasion was calculated. Decrease in scores of 0.5 or higher between ACQ assessments are considered clinically meaningful. The ACQ was completed by the patient at the Investigator's site at Visit 2 (Week 1, pre-dose), Visit 6 (after completion of 16 weeks of treatment) and at the End of Study/Early Termination visit. Only patients with no more than 1 item missing are included, and the missing item was imputed by interpolation", "populationDescription": "The FAS consisted of all randomized patients who received at least one dose of study drug. 7 randomized patients did not receive study drug and were excluded along with 1 other patient who did not receive study drug for more than 60 days", "reportingStatus": "POSTED", "paramType": "NUMBER", "unitOfMeasure": "Percent", "timeFrame": "24 weeks", "groups": [{"id": "OG000", "title": "Omalizumab", "description": "Omalizumab was supplied as lyophilized, sterile powder in a single-use, 5 mL vial that was designed to deliver 150 mg of omalizumab for subcutaneous administration upon reconstitution with 1.4 mL sterile water for injection. The minimum dose of 0.016 mg/kg/IgE (IU/mL) omalizumab was administered every 4 weeks by subcutaneous injection."}, {"id": "OG001", "title": "Placebo", "description": "The placebo was the same mixture of inactive excipients, in quality and quantity, as those used for the drug product. The minimum dose of 0.016 mg/kg/IgE (IU/mL) placebo was administered every 4 weeks by subcutaneous injection."}], "denoms": [{"units": "Participants", "counts": [{"groupId": "OG000", "value": "306"}, {"groupId": "OG001", "value": "302"}]}], "classes": [{"title": "<= -0.5 ACQ improvement", "categories": [{"measurements": [{"groupId": "OG000", "value": "34"}, {"groupId": "OG001", "value": "24.8"}]}]}, {"title": "> -0.5 ACQ improvement", "categories": [{"measurements": [{"groupId": "OG000", "value": "34.6"}, {"groupId": "OG001", "value": "45.0"}]}]}, {"title": "<= -0.75 ACQ improvement", "categories": [{"measurements": [{"groupId": "OG000", "value": "23.5"}, {"groupId": "OG001", "value": "15.2"}]}]}, {"title": "> -0.75 ACQ improvement", "categories": [{"measurements": [{"groupId": "OG000", "value": "45.1"}, {"groupId": "OG001", "value": "54.6"}]}]}, {"title": "Missing", "categories": [{"measurements": [{"groupId": "OG000", "value": "31.4"}, {"groupId": "OG001", "value": "30.1"}]}]}]}, {"type": "SECONDARY", "title": "Change From Baseline in Asthma Symptom Scores Following 24-week Treatment", "description": "Total asthma symptom score was derived for each day as the total of the morning (scale 0-1), daytime (scale 0-4) and nocturnal (scale 0-4) scores with a max score of 9. The mean score across the 28 days prior to the week 24 assessment visit was used to calculate a change from baseline. Analysis of total asthma symptom score was performed using ANCOVA model and Van-Elteren test. LS Mean of change from baseline in mean asthma symptom score is calculated with the ANCOVA model using treatment, stratification group, dosing schedule, gender, smoking status, center grouping, and baseline mean asthma symptom scores as covariates. Decrease of score on change from baseline means improvement of asthma symptom control.", "populationDescription": "The FAS consisted of all randomized patients who received at least one dose of study drug. 7 randomized patients did not receive study drug and were excluded along with 1 other patient who did not receive study drug for more than 60 days", "reportingStatus": "POSTED", "paramType": "LEAST_SQUARES_MEAN", "dispersionType": "Standard Error", "unitOfMeasure": "Units on a scale", "timeFrame": "24 weeks", "groups": [{"id": "OG000", "title": "Omalizumab", "description": "Omalizumab was supplied as lyophilized, sterile powder in a single-use, 5 mL vial that was designed to deliver 150 mg of omalizumab for subcutaneous administration upon reconstitution with 1.4 mL sterile water for injection. The minimum dose of 0.016 mg/kg/IgE (IU/mL) omalizumab was administered every 4 weeks by subcutaneous injection."}, {"id": "OG001", "title": "Placebo", "description": "The placebo was the same mixture of inactive excipients, in quality and quantity, as those used for the drug product. The minimum dose of 0.016 mg/kg/IgE (IU/mL) placebo was administered every 4 weeks by subcutaneous injection."}], "denoms": [{"units": "Participants", "counts": [{"groupId": "OG000", "value": "306"}, {"groupId": "OG001", "value": "302"}]}], "classes": [{"title": "Total symptom score (n=287,282)", "categories": [{"measurements": [{"groupId": "OG000", "value": "-1.65", "spread": "0.462"}, {"groupId": "OG001", "value": "-1.44", "spread": "0.466"}]}]}, {"title": "Night-time symptom (n=292,288)", "categories": [{"measurements": [{"groupId": "OG000", "value": "-0.67", "spread": "0.203"}, {"groupId": "OG001", "value": "-0.55", "spread": "0.205"}]}]}, {"title": "Morning symptom (n=292,288)", "categories": [{"measurements": [{"groupId": "OG000", "value": "-0.21", "spread": "0.089"}, {"groupId": "OG001", "value": "-0.20", "spread": "0.090"}]}]}, {"title": "Daytime symptom (n=292,288)", "categories": [{"measurements": [{"groupId": "OG000", "value": "-0.79", "spread": "0.246"}, {"groupId": "OG001", "value": "-0.72", "spread": "0.248"}]}]}]}, {"type": "SECONDARY", "title": "Percentage of Participants With Investigator and Patient Global Evaluation of Treatment Effectiveness (GETE) at Weeks 16 and 24", "description": "The global evaluation of treatment effectiveness (GETE) is an assessment of asthma symptom control and overall response to asthma treatment. The evaluation was performed by both investigator and patient, each using the same 5 point scale. The GETE scale ranges were as follows: excellent, good, moderate, poor and worsening. A good or excellent response on the 5 point scale indicated that a patient had responded to treatment. 1=excellent 2=good 3=moderate 4=poor 5= worsening. Responder is defined as the patient who achieved an excellent or good response. Non-responder isdefined as the patient who achieved a moderate or poor or worsening response.", "populationDescription": "The FAS consisted of all randomized patients who received at least one dose of study drug. 7 randomized patients did not receive study drug and were excluded along with 1 other patient who did not receive study drug for more than 60 days", "reportingStatus": "POSTED", "paramType": "NUMBER", "unitOfMeasure": "Percent", "timeFrame": "16 and 24 weeks", "groups": [{"id": "OG000", "title": "Omalizumab", "description": "Omalizumab was supplied as lyophilized, sterile powder in a single-use, 5 mL vial that was designed to deliver 150 mg of omalizumab for subcutaneous administration upon reconstitution with 1.4 mL sterile water for injection. The minimum dose of 0.016 mg/kg/IgE (IU/mL) omalizumab was administered every 4 weeks by subcutaneous injection."}, {"id": "OG001", "title": "Placebo", "description": "The placebo was the same mixture of inactive excipients, in quality and quantity, as those used for the drug product. The minimum dose of 0.016 mg/kg/IgE (IU/mL) placebo was administered every 4 weeks by subcutaneous injection."}], "denoms": [{"units": "Participants", "counts": [{"groupId": "OG000", "value": "306"}, {"groupId": "OG001", "value": "302"}]}], "classes": [{"title": "Week 16 Investigator responder", "categories": [{"measurements": [{"groupId": "OG000", "value": "71.9"}, {"groupId": "OG001", "value": "52.3"}]}]}, {"title": "Week 16 Investigator non-responder", "categories": [{"measurements": [{"groupId": "OG000", "value": "25.5"}, {"groupId": "OG001", "value": "44.4"}]}]}, {"title": "Week 16 Investigator missing", "categories": [{"measurements": [{"groupId": "OG000", "value": "2.6"}, {"groupId": "OG001", "value": "3.3"}]}]}, {"title": "Week 16 Patient responder", "categories": [{"measurements": [{"groupId": "OG000", "value": "70.6"}, {"groupId": "OG001", "value": "59.6"}]}]}, {"title": "Week 16 Patient non-responder", "categories": [{"measurements": [{"groupId": "OG000", "value": "26.8"}, {"groupId": "OG001", "value": "37.1"}]}]}, {"title": "Week 16 Patient Missing", "categories": [{"measurements": [{"groupId": "OG000", "value": "2.6"}, {"groupId": "OG001", "value": "3.3"}]}]}, {"title": "Week 24 Investigator responder", "categories": [{"measurements": [{"groupId": "OG000", "value": "70.3"}, {"groupId": "OG001", "value": "50.7"}]}]}, {"title": "Week 24 Investigator non-responder", "categories": [{"measurements": [{"groupId": "OG000", "value": "26.5"}, {"groupId": "OG001", "value": "45.7"}]}]}, {"title": "Week 24 Investigator missing", "categories": [{"measurements": [{"groupId": "OG000", "value": "3.3"}, {"groupId": "OG001", "value": "3.6"}]}]}, {"title": "Week 24 Patient responder", "categories": [{"measurements": [{"groupId": "OG000", "value": "71.9"}, {"groupId": "OG001", "value": "61.6"}]}]}, {"title": "Week 24 Patient non-responder", "categories": [{"measurements": [{"groupId": "OG000", "value": "24.8"}, {"groupId": "OG001", "value": "34.8"}]}]}, {"title": "Week 24 Patient Missing", "categories": [{"measurements": [{"groupId": "OG000", "value": "3.3"}, {"groupId": "OG001", "value": "3.6"}]}]}]}, {"type": "SECONDARY", "title": "Change From Baseline in Number of Puffs of Asthma Rescue Medication Following 24-week Treatment", "description": "Analysis of rescue medication use followed a similar method to that employed for total asthma symptom score. The mean number of puffs across the 28 days prior to the Week 24 assessment visit was used to calculate a change from baseline. LS Mean of change from baseline in mean number of puffs of asthma rescue medication is calculated with the ANCOVA model using treatment, stratification group, dosing schedule, gender, smoking status, center grouping, and baseline mean number of puffs of asthma rescue medication as covariates.", "populationDescription": "The FAS consisted of all randomized patients who received at least one dose of study drug. 7 randomized patients did not receive study drug and were excluded along with 1 other patient who did not receive study drug for more than 60 days", "reportingStatus": "POSTED", "paramType": "LEAST_SQUARES_MEAN", "dispersionType": "Standard Error", "unitOfMeasure": "Number of puffs", "timeFrame": "24 weeks", "groups": [{"id": "OG000", "title": "Omalizumab", "description": "Omalizumab was supplied as lyophilized, sterile powder in a single-use, 5 mL vial that was designed to deliver 150 mg of omalizumab for subcutaneous administration upon reconstitution with 1.4 mL sterile water for injection. The minimum dose of 0.016 mg/kg/IgE (IU/mL) omalizumab was administered every 4 weeks by subcutaneous injection."}, {"id": "OG001", "title": "Placebo", "description": "The placebo was the same mixture of inactive excipients, in quality and quantity, as those used for the drug product. The minimum dose of 0.016 mg/kg/IgE (IU/mL) placebo was administered every 4 weeks by subcutaneous injection."}], "denoms": [{"units": "Participants", "counts": [{"groupId": "OG000", "value": "306"}, {"groupId": "OG001", "value": "302"}]}], "classes": [{"title": "Daily number of puffs (n=296,291)", "categories": [{"measurements": [{"groupId": "OG000", "value": "-1.14", "spread": "0.566"}, {"groupId": "OG001", "value": "-0.85", "spread": "0.572"}]}]}, {"title": "Daytime number of puffs (n=292-289)", "categories": [{"measurements": [{"groupId": "OG000", "value": "-0.53", "spread": "0.301"}, {"groupId": "OG001", "value": "-0.38", "spread": "0.304"}]}]}, {"title": "Nighttime number of puffs (n=292-289)", "categories": [{"measurements": [{"groupId": "OG000", "value": "-0.56", "spread": "0.276"}, {"groupId": "OG001", "value": "-0.42", "spread": "0.279"}]}]}]}]}, "adverseEventsModule": {"frequencyThreshold": "1", "description": "The Safety Set consisted of all patients who received at least one dose of study medication whether or not being randomized. Patients were analyzed according to the treatment they actually received. If patients switched between placebo and omalizumab during the study, they were analyzed according to omalizumab.", "eventGroups": [{"id": "EG000", "title": "Omalizumab", "description": "Omalizumab was supplied as lyophilized, sterile powder in a single-use, 5 mL vial that was designed to deliver 150 mg of omalizumab for subcutaneous administration upon reconstitution with 1.4 mL sterile water for injection. The minimum dose of 0.016 mg/kg/IgE (IU/mL) omalizumab was administered every 4 weeks by subcutaneous injection.", "seriousNumAffected": 8, "seriousNumAtRisk": 310, "otherNumAffected": 95, "otherNumAtRisk": 310}, {"id": "EG001", "title": "Placebo", "description": "The placebo was the same mixture of inactive excipients, in quality and quantity, as those used for the drug product. The minimum dose of 0.016 mg/kg/IgE (IU/mL) placebo was administered every 4 weeks by subcutaneous injection.", "seriousNumAffected": 11, "seriousNumAtRisk": 299, "otherNumAffected": 90, "otherNumAtRisk": 299}], "seriousEvents": [{"term": "Haemorrhoids", "organSystem": "Gastrointestinal disorders", "sourceVocabulary": "MedDRA 16.1", "assessmentType": "SYSTEMATIC_ASSESSMENT", "stats": [{"groupId": "EG000", "numAffected": 1, "numAtRisk": 310}, {"groupId": "EG001", "numAffected": 0, "numAtRisk": 299}]}, {"term": "Pneumonia", "organSystem": "Infections and infestations", "sourceVocabulary": "MedDRA 16.1", "assessmentType": "SYSTEMATIC_ASSESSMENT", "stats": [{"groupId": "EG000", "numAffected": 0, "numAtRisk": 310}, {"groupId": "EG001", "numAffected": 2, "numAtRisk": 299}]}, {"term": "Pulmonary tuberculosis", "organSystem": "Infections and infestations", "sourceVocabulary": "MedDRA 16.1", "assessmentType": "SYSTEMATIC_ASSESSMENT", "stats": [{"groupId": "EG000", "numAffected": 1, "numAtRisk": 310}, {"groupId": "EG001", "numAffected": 0, "numAtRisk": 299}]}, {"term": "Upper respiratory tract infection", "organSystem": "Infections and infestations", "sourceVocabulary": "MedDRA 16.1", "assessmentType": "SYSTEMATIC_ASSESSMENT", "stats": [{"groupId": "EG000", "numAffected": 0, "numAtRisk": 310}, {"groupId": "EG001", "numAffected": 1, "numAtRisk": 299}]}, {"term": "Multiple fractures", "organSystem": "Injury, poisoning and procedural complications", "sourceVocabulary": "MedDRA 16.1", "assessmentType": "SYSTEMATIC_ASSESSMENT", "stats": [{"groupId": "EG000", "numAffected": 0, "numAtRisk": 310}, {"groupId": "EG001", "numAffected": 1, "numAtRisk": 299}]}, {"term": "Patella fracture", "organSystem": "Injury, poisoning and procedural complications", "sourceVocabulary": "MedDRA 16.1", "assessmentType": "SYSTEMATIC_ASSESSMENT", "stats": [{"groupId": "EG000", "numAffected": 0, "numAtRisk": 310}, {"groupId": "EG001", "numAffected": 1, "numAtRisk": 299}]}, {"term": "Breast cancer", "organSystem": "Neoplasms benign, malignant and unspecified (incl cysts and polyps)", "sourceVocabulary": "MedDRA 16.1", "assessmentType": "SYSTEMATIC_ASSESSMENT", "stats": [{"groupId": "EG000", "numAffected": 1, "numAtRisk": 310}, {"groupId": "EG001", "numAffected": 0, "numAtRisk": 299}]}, {"term": "Uterine leiomyoma", "organSystem": "Neoplasms benign, malignant and unspecified (incl cysts and polyps)", "sourceVocabulary": "MedDRA 16.1", "assessmentType": "SYSTEMATIC_ASSESSMENT", "stats": [{"groupId": "EG000", "numAffected": 1, "numAtRisk": 310}, {"groupId": "EG001", "numAffected": 0, "numAtRisk": 299}]}, {"term": "Pregnancy", "organSystem": "Pregnancy, puerperium and perinatal conditions", "sourceVocabulary": "MedDRA 16.1", "assessmentType": "SYSTEMATIC_ASSESSMENT", "stats": [{"groupId": "EG000", "numAffected": 0, "numAtRisk": 310}, {"groupId": "EG001", "numAffected": 1, "numAtRisk": 299}]}, {"term": "Ovarian cyst", "organSystem": "Reproductive system and breast disorders", "sourceVocabulary": "MedDRA 16.1", "assessmentType": "SYSTEMATIC_ASSESSMENT", "stats": [{"groupId": "EG000", "numAffected": 1, "numAtRisk": 310}, {"groupId": "EG001", "numAffected": 0, "numAtRisk": 299}]}, {"term": "Asthma", "organSystem": "Respiratory, thoracic and mediastinal disorders", "sourceVocabulary": "MedDRA 16.1", "assessmentType": "SYSTEMATIC_ASSESSMENT", "stats": [{"groupId": "EG000", "numAffected": 3, "numAtRisk": 310}, {"groupId": "EG001", "numAffected": 7, "numAtRisk": 299}]}, {"term": "Chronic obstructive pulmonary disease", "organSystem": "Respiratory, thoracic and mediastinal disorders", "sourceVocabulary": "MedDRA 16.1", "assessmentType": "SYSTEMATIC_ASSESSMENT", "stats": [{"groupId": "EG000", "numAffected": 0, "numAtRisk": 310}, {"groupId": "EG001", "numAffected": 1, "numAtRisk": 299}]}], "otherEvents": [{"term": "Pyrexia", "organSystem": "General disorders", "sourceVocabulary": "MedDRA 16.1", "assessmentType": "SYSTEMATIC_ASSESSMENT", "stats": [{"groupId": "EG000", "numAffected": 4, "numAtRisk": 310}, {"groupId": "EG001", "numAffected": 2, "numAtRisk": 299}]}, {"term": "Influenza", "organSystem": "Infections and infestations", "sourceVocabulary": "MedDRA 16.1", "assessmentType": "SYSTEMATIC_ASSESSMENT", "stats": [{"groupId": "EG000", "numAffected": 3, "numAtRisk": 310}, {"groupId": "EG001", "numAffected": 5, "numAtRisk": 299}]}, {"term": "Nasopharyngitis", "organSystem": "Infections and infestations", "sourceVocabulary": "MedDRA 16.1", "assessmentType": "SYSTEMATIC_ASSESSMENT", "stats": [{"groupId": "EG000", "numAffected": 20, "numAtRisk": 310}, {"groupId": "EG001", "numAffected": 26, "numAtRisk": 299}]}, {"term": "Upper respiratory tract infection", "organSystem": "Infections and infestations", "sourceVocabulary": "MedDRA 16.1", "assessmentType": "SYSTEMATIC_ASSESSMENT", "stats": [{"groupId": "EG000", "numAffected": 40, "numAtRisk": 310}, {"groupId": "EG001", "numAffected": 38, "numAtRisk": 299}]}, {"term": "Dizziness", "organSystem": "Nervous system disorders", "sourceVocabulary": "MedDRA 16.1", "assessmentType": "SYSTEMATIC_ASSESSMENT", "stats": [{"groupId": "EG000", "numAffected": 5, "numAtRisk": 310}, {"groupId": "EG001", "numAffected": 2, "numAtRisk": 299}]}, {"term": "Headache", "organSystem": "Nervous system disorders", "sourceVocabulary": "MedDRA 16.1", "assessmentType": "SYSTEMATIC_ASSESSMENT", "stats": [{"groupId": "EG000", "numAffected": 3, "numAtRisk": 310}, {"groupId": "EG001", "numAffected": 4, "numAtRisk": 299}]}, {"term": "Asthma", "organSystem": "Respiratory, thoracic and mediastinal disorders", "sourceVocabulary": "MedDRA 16.1", "assessmentType": "SYSTEMATIC_ASSESSMENT", "stats": [{"groupId": "EG000", "numAffected": 31, "numAtRisk": 310}, {"groupId": "EG001", "numAffected": 37, "numAtRisk": 299}]}, {"term": "Cough", "organSystem": "Respiratory, thoracic and mediastinal disorders", "sourceVocabulary": "MedDRA 16.1", "assessmentType": "SYSTEMATIC_ASSESSMENT", "stats": [{"groupId": "EG000", "numAffected": 4, "numAtRisk": 310}, {"groupId": "EG001", "numAffected": 2, "numAtRisk": 299}]}, {"term": "Oropharyngeal pain", "organSystem": "Respiratory, thoracic and mediastinal disorders", "sourceVocabulary": "MedDRA 16.1", "assessmentType": "SYSTEMATIC_ASSESSMENT", "stats": [{"groupId": "EG000", "numAffected": 5, "numAtRisk": 310}, {"groupId": "EG001", "numAffected": 0, "numAtRisk": 299}]}, {"term": "Rhinitis allergic", "organSystem": "Respiratory, thoracic and mediastinal disorders", "sourceVocabulary": "MedDRA 16.1", "assessmentType": "SYSTEMATIC_ASSESSMENT", "stats": [{"groupId": "EG000", "numAffected": 4, "numAtRisk": 310}, {"groupId": "EG001", "numAffected": 5, "numAtRisk": 299}]}]}, "moreInfoModule": {"certainAgreement": {"piSponsorEmployee": false, "restrictionType": "OTHER", "restrictiveAgreement": true, "otherDetails": "The terms and conditions of Novartis' agreements with its investigators may vary. However, Novartis does not prohibit any investigator from publishing. Any publications from a single-site are postponed until the publication of the pooled data (ie, data from all sites) in the clinical trial."}, "pointOfContact": {"title": "Study Director", "organization": "Novartis Pharmaceuticals", "phone": "862-778-8300"}}}, "derivedSection": {"miscInfoModule": {"versionHolder": "2024-06-24"}, "conditionBrowseModule": {"meshes": [{"id": "D000001249", "term": "Asthma"}], "ancestors": [{"id": "D000001982", "term": "Bronchial Diseases"}, {"id": "D000012140", "term": "Respiratory Tract Diseases"}, {"id": "D000008173", "term": "Lung Diseases, Obstructive"}, {"id": "D000008171", "term": "Lung Diseases"}, {"id": "D000012130", "term": "Respiratory Hypersensitivity"}, {"id": "D000006969", "term": "Hypersensitivity, Immediate"}, {"id": "D000006967", "term": "Hypersensitivity"}, {"id": "D000007154", "term": "Immune System Diseases"}], "browseLeaves": [{"id": "M4556", "name": "Asthma", "asFound": "Asthma", "relevance": "HIGH"}, {"id": "M5258", "name": "Bronchial Diseases", "relevance": "LOW"}, {"id": "M14977", "name": "Respiratory Tract Diseases", "relevance": "LOW"}, {"id": "M11168", "name": "Lung Diseases", "relevance": "LOW"}, {"id": "M11170", "name": "Lung Diseases, Obstructive", "relevance": "LOW"}, {"id": "M10018", "name": "Hypersensitivity", "relevance": "LOW"}, {"id": "M14967", "name": "Respiratory Hypersensitivity", "relevance": "LOW"}, {"id": "M10020", "name": "Hypersensitivity, Immediate", "relevance": "LOW"}, {"id": "M10200", "name": "Immune System Diseases", "relevance": "LOW"}], "browseBranches": [{"abbrev": "BC08", "name": "Respiratory Tract (Lung and Bronchial) Diseases"}, {"abbrev": "BC20", "name": "Immune System Diseases"}, {"abbrev": "All", "name": "All Conditions"}]}, "interventionBrowseModule": {"meshes": [{"id": "D000069444", "term": "Omalizumab"}], "ancestors": [{"id": "D000018926", "term": "Anti-Allergic Agents"}, {"id": "D000018927", "term": "Anti-Asthmatic Agents"}, {"id": "D000019141", "term": "Respiratory System Agents"}], "browseLeaves": [{"id": "M10184", "name": "Immunoglobulins", "relevance": "LOW"}, {"id": "M19117", "name": "Immunoglobulins, Intravenous", "relevance": "LOW"}, {"id": "M4225", "name": "Antibodies", "relevance": "LOW"}, {"id": "M413", "name": "Omalizumab", "asFound": "Enriched", "relevance": "HIGH"}, {"id": "M10121", "name": "Immunoglobulin E", "relevance": "LOW"}, {"id": "M20962", "name": "Anti-Allergic Agents", "relevance": "LOW"}, {"id": "M20963", "name": "Anti-Asthmatic Agents", "relevance": "LOW"}, {"id": "M21137", "name": "Respiratory System Agents", "relevance": "LOW"}], "browseBranches": [{"abbrev": "All", "name": "All Drugs and Chemicals"}, {"abbrev": "AAll", "name": "Anti-Allergic Agents"}, {"abbrev": "Resp", "name": "Respiratory System Agents"}]}}, "hasResults": true}