{"protocolSection": {"identificationModule": {"nctId": "NCT01500759", "orgStudyIdInfo": {"id": "001"}, "organization": {"fullName": "ResMed", "class": "INDUSTRY"}, "briefTitle": "Sleep-Disordered Breathing in Heart Failure - The SchlaHF-Registry", "officialTitle": "Prevalence, Clinical Characteristics and Type of Sleep-disordered Breathing in Patients With Chronic, Symptomatic, Systolic Heart Failure", "acronym": "SchlaHF"}, "statusModule": {"statusVerifiedDate": "2020-05", "overallStatus": "COMPLETED", "expandedAccessInfo": {"hasExpandedAccess": false}, "startDateStruct": {"date": "2007-11"}, "primaryCompletionDateStruct": {"date": "2013-05", "type": "ACTUAL"}, "completionDateStruct": {"date": "2013-05", "type": "ACTUAL"}, "studyFirstSubmitDate": "2011-12-23", "studyFirstSubmitQcDate": "2011-12-23", "studyFirstPostDateStruct": {"date": "2011-12-28", "type": "ESTIMATED"}, "resultsFirstSubmitDate": "2020-05-01", "resultsFirstSubmitQcDate": "2020-06-25", "resultsFirstPostDateStruct": {"date": "2020-07-09", "type": "ACTUAL"}, "lastUpdateSubmitDate": "2020-06-25", "lastUpdatePostDateStruct": {"date": "2020-07-09", "type": "ACTUAL"}}, "sponsorCollaboratorsModule": {"responsibleParty": {"type": "SPONSOR"}, "leadSponsor": {"name": "ResMed", "class": "INDUSTRY"}}, "oversightModule": {"oversightHasDmc": false}, "descriptionModule": {"briefSummary": "Objective target of the registry is to investigate the prevalence of SDB as well as the clinical characteristics of patients with and without SDB as well as the predominant type of sdb.\n\nFor this purpose data from patients suffering from chronic, symptomatic heart failure with impaired left ventricular ejection fraction will be collected prospectively.", "detailedDescription": "Despite recent advances in pharmacological treatment, congestive heart failure (CHF) continues to cause debilitating symptoms, frequent hospital admissions and a high mortality. Despite of therapy with beta-blockers and ACE-inhibitors many patients have persistent symptoms and most will eventually die of cardiovascular causes, often from progressive heart failure.\n\nSleep Disordered Breathing (SDB) is known to cause consequences, which have negative effects on heart failure.\n\nObjective target of the registry is to investigate the prevalence of SDB, clinical characteristics, symptoms and the degree and type of SDB in patients with chronic HF.\n\nFor this purpose data from patients with chronic heart failure will be collected prospectively.In the registry several cardiologists in private practice or hospital and cooperating sleep laboratories shall participate.\n\nCardiologists screen patients with Chronic Heart Failure (chronic HF) prospectively. In case of suffering from chronic HF for at least 12 weeks since diagnosis, with NYHA III-IV or NYHA class II with at least one hospitalisation for HF in the last 12 months. Written informed consent for data privacy aspects must be obtained before screening for SDB. Patients who satisfy to all inclusion- and exclusion criteria will be included consecutively into the registry."}, "conditionsModule": {"conditions": ["Congestive Heart Failure", "Left Ventricular Systolic Dysfunction"], "keywords": ["chronic heart failure", "heart failure", "hf", "sleep-disordered breathing", "sdb", "nyha", "lvef", "cheyne stokes", "central sleep apnoea", "sleep apnoea"]}, "designModule": {"studyType": "OBSERVATIONAL", "patientRegistry": true, "targetDuration": "4 Weeks", "designInfo": {"observationalModel": "COHORT", "timePerspective": "PROSPECTIVE"}, "enrollmentInfo": {"count": 6876, "type": "ACTUAL"}}, "outcomesModule": {"primaryOutcomes": [{"measure": "Prevalence of SDB in Chronic HF Patients", "description": "SDB= Sleep disordered breathing; HF= Heart failure", "timeFrame": "1 night: Patients fulfilling the inclusion and exclusion criteria were examined for sleep-disordered breathing during 1 night in a sleep facility"}], "secondaryOutcomes": [{"measure": "Left Ventricular Ejection Fraction", "description": "Amount of blood in the left ventricle at the end of Diastole that is being pumped into the System during systole", "timeFrame": "1 night: Patients fulfilling the inclusion and exclusion criteria were examined for LVEF in a medical institution"}, {"measure": "Age", "description": "Age years", "timeFrame": "1-time single assessment at baseline"}, {"measure": "Body Mass Index", "timeFrame": "1-time single assessment at baseline"}, {"measure": "Male Gender", "timeFrame": "1-time single assessment at baseline"}, {"measure": "NYHA Class \u2265III", "description": "New York Heart Association Class III: Marked Limitation of physical activity. Comfortable at rest, but less than ordinary physical activity results in undue breathlessness, fatigue or palpitations.", "timeFrame": "At baseline, the NYHA was determined in a medical institution or taken restrospectively from medical records"}, {"measure": "Ischemic Etiology", "description": "Ischemic etiology describes a condition where a weakening or disease of the heart muscle is caused by reduced supply of blood (underlying cause might be the coronary artery). Secondary outcome ischemic etiology describes the cause of heart failure (HF) \"ischemic\" in HF patients without and with sleep-disordered breathing in percent of the respective study arm/group: e.g. x% of patients without SDB have HF with an ischemic etiology.", "timeFrame": "1-time: At baseline the ischemic etiology was determined in the medical institution or taken retrospectively from the medical records."}, {"measure": "Atrial Fibrillation", "timeFrame": "1-time: At baseline atrial fibrillation (AF) was determined in the medical institution or AF history was taken retrospectively from the medical records"}, {"measure": "Nocturnal Dyspnea", "timeFrame": "1-time: At baseline history of nocturnal dyspnea taken retrospectively from the medical records"}, {"measure": "Nocturia \u22653 Times/Night", "timeFrame": "1-time: At baseline nocturia was assessed 1 time (anamnesis)"}, {"measure": "Apnoea-Hypopnea-Index", "description": "Number of Apnoeas (cessation of airflow for at least 10 seconds) and hypopneas (reduced airflow for at least 10 seconds) per hours of sleep", "timeFrame": "1 night: Apnoea-Hypopnea Index (AHI) was assessed during one night under polysomnography (PSG) in a sleep facility"}, {"measure": "Oxygen Desaturation Index", "description": "Number of times that arterial blood oxygen saturation Drops by \u22653% from the Basic value.", "timeFrame": "1 time: Oxygen desaturation Index (ODI) was assessed during one night under polysomnography (PSG) in a sleep facility"}, {"measure": "Mean SpO2", "description": "Saturation of oxygen", "timeFrame": "1 night: oxygen saturation was assessed during one night under polysomnography (PSG) in a sleep facility"}, {"measure": "Min SpO2", "description": "Lowest Saturation with oxygen", "timeFrame": "1 night: Minimum saturation with oxygen was assessed during one night under polysomnography (PSG) in a sleep facility"}, {"measure": "Medication ACE Inhibitors and/ARBs", "description": "ACE: Angiotensin converting Enzyme; ARB Angiotension receptor blocker", "timeFrame": "1-time: At baseline medication was assessed 1 time (anamnesis)"}, {"measure": "Beta-blocker", "timeFrame": "1-time: At baseline medication was assessed 1 time (anamnesis)"}, {"measure": "Diuretics", "timeFrame": "1-time: At baseline medication was assessed 1 time (anamnesis)"}, {"measure": "Digitalis", "timeFrame": "1-time: At baseline medication was assessed 1 time (anamnesis)"}, {"measure": "Aldosterone Antagonists", "timeFrame": "1-time: At baseline medication was assessed 1 time (anamnesis)"}, {"measure": "Male Gender as Predictor for SDB in Chronic HF", "description": "From the total number of participants, the number of male patients without and with SDB were counted and an odds Ratio for male sex as predictor for SDB in chronic heart failure", "timeFrame": "1-time: At baseline physical status was assessed 1 time (anamnesis and medical records)"}, {"measure": "Atrial Fibrillation (AF) as a Predictor for SDB in Chronic HF", "description": "From the total number of participants, the number of male patients without and with SDB were counted and an odds ratio calculated for AF as predictor for SDB in chronic heart failure", "timeFrame": "1-time: At baseline physical status was assessed 1 time (anamnesis and medical records)"}, {"measure": "Ischemic Etiology as Predictor for SDB in Chronic HF", "description": "From the total number of participants, the number of male patients without and with SDB were counted and an odds ratio calculated for ischemic etiology as predictor for SDB in chronic heart failure", "timeFrame": "1-time: At baseline physical status was assessed 1 time (anamnesis and medical records)"}, {"measure": "NYHA Class >= III as Predictor for SDB in Chronic HF", "description": "From the total number of participants, the number of male patients without and with SDB were counted and an odds ratio calculated for NYHA (New York Heart Association - class I not impaired, class II slighly impaired, class III severly impaired, class IV = unable to perform normal tasks) class\u2265III as predictor for SDB in chronic heart failure", "timeFrame": "1-time: At baseline physical status was assessed 1 time (anamnesis and medical records)"}]}, "eligibilityModule": {"eligibilityCriteria": "Inclusion Criteria:\n\n* Patients must be over 18\n* Chronic heart failure (at least 12 weeks since diagnosis) according to the current applicable guidelines\n* Left ventricular systolic dysfunction (LVEF \u2264 45% by imaging method such as echocardiography, radionuclide angiography, left ventriculography, or cardiac magnetic resonance imaging) documented less than 12 weeks\n* NYHA class III or IV at the time of inclusion or NYHA class II with at least one hospitalisation for HF in the last 24 months\n* Patient is able to fully understand study information and signed informed consent\n\nExclusion Criteria:\n\n* Life expectancy \\< 1 year for diseases unrelated to chronic HF\n* Cardiac surgery, Percutaneous coronary intervention (PCI), Myocardial Infarction (MI) or unstable angina within 6 months\n* CRT-implantation (either CRT-D or CRT-P) scheduled or within 6 months\n* Transient ischemic attack (TIA) or Stroke within 3 months\n* Hemodynamically significant uncorrected primary valvular heart disease, obstructive or regurgitant, or any valvular disease expected to lead to surgery\n* Acute myocarditis/pericarditis within 6 months\n* Current CPAP or bilevel therapy", "healthyVolunteers": false, "sex": "ALL", "minimumAge": "18 Years", "stdAges": ["ADULT", "OLDER_ADULT"], "studyPopulation": "Adult patients with Chronic Heart Failure with LVEF \u2264 45% and NYHA III-IV or NYHA class II with at least one hospitalisation for HF in the last 24 months.", "samplingMethod": "PROBABILITY_SAMPLE"}, "contactsLocationsModule": {"overallOfficials": [{"name": "Erland Erdmann, Prof", "affiliation": "Klinikum der Universit\u00e4t zu K\u00f6ln", "role": "PRINCIPAL_INVESTIGATOR"}, {"name": "Helmut Teschler, Prof", "affiliation": "Ruhrlandklinik Essen", "role": "PRINCIPAL_INVESTIGATOR"}, {"name": "Holger Woehrle, MD", "affiliation": "ResMed", "role": "STUDY_DIRECTOR"}], "locations": [{"facility": "Westmead Hospital", "city": "Westmead", "state": "New South Wales", "zip": "2145", "country": "Australia", "geoPoint": {"lat": -33.80383, "lon": 150.98768}}, {"facility": "Rivercity Private Hospital", "city": "Auchenflower", "state": "Queensland", "zip": "4066", "country": "Australia", "geoPoint": {"lat": -27.47443, "lon": 152.99213}}, {"facility": "Royal Adelaide Hospital", "city": "Adelaide", "state": "South Australia", "zip": "5000", "country": "Australia", "geoPoint": {"lat": -34.92866, "lon": 138.59863}}, {"facility": "Melbourne Sleep Disorders Centre", "city": "East Melbourne", "state": "Victoria", "zip": "3002", "country": "Australia", "geoPoint": {"lat": -37.81667, "lon": 144.9879}}, {"facility": "Baker IDI Heart and Diabetes Institute", "city": "Melbourne", "state": "Victoria", "zip": "3004", "country": "Australia", "geoPoint": {"lat": -37.814, "lon": 144.96332}}, {"facility": "St Vincents and Mercy Private Hospital", "city": "Melbourne", "state": "Victoria", "zip": "3065", "country": "Australia", "geoPoint": {"lat": -37.814, "lon": 144.96332}}, {"facility": "Hollywood Private Hospital (CVS)", "city": "Nedlands", "state": "Western Australia", "zip": "6009", "country": "Australia", "geoPoint": {"lat": -31.98184, "lon": 115.8073}}, {"facility": "Cardiopraxis Ingelheim", "city": "Ingelheim am Rhein", "state": "Rheinland-Pfalz", "zip": "55218", "country": "Germany", "geoPoint": {"lat": 49.97078, "lon": 8.05883}}, {"facility": "Praxis Dr. Frieske", "city": "Aachen", "zip": "52062", "country": "Germany", "geoPoint": {"lat": 50.77664, "lon": 6.08342}}, {"facility": "Universit\u00e4tsklinikum Aachen", "city": "Aachen", "zip": "52074", "country": "Germany", "geoPoint": {"lat": 50.77664, "lon": 6.08342}}, {"facility": "DRK Krankenhaus", "city": "Alzey", "zip": "55232", "country": "Germany", "geoPoint": {"lat": 49.74657, "lon": 8.11513}}, {"facility": "Gemeinschaftspraxis Wei\u00df/ Dr. Heesing", "city": "Arnsberg", "zip": "59821", "country": "Germany", "geoPoint": {"lat": 51.38333, "lon": 8.08333}}, {"facility": "Zentralklinikum Bad Berka", "city": "Bad Berka", "zip": "99437", "country": "Germany", "geoPoint": {"lat": 50.89982, "lon": 11.28245}}, {"facility": "Herzzentrum Bad Krozingen", "city": "Bad Krozingen", "zip": "79189", "country": "Germany", "geoPoint": {"lat": 47.91933, "lon": 7.69045}}, {"facility": "Klinik Lazariterhof", "city": "Bad Krozingen", "zip": "79189", "country": "Germany", "geoPoint": {"lat": 47.91933, "lon": 7.69045}}, {"facility": "Praxis Dr. Bauer", "city": "Bad Mergentheim", "zip": "97980", "country": "Germany", "geoPoint": {"lat": 49.4925, "lon": 9.77361}}, {"facility": "HDZ NRW", "city": "Bad Oeynhausen", "zip": "32545", "country": "Germany", "geoPoint": {"lat": 52.20699, "lon": 8.80365}}, {"facility": "Kardiologische Praxis Dr. Stroh", "city": "Bad Wurzach", "zip": "88410", "country": "Germany", "geoPoint": {"lat": 47.90799, "lon": 9.89686}}, {"facility": "Oberlausitz-Kliniken gGmbH", "city": "Bautzen", "zip": "02625", "country": "Germany", "geoPoint": {"lat": 51.18035, "lon": 14.43494}}, {"facility": "Kardiopraxis Rheinberg", "city": "Bergisch Gladbach", "zip": "51465", "country": "Germany", "geoPoint": {"lat": 50.9856, "lon": 7.13298}}, {"facility": "Charit\u00e9 Campus Mitte CCM", "city": "Berlin", "zip": "10117", "country": "Germany", "geoPoint": {"lat": 52.52437, "lon": 13.41053}}, {"facility": "Charit\u00e9 Campus Mitte", "city": "Berlin", "zip": "10117", "country": "Germany", "geoPoint": {"lat": 52.52437, "lon": 13.41053}}, {"facility": "Praxis Gemeinschaft Frille", "city": "Berlin", "zip": "10178", "country": "Germany", "geoPoint": {"lat": 52.52437, "lon": 13.41053}}, {"facility": "POLIKUM Friedenau", "city": "Berlin", "zip": "12157", "country": "Germany", "geoPoint": {"lat": 52.52437, "lon": 13.41053}}, {"facility": "Gemeinschaftspraxis Gro\u00df-Ziethener Chaussee", "city": "Berlin", "zip": "12355", "country": "Germany", "geoPoint": {"lat": 52.52437, "lon": 13.41053}}, {"facility": "Unfallkrankenhaus Berlin", "city": "Berlin", "zip": "12683", "country": "Germany", "geoPoint": {"lat": 52.52437, "lon": 13.41053}}, {"facility": "J\u00fcdisches Krankenhaus Berlin", "city": "Berlin", "zip": "13347", "country": "Germany", "geoPoint": {"lat": 52.52437, "lon": 13.41053}}, {"facility": "Charit\u00e9 Campus Virchow Klinikum", "city": "Berlin", "zip": "13353", "country": "Germany", "geoPoint": {"lat": 52.52437, "lon": 13.41053}}, {"facility": "Charit\u00e9 Campus Virchow-Klinikum", "city": "Berlin", "zip": "13353", "country": "Germany", "geoPoint": {"lat": 52.52437, "lon": 13.41053}}, {"facility": "Praxis Westend", "city": "Berlin", "zip": "14050", "country": "Germany", "geoPoint": {"lat": 52.52437, "lon": 13.41053}}, {"facility": "Herzzentrum Brandenburg", "city": "Bernau", "zip": "16321", "country": "Germany", "geoPoint": {"lat": 52.67982, "lon": 13.58708}}, {"facility": "Praxis f\u00fcr Lunge,Herz und Schlaf", "city": "Bielefeld", "zip": "33617", "country": "Germany", "geoPoint": {"lat": 52.03333, "lon": 8.53333}}, {"facility": "Kardiologie Gemeinschaftspraxis Dr. Tenholt", "city": "Bochum", "zip": "44787", "country": "Germany", "geoPoint": {"lat": 51.48165, "lon": 7.21648}}, {"facility": "Universit\u00e4tsklinikum Bergmannsheil", "city": "Bochum", "zip": "44789", "country": "Germany", "geoPoint": {"lat": 51.48165, "lon": 7.21648}}, {"facility": "Augusta Krankenanstalten Bochum", "city": "Bochum", "zip": "44791", "country": "Germany", "geoPoint": {"lat": 51.48165, "lon": 7.21648}}, {"facility": "St.-Josephs-Hospital", "city": "Bochum", "zip": "44791", "country": "Germany", "geoPoint": {"lat": 51.48165, "lon": 7.21648}}, {"facility": "Kardiologie Kemnade", "city": "Bochum", "zip": "44797", "country": "Germany", "geoPoint": {"lat": 51.48165, "lon": 7.21648}}, {"facility": "Kardiologische Praxis Dr. Staubach", "city": "Bochum", "zip": "44866", "country": "Germany", "geoPoint": {"lat": 51.48165, "lon": 7.21648}}, {"facility": "Praxis f\u00fcr Kardiologie Bonn", "city": "Bonn", "zip": "53127", "country": "Germany", "geoPoint": {"lat": 50.73438, "lon": 7.09549}}, {"facility": "Universit\u00e4tsklinikum Bonn", "city": "Bonn", "zip": "53127", "country": "Germany", "geoPoint": {"lat": 50.73438, "lon": 7.09549}}, {"facility": "Kardiologische Praxis Marschner", "city": "Bonn", "zip": "53225", "country": "Germany", "geoPoint": {"lat": 50.73438, "lon": 7.09549}}, {"facility": "Gemeinschaftspraxis Kardiologie", "city": "Bottrop", "zip": "46236", "country": "Germany", "geoPoint": {"lat": 51.52392, "lon": 6.9285}}, {"facility": "Gemeinschaftspraxis Dres. Tinnefeld", "city": "Bottrop", "zip": "46240", "country": "Germany", "geoPoint": {"lat": 51.52392, "lon": 6.9285}}, {"facility": "Kardiologie B\u00fchl", "city": "Br\u00fchl", "zip": "50321", "country": "Germany", "geoPoint": {"lat": 50.82928, "lon": 6.90499}}, {"facility": "Mediclin Rehazentrum Spreewald", "city": "Burg/Spreewald", "zip": "03096", "country": "Germany", "geoPoint": {"lat": 51.83448, "lon": 14.14856}}, {"facility": "Gemeinschaftspraxis Kardiologie Dr. Becker", "city": "Castrop-Rauxel", "zip": "44575", "country": "Germany", "geoPoint": {"lat": 51.55657, "lon": 7.31155}}, {"facility": "Kardiologische Praxis Dr. Isbruch", "city": "Castrop-Rauxel", "zip": "44577", "country": "Germany", "geoPoint": {"lat": 51.55657, "lon": 7.31155}}, {"facility": "MVZ am K\u00fcchwald", "city": "Chemnitz", "zip": "09113", "country": "Germany", "geoPoint": {"lat": 50.8357, "lon": 12.92922}}, {"facility": "Klinikum Coburg GmbH", "city": "Coburg", "zip": "96450", "country": "Germany", "geoPoint": {"lat": 50.25937, "lon": 10.96384}}, {"facility": "Fachkrankenhaus Coswig", "city": "Coswig", "zip": "01640", "country": "Germany", "geoPoint": {"lat": 51.13204, "lon": 13.58312}}, {"facility": "Carl-Thiem-Klinikum gGmbH", "city": "Cottbus", "zip": "03042", "country": "Germany", "geoPoint": {"lat": 51.75769, "lon": 14.32888}}, {"facility": "Praxis Dr. Hecker", "city": "Dortmund", "zip": "44135", "country": "Germany", "geoPoint": {"lat": 51.51494, "lon": 7.466}}, {"facility": "Kardiologie - Gemeinschaftspraxis Dortmund", "city": "Dortmund", "zip": "44137", "country": "Germany", "geoPoint": {"lat": 51.51494, "lon": 7.466}}, {"facility": "Kardiologie-Gemeinschaftspraxis Dortmund", "city": "Dortmund", "zip": "44137", "country": "Germany", "geoPoint": {"lat": 51.51494, "lon": 7.466}}, {"facility": "Kardiologische Praxis Dr. Golling", "city": "Dortmund", "zip": "44137", "country": "Germany", "geoPoint": {"lat": 51.51494, "lon": 7.466}}, {"facility": "Klinikum Dortmund gGmbH", "city": "Dortmund", "zip": "44137", "country": "Germany", "geoPoint": {"lat": 51.51494, "lon": 7.466}}, {"facility": "Clinical Trial Site Services", "city": "Dortmund", "zip": "44141", "country": "Germany", "geoPoint": {"lat": 51.51494, "lon": 7.466}}, {"facility": "Kardiologische Praxis Dr. Wetzel", "city": "Dortmund", "zip": "44141", "country": "Germany", "geoPoint": {"lat": 51.51494, "lon": 7.466}}, {"facility": "Kardiologische Praxis Dr. Lodde", "city": "Dortmund", "zip": "44147", "country": "Germany", "geoPoint": {"lat": 51.51494, "lon": 7.466}}, {"facility": "Kardiologische Praxis Dr. Dr\u00f6se", "city": "Dortmund", "zip": "44263", "country": "Germany", "geoPoint": {"lat": 51.51494, "lon": 7.466}}, {"facility": "Facharztzentrum Dresden-Neustadt GbR", "city": "Dresden", "zip": "01099", "country": "Germany", "geoPoint": {"lat": 51.05089, "lon": 13.73832}}, {"facility": "Gemeinschaftpraxis Dres. Schmidt/Gronke", "city": "Dresden", "zip": "01219", "country": "Germany", "geoPoint": {"lat": 51.05089, "lon": 13.73832}}, {"facility": "Praxis Dr. Hohensee", "city": "Dresden", "zip": "01277", "country": "Germany", "geoPoint": {"lat": 51.05089, "lon": 13.73832}}, {"facility": "Herzzentrum Universit\u00e4t Dresden", "city": "Dresden", "zip": "01307", "country": "Germany", "geoPoint": {"lat": 51.05089, "lon": 13.73832}}, {"facility": "Khs Florence-Nightingale", "city": "Duesseldorf", "zip": "40489", "country": "Germany", "geoPoint": {"lat": 51.22172, "lon": 6.77616}}, {"facility": "goMedus Gesundheitszentrum", "city": "D\u00fcsseldorf", "zip": "40212", "country": "Germany", "geoPoint": {"lat": 51.22172, "lon": 6.77616}}, {"facility": "Kardiologische Praxis Dr. Horowitz", "city": "D\u00fcsseldorf", "zip": "40215", "country": "Germany", "geoPoint": {"lat": 51.22172, "lon": 6.77616}}, {"facility": "Kardiologische Praxis Dr. Raff", "city": "D\u00fcsseldorf", "zip": "40237", "country": "Germany", "geoPoint": {"lat": 51.22172, "lon": 6.77616}}, {"facility": "Florence-Nightingale Krankenhaus", "city": "D\u00fcsseldorf", "zip": "40489", "country": "Germany", "geoPoint": {"lat": 51.22172, "lon": 6.77616}}, {"facility": "Kardiologie Oberkassel", "city": "D\u00fcsseldorf", "zip": "40545", "country": "Germany", "geoPoint": {"lat": 51.22172, "lon": 6.77616}}, {"facility": "Gemeinschaftspraxis PD Dr. Lankisch", "city": "D\u00fcsseldorf", "zip": "40597", "country": "Germany", "geoPoint": {"lat": 51.22172, "lon": 6.77616}}, {"facility": "Fach\u00e4rzte f\u00fcr Innere Medizin Dres Ritter, Richter, Mehrer, Kahl", "city": "Emmendingen", "zip": "79312", "country": "Germany", "geoPoint": {"lat": 48.12096, "lon": 7.85359}}, {"facility": "Helios Klinikum Erfurt-Kardiologie", "city": "Erfurt", "zip": "99089", "country": "Germany", "geoPoint": {"lat": 50.9787, "lon": 11.03283}}, {"facility": "Helios Klinikum Erfurt-Schlafmedizin", "city": "Erfurt", "zip": "99089", "country": "Germany", "geoPoint": {"lat": 50.9787, "lon": 11.03283}}, {"facility": "Universit\u00e4tsklinikum Erlangen", "city": "Erlangen", "zip": "91054", "country": "Germany", "geoPoint": {"lat": 49.59099, "lon": 11.00783}}, {"facility": "Westdeutsches Herzzentrum, Universit\u00e4tsklinikum Essen", "city": "Essen", "zip": "45122", "country": "Germany", "geoPoint": {"lat": 51.45657, "lon": 7.01228}}, {"facility": "Kardiologische Praxis Dr. Cord M\u00fcller", "city": "Essen", "zip": "45131", "country": "Germany", "geoPoint": {"lat": 51.45657, "lon": 7.01228}}, {"facility": "Schwerpunktpraxis Kardiologie Drs. Ophoff/Fritzsch", "city": "Essen", "zip": "45131", "country": "Germany", "geoPoint": {"lat": 51.45657, "lon": 7.01228}}, {"facility": "Kardiologische Praxis Prof. Winter", "city": "Essen", "zip": "45134", "country": "Germany", "geoPoint": {"lat": 51.45657, "lon": 7.01228}}, {"facility": "Kardiologie Praxis Dr. Bonnekamp", "city": "Essen", "zip": "45136", "country": "Germany", "geoPoint": {"lat": 51.45657, "lon": 7.01228}}, {"facility": "Praxis Dr. Tekiyeh", "city": "Essen", "zip": "45136", "country": "Germany", "geoPoint": {"lat": 51.45657, "lon": 7.01228}}, {"facility": "Elisabeth-Krankenhaus Essen", "city": "Essen", "zip": "45138", "country": "Germany", "geoPoint": {"lat": 51.45657, "lon": 7.01228}}, {"facility": "Ruhrlandklinik Essen", "city": "Essen", "zip": "45239", "country": "Germany", "geoPoint": {"lat": 51.45657, "lon": 7.01228}}, {"facility": "Praxis Dr. Rau", "city": "Essen", "zip": "45276", "country": "Germany", "geoPoint": {"lat": 51.45657, "lon": 7.01228}}, {"facility": "Kath. Kliniken Essen / Philippusstift", "city": "Essen", "zip": "45359", "country": "Germany", "geoPoint": {"lat": 51.45657, "lon": 7.01228}}, {"facility": "Gemeinschaftspraxis Dres. Guckenbiehl", "city": "Flonheim", "zip": "55237", "country": "Germany", "geoPoint": {"lat": 49.785, "lon": 8.04}}, {"facility": "Kardiologische Praxis Dr. Kruse", "city": "Forst", "zip": "03149", "country": "Germany", "geoPoint": {"lat": 51.73544, "lon": 14.63971}}, {"facility": "CardioVascul\u00e4res Centrum Frankfurt", "city": "Frankfurt", "zip": "60389", "country": "Germany", "geoPoint": {"lat": 50.11552, "lon": 8.68417}}, {"facility": "Praxis Dr. Diedrichs", "city": "Frechen", "zip": "50226", "country": "Germany", "geoPoint": {"lat": 50.91485, "lon": 6.8118}}, {"facility": "Universitaetsklinikum Freiburg", "city": "Freiburg im Breisgau", "zip": "79106", "country": "Germany", "geoPoint": {"lat": 47.9959, "lon": 7.85222}}, {"facility": "Universit\u00e4tsklinikum Freiburg", "city": "Freiburg im Breisgau", "zip": "79106", "country": "Germany", "geoPoint": {"lat": 47.9959, "lon": 7.85222}}, {"facility": "Gemeinschaftspraxis Dres. B\u00f6hmeke/Schmidt", "city": "Gladbeck", "zip": "45964", "country": "Germany", "geoPoint": {"lat": 51.57077, "lon": 6.98593}}, {"facility": "Kardiologische Praxis Dr. Hug", "city": "G\u00fcnzburg", "zip": "89312", "country": "Germany", "geoPoint": {"lat": 48.45599, "lon": 10.27695}}, {"facility": "Kardiologische Praxis G\u00fctersloh", "city": "G\u00fctersloh", "zip": "33330", "country": "Germany", "geoPoint": {"lat": 51.90693, "lon": 8.37853}}, {"facility": "Gemeinschaftspraxis Dres Leischik/Littwitz", "city": "Hagen", "zip": "58095", "country": "Germany", "geoPoint": {"lat": 51.36081, "lon": 7.47168}}, {"facility": "Kardiologische Praxis Dr. Arens", "city": "Hagen", "zip": "58095", "country": "Germany", "geoPoint": {"lat": 51.36081, "lon": 7.47168}}, {"facility": "Gemeinschaftspraxis Dres. Subin/Lutter", "city": "Hamburg", "zip": "20095", "country": "Germany", "geoPoint": {"lat": 53.57532, "lon": 10.01534}}, {"facility": "Universit\u00e4tsklinikum Hamburg-Eppendorf", "city": "Hamburg", "zip": "20246", "country": "Germany", "geoPoint": {"lat": 53.57532, "lon": 10.01534}}, {"facility": "Asklepios Klinik Barmbek", "city": "Hamburg", "zip": "22291", "country": "Germany", "geoPoint": {"lat": 53.57532, "lon": 10.01534}}, {"facility": "Internistenpraxis Alstertal Hamburg", "city": "Hamburg", "zip": "22399", "country": "Germany", "geoPoint": {"lat": 53.57532, "lon": 10.01534}}, {"facility": "Kardiologische Praxis Dr. Schr\u00f6der", "city": "Hamburg", "zip": "22765", "country": "Germany", "geoPoint": {"lat": 53.57532, "lon": 10.01534}}, {"facility": "Kardiologische Praxis Dr. Cierpka", "city": "Hannover", "zip": "30159", "country": "Germany", "geoPoint": {"lat": 52.37052, "lon": 9.73322}}, {"facility": "Praxis Dr. H\u00f6tte", "city": "Hannover", "zip": "30449", "country": "Germany", "geoPoint": {"lat": 52.37052, "lon": 9.73322}}, {"facility": "Siloah Krankenhaus", "city": "Hannover", "zip": "30449", "country": "Germany", "geoPoint": {"lat": 52.37052, "lon": 9.73322}}, {"facility": "Kardiologische Praxis Dr. Hartung", "city": "Hannover", "zip": "30559", "country": "Germany", "geoPoint": {"lat": 52.37052, "lon": 9.73322}}, {"facility": "Heidelberger Praxisklinik f\u00fcr Kardiologie", "city": "Heidelberg", "zip": "69115", "country": "Germany", "geoPoint": {"lat": 49.40768, "lon": 8.69079}}, {"facility": "Praxis Dr. Durak", "city": "Heidelberg", "zip": "69115", "country": "Germany", "geoPoint": {"lat": 49.40768, "lon": 8.69079}}, {"facility": "Universit\u00e4tsklinikum Heidelberg", "city": "Heidelberg", "zip": "69120", "country": "Germany", "geoPoint": {"lat": 49.40768, "lon": 8.69079}}, {"facility": "Thoraxklinik Heidelberg gGmbH", "city": "Heidelberg", "zip": "69126", "country": "Germany", "geoPoint": {"lat": 49.40768, "lon": 8.69079}}, {"facility": "Evangelisches Krankenhaus Herne", "city": "Herne", "zip": "44623", "country": "Germany", "geoPoint": {"lat": 51.5388, "lon": 7.22572}}, {"facility": "EvK Herne", "city": "Herne", "zip": "44623", "country": "Germany", "geoPoint": {"lat": 51.5388, "lon": 7.22572}}, {"facility": "Kardiologische Praxis Dr. Furche", "city": "Herne", "zip": "44623", "country": "Germany", "geoPoint": {"lat": 51.5388, "lon": 7.22572}}, {"facility": "Gemeinschaftspraxis Dr. Bruch", "city": "Herne", "zip": "44629", "country": "Germany", "geoPoint": {"lat": 51.5388, "lon": 7.22572}}, {"facility": "Kardiologische Praxis Dr. Schlichting", "city": "Herne", "zip": "44649", "country": "Germany", "geoPoint": {"lat": 51.5388, "lon": 7.22572}}, {"facility": "St. Elisabeth-Hospital Herten gGmbH", "city": "Herten", "zip": "45699", "country": "Germany", "geoPoint": {"lat": 51.59638, "lon": 7.14387}}, {"facility": "Praxis f\u00fcr Innere Medizin/Kardiologie", "city": "Hoyerswerda", "zip": "02977", "country": "Germany", "geoPoint": {"lat": 51.43787, "lon": 14.23549}}, {"facility": "Gemeinschaftspraxis Dres. Dobler/Turin", "city": "Karlstadt", "zip": "97753", "country": "Germany", "geoPoint": {"lat": 49.96034, "lon": 9.77239}}, {"facility": "Ambulantes Herzzentrum Kassel", "city": "Kassel", "zip": "34121", "country": "Germany", "geoPoint": {"lat": 51.31667, "lon": 9.5}}, {"facility": "Kardiologische Praxis Dr. Siegfried Frickel", "city": "Kempen", "zip": "47906", "country": "Germany", "geoPoint": {"lat": 51.36432, "lon": 6.41858}}, {"facility": "Klinik Kitzinger Land", "city": "Kitzingen", "zip": "97318", "country": "Germany", "geoPoint": {"lat": 49.73973, "lon": 10.15072}}, {"facility": "Praxis Dr. Krater", "city": "Krefeld", "zip": "47799", "country": "Germany", "geoPoint": {"lat": 51.33645, "lon": 6.55382}}, {"facility": "Helios Klinikum Krefeld", "city": "Krefeld", "zip": "47805", "country": "Germany", "geoPoint": {"lat": 51.33645, "lon": 6.55382}}, {"facility": "St.-Vinzenz Hospital", "city": "K\u00f6ln", "zip": "50733", "country": "Germany", "geoPoint": {"lat": 50.93333, "lon": 6.95}}, {"facility": "Kardiologische Praxis Dr. Fritsch", "city": "K\u00f6ln", "zip": "50737", "country": "Germany", "geoPoint": {"lat": 50.93333, "lon": 6.95}}, {"facility": "Malteser Krankenhaus St. Hildegardis", "city": "K\u00f6ln", "zip": "50931", "country": "Germany", "geoPoint": {"lat": 50.93333, "lon": 6.95}}, {"facility": "Klinikum der Universit\u00e4t zu K\u00f6ln- Herzzentrum", "city": "K\u00f6ln", "zip": "50937", "country": "Germany", "geoPoint": {"lat": 50.93333, "lon": 6.95}}, {"facility": "Prof. Franzen Institut", "city": "K\u00f6ln", "zip": "50937", "country": "Germany", "geoPoint": {"lat": 50.93333, "lon": 6.95}}, {"facility": "Universit\u00e4tsklinikum K\u00f6ln-Herzzentrum", "city": "K\u00f6ln", "zip": "50937", "country": "Germany", "geoPoint": {"lat": 50.93333, "lon": 6.95}}, {"facility": "Praxis Dr. Anselm B\u00e4umer", "city": "K\u00f6ln", "zip": "51065", "country": "Germany", "geoPoint": {"lat": 50.93333, "lon": 6.95}}, {"facility": "Gemeinschaftspraxis Dres. Gysan/Heinzler/May", "city": "K\u00f6ln", "zip": "51105", "country": "Germany", "geoPoint": {"lat": 50.93333, "lon": 6.95}}, {"facility": "Klinikum Dahme-Spreewald GmbH", "city": "K\u00f6nigs Wusterhausen", "zip": "15711", "country": "Germany", "geoPoint": {"lat": 52.30141, "lon": 13.633}}, {"facility": "Universit\u00e4tsklinikum Leipzig-Herzzentrum", "city": "Leipzig", "zip": "04289", "country": "Germany", "geoPoint": {"lat": 51.33962, "lon": 12.37129}}, {"facility": "Helios Krankenhaus Leisnig", "city": "Leisnig", "zip": "04703", "country": "Germany", "geoPoint": {"lat": 51.15743, "lon": 12.9279}}, {"facility": "Gemeinschaftspraxis Dr. Hilgedieck/Sava", "city": "Lengerich", "zip": "49525", "country": "Germany", "geoPoint": {"lat": 52.18661, "lon": 7.86043}}, {"facility": "Kardiologische Praxis Dr. Faber", "city": "Lindlar", "zip": "51784", "country": "Germany", "geoPoint": {"lat": 51.01959, "lon": 7.37758}}, {"facility": "\u00c4rztezentrum Holthausen-Biene", "city": "Lingen", "zip": "49808", "country": "Germany", "geoPoint": {"lat": 52.52143, "lon": 7.31845}}, {"facility": "Kardiologische Praxis Ludwigsburg", "city": "Ludwigsburg", "zip": "71634", "country": "Germany", "geoPoint": {"lat": 48.89731, "lon": 9.19161}}, {"facility": "Universit\u00e4tsklinikum Schleswig-Holstein Campus L\u00fcbeck-Kardiologie", "city": "L\u00fcbeck", "zip": "23538", "country": "Germany", "geoPoint": {"lat": 53.86893, "lon": 10.68729}}, {"facility": "Klinikum der Johannes Gutenberg-Universit\u00e4t Mainz", "city": "Mainz", "zip": "55101", "country": "Germany", "geoPoint": {"lat": 49.98419, "lon": 8.2791}}, {"facility": "Gemeinschaftspraxis Dres. Heifer/Loster/Schernus", "city": "Mannheim", "zip": "68161", "country": "Germany", "geoPoint": {"lat": 49.4891, "lon": 8.46694}}, {"facility": "Gemeinschaftspraxis f\u00fcr Herz & Gef\u00e4\u00dfe", "city": "Mannheim", "zip": "68161", "country": "Germany", "geoPoint": {"lat": 49.4891, "lon": 8.46694}}, {"facility": "Universit\u00e4tsklinik Mannheim-Kardiologie", "city": "Mannheim", "zip": "68167", "country": "Germany", "geoPoint": {"lat": 49.4891, "lon": 8.46694}}, {"facility": "Gemeinschaftspraxis Dres. Brandt / Jakobs", "city": "Mannheim", "zip": "68305", "country": "Germany", "geoPoint": {"lat": 49.4891, "lon": 8.46694}}, {"facility": "Universit\u00e4tsklinikum Gie\u00dfen/Marburg Standort Marburg-Kardiologie", "city": "Marburg", "zip": "35043", "country": "Germany", "geoPoint": {"lat": 50.80904, "lon": 8.77069}}, {"facility": "Praxis Dr. Schnabel", "city": "Meissen", "zip": "01662", "country": "Germany", "geoPoint": {"lat": 51.16158, "lon": 13.4737}}, {"facility": "Gemeinschaftspraxis Dr. Jocham", "city": "Memmingen", "zip": "87700", "country": "Germany", "geoPoint": {"lat": 47.98372, "lon": 10.18527}}, {"facility": "Praxis f\u00fcr Kardiologie Dr. med. Menz", "city": "Menden", "zip": "58706", "country": "Germany", "geoPoint": {"lat": 51.44337, "lon": 7.77825}}, {"facility": "Herz-& Gef\u00e4\u00dfpraxis", "city": "Metzingen", "zip": "72555", "country": "Germany", "geoPoint": {"lat": 48.53695, "lon": 9.2833}}, {"facility": "Praxis Kutenhausen", "city": "Minden", "zip": "32425", "country": "Germany", "geoPoint": {"lat": 52.28953, "lon": 8.91455}}, {"facility": "Krankenhaus Bethanien", "city": "Moers", "zip": "47441", "country": "Germany", "geoPoint": {"lat": 51.45342, "lon": 6.6326}}, {"facility": "Kardiologische Praxis Dr. Sch\u00f6n", "city": "M\u00fchldorf", "zip": "84453", "country": "Germany", "geoPoint": {"lat": 48.2467, "lon": 12.52155}}, {"facility": "Evangelisches Krankenhaus M\u00fclheim", "city": "M\u00fclheim an der Ruhr", "zip": "45468", "country": "Germany", "geoPoint": {"lat": 51.43218, "lon": 6.87967}}, {"facility": "Kardiologie am Rotkreuzplatz", "city": "M\u00fcnchen", "zip": "80634", "country": "Germany", "geoPoint": {"lat": 48.13743, "lon": 11.57549}}, {"facility": "Gemeinschaftspraxis Dres. Wauer / Windstetter", "city": "M\u00fcnchen", "zip": "80799", "country": "Germany", "geoPoint": {"lat": 48.13743, "lon": 11.57549}}, {"facility": "Kardiologische Praxis Dr. Herholz", "city": "M\u00fcnchen", "zip": "80809", "country": "Germany", "geoPoint": {"lat": 48.13743, "lon": 11.57549}}, {"facility": "Klinikum Augustinum M\u00fcnchen", "city": "M\u00fcnchen", "zip": "81375", "country": "Germany", "geoPoint": {"lat": 48.13743, "lon": 11.57549}}, {"facility": "Praxis Dres. B\u00f6hme/Linke", "city": "M\u00fcnchen", "zip": "81667", "country": "Germany", "geoPoint": {"lat": 48.13743, "lon": 11.57549}}, {"facility": "Kardiologische Praxis Dr. Muradi", "city": "M\u00fcnster", "zip": "29633", "country": "Germany", "geoPoint": {"lat": 51.96236, "lon": 7.62571}}, {"facility": "Universit\u00e4tsklinikum M\u00fcnster", "city": "M\u00fcnster", "zip": "48149", "country": "Germany", "geoPoint": {"lat": 51.96236, "lon": 7.62571}}, {"facility": "Praxis f\u00fcr Kardiologie Dr. med. Hewing", "city": "M\u00fcnster", "zip": "48151", "country": "Germany", "geoPoint": {"lat": 51.96236, "lon": 7.62571}}, {"facility": "St\u00e4dtisches Khs Lukas", "city": "Neuss", "zip": "41472", "country": "Germany", "geoPoint": {"lat": 51.19807, "lon": 6.68504}}, {"facility": "Kardiologische Praxis Nienburg", "city": "Nienburg", "zip": "31582", "country": "Germany", "geoPoint": {"lat": 52.6461, "lon": 9.22086}}, {"facility": "Klinikum N\u00fcrnberg S\u00fcd", "city": "N\u00fcrnberg", "zip": "90471", "country": "Germany", "geoPoint": {"lat": 49.45421, "lon": 11.07752}}, {"facility": "Kardiologische Praxis Dr. Gumbrecht", "city": "Ochtrup", "zip": "48607", "country": "Germany", "geoPoint": {"lat": 52.20802, "lon": 7.18988}}, {"facility": "Kardiologische Praxis Dr. Hassler", "city": "Plauen", "zip": "8523", "country": "Germany", "geoPoint": {"lat": 50.4973, "lon": 12.13782}}, {"facility": "Kardiologische Praxis Dr. Wieth\u00f6lter", "city": "Radebeul", "zip": "01445", "country": "Germany", "geoPoint": {"lat": 51.10654, "lon": 13.66047}}, {"facility": "Praxis f\u00fcr Kardiologie Ratingen", "city": "Ratingen", "zip": "40878", "country": "Germany", "geoPoint": {"lat": 51.29724, "lon": 6.84929}}, {"facility": "Praxis Dr. Fr\u00f6hlich", "city": "Ratingen", "zip": "40885", "country": "Germany", "geoPoint": {"lat": 51.29724, "lon": 6.84929}}, {"facility": "DRK Krankenhaus M\u00f6lln-Ratzeburg", "city": "Ratzeburg", "zip": "23909", "country": "Germany", "geoPoint": {"lat": 53.69961, "lon": 10.77269}}, {"facility": "Ambulantes Cardiovaskul\u00e4res Centrum", "city": "Ravensburg", "zip": "88212", "country": "Germany", "geoPoint": {"lat": 47.78198, "lon": 9.61062}}, {"facility": "Gemeinschaftspraxis Dr. Weber/Dr. Feja", "city": "Recklinghausen", "zip": "45657", "country": "Germany", "geoPoint": {"lat": 51.61379, "lon": 7.19738}}, {"facility": "Universit\u00e4tsklinikum Regensburg", "city": "Regensburg", "zip": "93053", "country": "Germany", "geoPoint": {"lat": 49.01513, "lon": 12.10161}}, {"facility": "Khs St. Adolf Stift", "city": "Reinbek", "zip": "21465", "country": "Germany", "geoPoint": {"lat": 53.51703, "lon": 10.2488}}, {"facility": "Praxis Dr. Hein", "city": "Reinbek", "zip": "21465", "country": "Germany", "geoPoint": {"lat": 53.51703, "lon": 10.2488}}, {"facility": "Kardiologische Praxis Dr. Kleinz", "city": "Remscheid", "zip": "42853", "country": "Germany", "geoPoint": {"lat": 51.17983, "lon": 7.1925}}, {"facility": "Praxis Dr. Nebel", "city": "Rheine", "zip": "48429", "country": "Germany", "geoPoint": {"lat": 52.28509, "lon": 7.44055}}, {"facility": "Praxis Dr. Kestermann", "city": "Rheine", "zip": "48431", "country": "Germany", "geoPoint": {"lat": 52.28509, "lon": 7.44055}}, {"facility": "Kardiologische Praxis Dr. Figura", "city": "Rinteln", "zip": "31737", "country": "Germany", "geoPoint": {"lat": 52.18604, "lon": 9.07917}}, {"facility": "Kardiologische Praxis Dr. Heinze", "city": "Schwerte", "zip": "58239", "country": "Germany", "geoPoint": {"lat": 51.44387, "lon": 7.5675}}, {"facility": "Praxis Dr. Ebeling", "city": "Sch\u00f6nefeld", "zip": "12529", "country": "Germany", "geoPoint": {"lat": 52.38892, "lon": 13.50385}}, {"facility": "Praxisgemeinschaft Cardio-Soest", "city": "Soest", "zip": "59494", "country": "Germany", "geoPoint": {"lat": 51.57558, "lon": 8.10619}}, {"facility": "Facharztzentrum Sonneberg", "city": "Sonneberg", "zip": "96515", "country": "Germany", "geoPoint": {"lat": 50.3592, "lon": 11.17463}}, {"facility": "Kreiskrankenhaus Stollberg GmbH", "city": "Stollberg", "zip": "09366", "country": "Germany", "geoPoint": {"lat": 50.70999, "lon": 12.78034}}, {"facility": "Kardiologische Praxis Dr. Birkenhagen", "city": "Stollberg", "zip": "9366", "country": "Germany", "geoPoint": {"lat": 50.70999, "lon": 12.78034}}, {"facility": "Klinikum Uelzen GmbH", "city": "Uelzen", "zip": "29525", "country": "Germany", "geoPoint": {"lat": 52.96572, "lon": 10.56111}}, {"facility": "Herzklinik Ulm Dr. Haerer und Partner", "city": "Ulm", "zip": "89077", "country": "Germany", "geoPoint": {"lat": 48.39841, "lon": 9.99155}}, {"facility": "Zentrum f\u00fcr Innere Medizin Uni Ulm", "city": "Ulm", "zip": "89081", "country": "Germany", "geoPoint": {"lat": 48.39841, "lon": 9.99155}}, {"facility": "Katharinen Hospital Unna", "city": "Unna", "zip": "59423", "country": "Germany", "geoPoint": {"lat": 51.53795, "lon": 7.68969}}, {"facility": "Kardiologische Praxis Dr. Burkhard-Meier", "city": "Viersen", "zip": "41747", "country": "Germany", "geoPoint": {"lat": 51.25435, "lon": 6.39441}}, {"facility": "Praxis Dr. Gerritsen", "city": "Waldkraiburg", "zip": "84478", "country": "Germany", "geoPoint": {"lat": 48.20854, "lon": 12.39893}}, {"facility": "Fachkliniken Wangen", "city": "Wangen", "zip": "88239", "country": "Germany", "geoPoint": {"lat": 48.72933, "lon": 9.61175}}, {"facility": "Stiftungsklinik Wei\u00dfenhorn", "city": "Wei\u00dfenhorn", "zip": "89264", "country": "Germany", "geoPoint": {"lat": 48.30501, "lon": 10.16047}}, {"facility": "Kardiologisch angiologische Gemeinschaftspraxis", "city": "Wiesbaden", "zip": "65183", "country": "Germany", "geoPoint": {"lat": 50.08258, "lon": 8.24932}}, {"facility": "Kardiologische Gemeinschaftspraxis Dr. K. Vorbeck", "city": "Wiesbaden", "zip": "65183", "country": "Germany", "geoPoint": {"lat": 50.08258, "lon": 8.24932}}, {"facility": "Kardiologische Praxis Dr. Vrettos", "city": "Witten", "zip": "58452", "country": "Germany", "geoPoint": {"lat": 51.44362, "lon": 7.35258}}, {"facility": "Kardiologische Praxis Dr. Rudolf/ Dr. Bernhardt", "city": "Worms", "zip": "67547", "country": "Germany", "geoPoint": {"lat": 49.63278, "lon": 8.35916}}, {"facility": "Comprehensive Heart Failure Center, Universit\u00e4tsklinikum W\u00fcrzburg", "city": "W\u00fcrzburg", "zip": "97080", "country": "Germany", "geoPoint": {"lat": 49.79391, "lon": 9.95121}}, {"facility": "Universit\u00e4tsklinikum W\u00fcrzburg", "city": "W\u00fcrzburg", "zip": "97080", "country": "Germany", "geoPoint": {"lat": 49.79391, "lon": 9.95121}}, {"facility": "Evangel. Khs Zweibr\u00fccken", "city": "Zweibr\u00fccken", "zip": "66482", "country": "Germany", "geoPoint": {"lat": 49.24686, "lon": 7.36977}}]}, "referencesModule": {"references": [{"pmid": "24716484", "type": "RESULT", "citation": "Woehrle H, Oldenburg O, Arzt M, Graml A, Erdmann E, Teschler H, Wegscheider K; SCHLA-HF Investigators. Determining the prevalence and predictors of sleep disordered breathing in patients with chronic heart failure: rationale and design of the SCHLA-HF registry. BMC Cardiovasc Disord. 2014 Apr 9;14:46. doi: 10.1186/1471-2261-14-46."}, {"pmid": "26682790", "type": "RESULT", "citation": "Arzt M, Woehrle H, Oldenburg O, Graml A, Suling A, Erdmann E, Teschler H, Wegscheider K; SchlaHF Investigators. Prevalence and Predictors of Sleep-Disordered Breathing in Patients With Stable Chronic Heart Failure: The SchlaHF Registry. JACC Heart Fail. 2016 Feb;4(2):116-125. doi: 10.1016/j.jchf.2015.09.014. Epub 2015 Dec 9."}, {"pmid": "29187390", "type": "RESULT", "citation": "Arzt M, Oldenburg O, Graml A, Erdmann E, Teschler H, Wegscheider K, Suling A, Woehrle H; SchlaHF Investigators. Phenotyping of Sleep-Disordered Breathing in Patients With Chronic Heart Failure With Reduced Ejection Fraction-the SchlaHF Registry. J Am Heart Assoc. 2017 Nov 29;6(12):e005899. doi: 10.1161/JAHA.116.005899."}]}}, "resultsSection": {"participantFlowModule": {"groups": [{"id": "FG000", "title": "Chronic HF Without SDB", "description": "Patients with chronic heart failure (left ventricular ejection fraction \u226445% or New York Heart Association (NYHA) class III or IV or NYHA class II with \u22651 hospitalization within 12 months before inclusion) and no sleep disordered breathing (SDB, Apnoea-Hypopnoea Index AHI \u226515)"}, {"id": "FG001", "title": "Chronic HF With SDB", "description": "Patients with chronic heart failure (left ventricular ejection fraction \u226445% or New York Heart Association (NYHA) class III or IV or NYHA class II with \u22651 hospitalization within 12 months before inclusion) and sleep disordered breathing (SDB, Apnoea-Hypopnoea Index AHI \u226515)"}], "periods": [{"title": "Overall Study", "milestones": [{"type": "STARTED", "achievements": [{"groupId": "FG000", "numSubjects": "3686"}, {"groupId": "FG001", "numSubjects": "3190"}]}, {"type": "COMPLETED", "achievements": [{"groupId": "FG000", "numSubjects": "3686"}, {"groupId": "FG001", "numSubjects": "3190"}]}, {"type": "NOT COMPLETED", "achievements": [{"groupId": "FG000", "numSubjects": "0"}, {"groupId": "FG001", "numSubjects": "0"}]}]}]}, "baselineCharacteristicsModule": {"groups": [{"id": "BG000", "title": "Chronic HF Without SDB", "description": "Patients with chronic heart failure (left ventricular ejection fraction \u226445% or New York Heart Association (NYHA) class III or IV or NYHA class II with \u22651 hospitalization within 12 months before inclusion) and no sleep disordered breathing (SDB, Apnoea-Hypopnoea Index AHI \u226515)"}, {"id": "BG001", "title": "Chronic HF With SDB", "description": "Patients with chronic heart failure (left ventricular ejection fraction \u226445% or New York Heart Association (NYHA) class III or IV or NYHA class II with \u22651 hospitalization within 12 months before inclusion) and sleep disordered breathing (SDB, Apnoea-Hypopnoea Index AHI \u226515)"}, {"id": "BG002", "title": "Total", "description": "Total of all reporting groups"}], "denoms": [{"units": "Participants", "counts": [{"groupId": "BG000", "value": "3686"}, {"groupId": "BG001", "value": "3190"}, {"groupId": "BG002", "value": "6876"}]}], "measures": [{"title": "Age, Continuous", "paramType": "MEAN", "dispersionType": "STANDARD_DEVIATION", "unitOfMeasure": "years", "classes": [{"categories": [{"measurements": [{"groupId": "BG000", "value": "65", "spread": "12"}, {"groupId": "BG001", "value": "69", "spread": "11"}, {"groupId": "BG002", "value": "67", "spread": "11.5"}]}]}]}, {"title": "Sex: Female, Male", "paramType": "COUNT_OF_PARTICIPANTS", "unitOfMeasure": "Participants", "classes": [{"categories": [{"title": "Female", "measurements": [{"groupId": "BG000", "value": "932"}, {"groupId": "BG001", "value": "516"}, {"groupId": "BG002", "value": "1448"}]}, {"title": "Male", "measurements": [{"groupId": "BG000", "value": "2754"}, {"groupId": "BG001", "value": "2674"}, {"groupId": "BG002", "value": "5428"}]}]}]}]}, "outcomeMeasuresModule": {"outcomeMeasures": [{"type": "PRIMARY", "title": "Prevalence of SDB in Chronic HF Patients", "description": "SDB= Sleep disordered breathing; HF= Heart failure", "reportingStatus": "POSTED", "paramType": "COUNT_OF_PARTICIPANTS", "unitOfMeasure": "Participants", "timeFrame": "1 night: Patients fulfilling the inclusion and exclusion criteria were examined for sleep-disordered breathing during 1 night in a sleep facility", "groups": [{"id": "OG000", "title": "Chronic HF With SDB", "description": "Patients with chronic heart failure (left ventricular ejection fraction \u226445% or New York Heart Association (NYHA) class III or IV or NYHA class II with \u22651 hospitalization within 12 months before inclusion) and sleep disordered breathing (SDB, Apnoea-Hypopnoea Index AHI \u226515)"}], "denoms": [{"units": "Participants", "counts": [{"groupId": "OG000", "value": "6876"}]}], "classes": [{"categories": [{"measurements": [{"groupId": "OG000", "value": "3190"}]}]}]}, {"type": "SECONDARY", "title": "Left Ventricular Ejection Fraction", "description": "Amount of blood in the left ventricle at the end of Diastole that is being pumped into the System during systole", "reportingStatus": "POSTED", "paramType": "MEAN", "dispersionType": "Standard Deviation", "unitOfMeasure": "% ejection fraction", "timeFrame": "1 night: Patients fulfilling the inclusion and exclusion criteria were examined for LVEF in a medical institution", "groups": [{"id": "OG000", "title": "Chronic HF Without SDB", "description": "Patients with chronic heart failure (left ventricular ejection fraction \u226445% or New York Heart Association (NYHA) class III or IV or NYHA class II with \u22651 hospitalization within 12 months before inclusion) and no sleep disordered breathing (SDB, Apnoea-Hypopnoea Index AHI \u226515)"}, {"id": "OG001", "title": "Chronic HF With SDB", "description": "Patients with chronic heart failure (left ventricular ejection fraction \u226445% or New York Heart Association (NYHA) class III or IV or NYHA class II with \u22651 hospitalization within 12 months before inclusion) and sleep disordered breathing (SDB, Apnoea-Hypopnoea Index AHI \u226515)"}], "denoms": [{"units": "Participants", "counts": [{"groupId": "OG000", "value": "3686"}, {"groupId": "OG001", "value": "3190"}]}], "classes": [{"categories": [{"measurements": [{"groupId": "OG000", "value": "33.6", "spread": "8.0"}, {"groupId": "OG001", "value": "32.8", "spread": "8.3"}]}]}]}, {"type": "SECONDARY", "title": "Age", "description": "Age years", "reportingStatus": "POSTED", "paramType": "MEAN", "dispersionType": "Standard Deviation", "unitOfMeasure": "years", "timeFrame": "1-time single assessment at baseline", "groups": [{"id": "OG000", "title": "Chronic HF Without SDB", "description": "Patients with chronic heart failure (left ventricular ejection fraction \u226445% or New York Heart Association (NYHA) class III or IV or NYHA class II with \u22651 hospitalization within 12 months before inclusion) and no sleep disordered breathing (SDB, Apnoea-Hypopnoea Index AHI \u226515)"}, {"id": "OG001", "title": "Chronic HF With SDB", "description": "Patients with chronic heart failure (left ventricular ejection fraction \u226445% or New York Heart Association (NYHA) class III or IV or NYHA class II with \u22651 hospitalization within 12 months before inclusion) and sleep disordered breathing (SDB, Apnoea-Hypopnoea Index AHI \u226515)"}], "denoms": [{"units": "Participants", "counts": [{"groupId": "OG000", "value": "3686"}, {"groupId": "OG001", "value": "3190"}]}], "classes": [{"categories": [{"measurements": [{"groupId": "OG000", "value": "65", "spread": "12"}, {"groupId": "OG001", "value": "69", "spread": "11"}]}]}]}, {"type": "SECONDARY", "title": "Body Mass Index", "reportingStatus": "POSTED", "paramType": "MEAN", "dispersionType": "Standard Deviation", "unitOfMeasure": "kg/m\u02c42", "timeFrame": "1-time single assessment at baseline", "groups": [{"id": "OG000", "title": "Chronic HF Without SDB", "description": "Patients with chronic heart failure (left ventricular ejection fraction \u226445% or New York Heart Association (NYHA) class III or IV or NYHA class II with \u22651 hospitalization within 12 months before inclusion) and no sleep disordered breathing (SDB, Apnoea-Hypopnoea Index AHI \u226515)"}, {"id": "OG001", "title": "Chronic HF With SDB", "description": "Patients with chronic heart failure (left ventricular ejection fraction \u226445% or New York Heart Association (NYHA) class III or IV or NYHA class II with \u22651 hospitalization within 12 months before inclusion) and sleep disordered breathing (SDB, Apnoea-Hypopnoea Index AHI \u226515)"}], "denoms": [{"units": "Participants", "counts": [{"groupId": "OG000", "value": "3686"}, {"groupId": "OG001", "value": "3190"}]}], "classes": [{"categories": [{"measurements": [{"groupId": "OG000", "value": "28.1", "spread": "5.0"}, {"groupId": "OG001", "value": "28.9", "spread": "5.2"}]}]}]}, {"type": "SECONDARY", "title": "Male Gender", "reportingStatus": "POSTED", "paramType": "COUNT_OF_PARTICIPANTS", "unitOfMeasure": "Participants", "timeFrame": "1-time single assessment at baseline", "groups": [{"id": "OG000", "title": "Chronic HF Without SDB", "description": "Patients with chronic heart failure (left ventricular ejection fraction \u226445% or New York Heart Association (NYHA) class III or IV or NYHA class II with \u22651 hospitalization within 12 months before inclusion) and no sleep disordered breathing (SDB, Apnoea-Hypopnoea Index AHI \u226515)"}, {"id": "OG001", "title": "Chronic HF With SDB", "description": "Patients with chronic heart failure (left ventricular ejection fraction \u226445% or New York Heart Association (NYHA) class III or IV or NYHA class II with \u22651 hospitalization within 12 months before inclusion) and sleep disordered breathing (SDB, Apnoea-Hypopnoea Index AHI \u226515)"}], "denoms": [{"units": "Participants", "counts": [{"groupId": "OG000", "value": "3686"}, {"groupId": "OG001", "value": "3190"}]}], "classes": [{"categories": [{"measurements": [{"groupId": "OG000", "value": "2754"}, {"groupId": "OG001", "value": "2674"}]}]}]}, {"type": "SECONDARY", "title": "NYHA Class \u2265III", "description": "New York Heart Association Class III: Marked Limitation of physical activity. Comfortable at rest, but less than ordinary physical activity results in undue breathlessness, fatigue or palpitations.", "reportingStatus": "POSTED", "paramType": "COUNT_OF_PARTICIPANTS", "unitOfMeasure": "Participants", "timeFrame": "At baseline, the NYHA was determined in a medical institution or taken restrospectively from medical records", "groups": [{"id": "OG000", "title": "Chronic HF Without SDB", "description": "Patients with chronic heart failure (left ventricular ejection fraction \u226445% or New York Heart Association (NYHA) class III or IV or NYHA class II with \u22651 hospitalization within 12 months before inclusion) and no sleep disordered breathing (SDB, Apnoea-Hypopnoea Index AHI \u226515)"}, {"id": "OG001", "title": "Chronic HF With SDB", "description": "Patients with chronic heart failure (left ventricular ejection fraction \u226445% or New York Heart Association (NYHA) class III or IV or NYHA class II with \u22651 hospitalization within 12 months before inclusion) and sleep disordered breathing (SDB, Apnoea-Hypopnoea Index AHI \u226515)"}], "denoms": [{"units": "Participants", "counts": [{"groupId": "OG000", "value": "3686"}, {"groupId": "OG001", "value": "3190"}]}], "classes": [{"categories": [{"measurements": [{"groupId": "OG000", "value": "2566"}, {"groupId": "OG001", "value": "2341"}]}]}]}, {"type": "SECONDARY", "title": "Ischemic Etiology", "description": "Ischemic etiology describes a condition where a weakening or disease of the heart muscle is caused by reduced supply of blood (underlying cause might be the coronary artery). Secondary outcome ischemic etiology describes the cause of heart failure (HF) \"ischemic\" in HF patients without and with sleep-disordered breathing in percent of the respective study arm/group: e.g. x% of patients without SDB have HF with an ischemic etiology.", "reportingStatus": "POSTED", "paramType": "COUNT_OF_PARTICIPANTS", "unitOfMeasure": "Participants", "timeFrame": "1-time: At baseline the ischemic etiology was determined in the medical institution or taken retrospectively from the medical records.", "groups": [{"id": "OG000", "title": "Chronic HF Without SDB", "description": "Patients with chronic heart failure (left ventricular ejection fraction \u226445% or New York Heart Association (NYHA) class III or IV or NYHA class II with \u22651 hospitalization within 12 months before inclusion) and no sleep disordered breathing (SDB, Apnoea-Hypopnoea Index AHI \u226515)"}, {"id": "OG001", "title": "Chronic HF With SDB", "description": "Patients with chronic heart failure (left ventricular ejection fraction \u226445% or New York Heart Association (NYHA) class III or IV or NYHA class II with \u22651 hospitalization within 12 months before inclusion) and sleep disordered breathing (SDB, Apnoea-Hypopnoea Index AHI \u226515)"}], "denoms": [{"units": "Participants", "counts": [{"groupId": "OG000", "value": "3686"}, {"groupId": "OG001", "value": "3190"}]}], "classes": [{"categories": [{"measurements": [{"groupId": "OG000", "value": "1961"}, {"groupId": "OG001", "value": "1742"}]}]}]}, {"type": "SECONDARY", "title": "Atrial Fibrillation", "reportingStatus": "POSTED", "paramType": "COUNT_OF_PARTICIPANTS", "unitOfMeasure": "Participants", "timeFrame": "1-time: At baseline atrial fibrillation (AF) was determined in the medical institution or AF history was taken retrospectively from the medical records", "groups": [{"id": "OG000", "title": "Chronic HF Without SDB", "description": "Patients with chronic heart failure (left ventricular ejection fraction \u226445% or New York Heart Association (NYHA) class III or IV or NYHA class II with \u22651 hospitalization within 12 months before inclusion) and no sleep disordered breathing (SDB, Apnoea-Hypopnoea Index AHI \u226515)"}, {"id": "OG001", "title": "Chronic HF With SDB", "description": "Patients with chronic heart failure (left ventricular ejection fraction \u226445% or New York Heart Association (NYHA) class III or IV or NYHA class II with \u22651 hospitalization within 12 months before inclusion) and sleep disordered breathing (SDB, Apnoea-Hypopnoea Index AHI \u226515)"}], "denoms": [{"units": "Participants", "counts": [{"groupId": "OG000", "value": "3686"}, {"groupId": "OG001", "value": "3190"}]}], "classes": [{"categories": [{"measurements": [{"groupId": "OG000", "value": "863"}, {"groupId": "OG001", "value": "1001"}]}]}]}, {"type": "SECONDARY", "title": "Nocturnal Dyspnea", "reportingStatus": "POSTED", "paramType": "COUNT_OF_PARTICIPANTS", "unitOfMeasure": "Participants", "timeFrame": "1-time: At baseline history of nocturnal dyspnea taken retrospectively from the medical records", "groups": [{"id": "OG000", "title": "Chronic HF Without SDB", "description": "Patients with chronic heart failure (left ventricular ejection fraction \u226445% or New York Heart Association (NYHA) class III or IV or NYHA class II with \u22651 hospitalization within 12 months before inclusion) and no sleep disordered breathing (SDB, Apnoea-Hypopnoea Index AHI \u226515)"}, {"id": "OG001", "title": "Chronic HF With SDB", "description": "Patients with chronic heart failure (left ventricular ejection fraction \u226445% or New York Heart Association (NYHA) class III or IV or NYHA class II with \u22651 hospitalization within 12 months before inclusion) and sleep disordered breathing (SDB, Apnoea-Hypopnoea Index AHI \u226515)"}], "denoms": [{"units": "Participants", "counts": [{"groupId": "OG000", "value": "3686"}, {"groupId": "OG001", "value": "3190"}]}], "classes": [{"categories": [{"measurements": [{"groupId": "OG000", "value": "672"}, {"groupId": "OG001", "value": "800"}]}]}]}, {"type": "SECONDARY", "title": "Nocturia \u22653 Times/Night", "reportingStatus": "POSTED", "paramType": "COUNT_OF_PARTICIPANTS", "unitOfMeasure": "Participants", "timeFrame": "1-time: At baseline nocturia was assessed 1 time (anamnesis)", "groups": [{"id": "OG000", "title": "Chronic HF Without SDB", "description": "Patients with chronic heart failure (left ventricular ejection fraction \u226445% or New York Heart Association (NYHA) class III or IV or NYHA class II with \u22651 hospitalization within 12 months before inclusion) and no sleep disordered breathing (SDB, Apnoea-Hypopnoea Index AHI \u226515)"}, {"id": "OG001", "title": "Chronic HF With SDB", "description": "Patients with chronic heart failure (left ventricular ejection fraction \u226445% or New York Heart Association (NYHA) class III or IV or NYHA class II with \u22651 hospitalization within 12 months before inclusion) and sleep disordered breathing (SDB, Apnoea-Hypopnoea Index AHI \u226515)"}], "denoms": [{"units": "Participants", "counts": [{"groupId": "OG000", "value": "3686"}, {"groupId": "OG001", "value": "3190"}]}], "classes": [{"categories": [{"measurements": [{"groupId": "OG000", "value": "580"}, {"groupId": "OG001", "value": "660"}]}]}]}, {"type": "SECONDARY", "title": "Apnoea-Hypopnea-Index", "description": "Number of Apnoeas (cessation of airflow for at least 10 seconds) and hypopneas (reduced airflow for at least 10 seconds) per hours of sleep", "reportingStatus": "POSTED", "paramType": "MEAN", "dispersionType": "Standard Deviation", "unitOfMeasure": "events/hour", "timeFrame": "1 night: Apnoea-Hypopnea Index (AHI) was assessed during one night under polysomnography (PSG) in a sleep facility", "groups": [{"id": "OG000", "title": "Chronic HF Without SDB", "description": "Patients with chronic heart failure (left ventricular ejection fraction \u226445% or New York Heart Association (NYHA) class III or IV or NYHA class II with \u22651 hospitalization within 12 months before inclusion) and no sleep disordered breathing (SDB, Apnoea-Hypopnoea Index AHI \u226515)"}, {"id": "OG001", "title": "Chronic HF With SDB", "description": "Patients with chronic heart failure (left ventricular ejection fraction \u226445% or New York Heart Association (NYHA) class III or IV or NYHA class II with \u22651 hospitalization within 12 months before inclusion) and sleep disordered breathing (SDB, Apnoea-Hypopnoea Index AHI \u226515)"}], "denoms": [{"units": "Participants", "counts": [{"groupId": "OG000", "value": "3686"}, {"groupId": "OG001", "value": "3190"}]}], "classes": [{"categories": [{"measurements": [{"groupId": "OG000", "value": "6", "spread": "4"}, {"groupId": "OG001", "value": "31", "spread": "14"}]}]}]}, {"type": "SECONDARY", "title": "Oxygen Desaturation Index", "description": "Number of times that arterial blood oxygen saturation Drops by \u22653% from the Basic value.", "reportingStatus": "POSTED", "paramType": "MEAN", "dispersionType": "Standard Deviation", "unitOfMeasure": "events/hour", "timeFrame": "1 time: Oxygen desaturation Index (ODI) was assessed during one night under polysomnography (PSG) in a sleep facility", "groups": [{"id": "OG000", "title": "Chronic HF Without SDB", "description": "Patients with chronic heart failure (left ventricular ejection fraction \u226445% or New York Heart Association (NYHA) class III or IV or NYHA class II with \u22651 hospitalization within 12 months before inclusion) and no sleep disordered breathing (SDB, Apnoea-Hypopnoea Index AHI \u226515)"}, {"id": "OG001", "title": "Chronic HF With SDB", "description": "Patients with chronic heart failure (left ventricular ejection fraction \u226445% or New York Heart Association (NYHA) class III or IV or NYHA class II with \u22651 hospitalization within 12 months before inclusion) and sleep disordered breathing (SDB, Apnoea-Hypopnoea Index AHI \u226515)"}], "denoms": [{"units": "Participants", "counts": [{"groupId": "OG000", "value": "3686"}, {"groupId": "OG001", "value": "3190"}]}], "classes": [{"categories": [{"measurements": [{"groupId": "OG000", "value": "8", "spread": "10"}, {"groupId": "OG001", "value": "24", "spread": "15"}]}]}]}, {"type": "SECONDARY", "title": "Mean SpO2", "description": "Saturation of oxygen", "reportingStatus": "POSTED", "paramType": "MEAN", "dispersionType": "Standard Deviation", "unitOfMeasure": "%oxygen saturation", "timeFrame": "1 night: oxygen saturation was assessed during one night under polysomnography (PSG) in a sleep facility", "groups": [{"id": "OG000", "title": "Chronic HF Without SDB", "description": "Patients with chronic heart failure (left ventricular ejection fraction \u226445% or New York Heart Association (NYHA) class III or IV or NYHA class II with \u22651 hospitalization within 12 months before inclusion) and no sleep disordered breathing (SDB, Apnoea-Hypopnoea Index AHI \u226515)"}, {"id": "OG001", "title": "Chronic HF With SDB", "description": "Patients with chronic heart failure (left ventricular ejection fraction \u226445% or New York Heart Association (NYHA) class III or IV or NYHA class II with \u22651 hospitalization within 12 months before inclusion) and sleep disordered breathing (SDB, Apnoea-Hypopnoea Index AHI \u226515)"}], "denoms": [{"units": "Participants", "counts": [{"groupId": "OG000", "value": "3686"}, {"groupId": "OG001", "value": "3190"}]}], "classes": [{"categories": [{"measurements": [{"groupId": "OG000", "value": "93", "spread": "2"}, {"groupId": "OG001", "value": "92", "spread": "3"}]}]}]}, {"type": "SECONDARY", "title": "Min SpO2", "description": "Lowest Saturation with oxygen", "reportingStatus": "POSTED", "paramType": "MEAN", "dispersionType": "Standard Deviation", "unitOfMeasure": "% oxygen saturation", "timeFrame": "1 night: Minimum saturation with oxygen was assessed during one night under polysomnography (PSG) in a sleep facility", "groups": [{"id": "OG000", "title": "Chronic HF Without SDB", "description": "Patients with chronic heart failure (left ventricular ejection fraction \u226445% or New York Heart Association (NYHA) class III or IV or NYHA class II with \u22651 hospitalization within 12 months before inclusion) and no sleep disordered breathing (SDB, Apnoea-Hypopnoea Index AHI \u226515)"}, {"id": "OG001", "title": "Chronic HF With SDB", "description": "Patients with chronic heart failure (left ventricular ejection fraction \u226445% or New York Heart Association (NYHA) class III or IV or NYHA class II with \u22651 hospitalization within 12 months before inclusion) and sleep disordered breathing (SDB, Apnoea-Hypopnoea Index AHI \u226515)"}], "denoms": [{"units": "Participants", "counts": [{"groupId": "OG000", "value": "3686"}, {"groupId": "OG001", "value": "3190"}]}], "classes": [{"categories": [{"measurements": [{"groupId": "OG000", "value": "83", "spread": "6"}, {"groupId": "OG001", "value": "80", "spread": "6"}]}]}]}, {"type": "SECONDARY", "title": "Medication ACE Inhibitors and/ARBs", "description": "ACE: Angiotensin converting Enzyme; ARB Angiotension receptor blocker", "reportingStatus": "POSTED", "paramType": "COUNT_OF_PARTICIPANTS", "unitOfMeasure": "Participants", "timeFrame": "1-time: At baseline medication was assessed 1 time (anamnesis)", "groups": [{"id": "OG000", "title": "Chronic HF Without SDB", "description": "Patients with chronic heart failure (left ventricular ejection fraction \u226445% or New York Heart Association (NYHA) class III or IV or NYHA class II with \u22651 hospitalization within 12 months before inclusion) and no sleep disordered breathing (SDB, Apnoea-Hypopnoea Index AHI \u226515)"}, {"id": "OG001", "title": "Chronic HF With SDB", "description": "Patients with chronic heart failure (left ventricular ejection fraction \u226445% or New York Heart Association (NYHA) class III or IV or NYHA class II with \u22651 hospitalization within 12 months before inclusion) and sleep disordered breathing (SDB, Apnoea-Hypopnoea Index AHI \u226515)"}], "denoms": [{"units": "Participants", "counts": [{"groupId": "OG000", "value": "3686"}, {"groupId": "OG001", "value": "3190"}]}], "classes": [{"categories": [{"measurements": [{"groupId": "OG000", "value": "3269"}, {"groupId": "OG001", "value": "2812"}]}]}]}, {"type": "SECONDARY", "title": "Beta-blocker", "reportingStatus": "POSTED", "paramType": "COUNT_OF_PARTICIPANTS", "unitOfMeasure": "Participants", "timeFrame": "1-time: At baseline medication was assessed 1 time (anamnesis)", "groups": [{"id": "OG000", "title": "Chronic HF Without SDB", "description": "Patients with chronic heart failure (left ventricular ejection fraction \u226445% or New York Heart Association (NYHA) class III or IV or NYHA class II with \u22651 hospitalization within 12 months before inclusion) and no sleep disordered breathing (SDB, Apnoea-Hypopnoea Index AHI \u226515)"}, {"id": "OG001", "title": "Chronic HF With SDB", "description": "Patients with chronic heart failure (left ventricular ejection fraction \u226445% or New York Heart Association (NYHA) class III or IV or NYHA class II with \u22651 hospitalization within 12 months before inclusion) and sleep disordered breathing (SDB, Apnoea-Hypopnoea Index AHI \u226515)"}], "denoms": [{"units": "Participants", "counts": [{"groupId": "OG000", "value": "3686"}, {"groupId": "OG001", "value": "3190"}]}], "classes": [{"categories": [{"measurements": [{"groupId": "OG000", "value": "3284"}, {"groupId": "OG001", "value": "2824"}]}]}]}, {"type": "SECONDARY", "title": "Diuretics", "reportingStatus": "POSTED", "paramType": "COUNT_OF_PARTICIPANTS", "unitOfMeasure": "Participants", "timeFrame": "1-time: At baseline medication was assessed 1 time (anamnesis)", "groups": [{"id": "OG000", "title": "Chronic HF Without SDB", "description": "Patients with chronic heart failure (left ventricular ejection fraction \u226445% or New York Heart Association (NYHA) class III or IV or NYHA class II with \u22651 hospitalization within 12 months before inclusion) and no sleep disordered breathing (SDB, Apnoea-Hypopnoea Index AHI \u226515)"}, {"id": "OG001", "title": "Chronic HF With SDB", "description": "Patients with chronic heart failure (left ventricular ejection fraction \u226445% or New York Heart Association (NYHA) class III or IV or NYHA class II with \u22651 hospitalization within 12 months before inclusion) and sleep disordered breathing (SDB, Apnoea-Hypopnoea Index AHI \u226515)"}], "denoms": [{"units": "Participants", "counts": [{"groupId": "OG000", "value": "3686"}, {"groupId": "OG001", "value": "3190"}]}], "classes": [{"categories": [{"measurements": [{"groupId": "OG000", "value": "2805"}, {"groupId": "OG001", "value": "2617"}]}]}]}, {"type": "SECONDARY", "title": "Digitalis", "reportingStatus": "POSTED", "paramType": "COUNT_OF_PARTICIPANTS", "unitOfMeasure": "Participants", "timeFrame": "1-time: At baseline medication was assessed 1 time (anamnesis)", "groups": [{"id": "OG000", "title": "Chronic HF Without SDB", "description": "Patients with chronic heart failure (left ventricular ejection fraction \u226445% or New York Heart Association (NYHA) class III or IV or NYHA class II with \u22651 hospitalization within 12 months before inclusion) and no sleep disordered breathing (SDB, Apnoea-Hypopnoea Index AHI \u226515)"}, {"id": "OG001", "title": "Chronic HF With SDB", "description": "Patients with chronic heart failure (left ventricular ejection fraction \u226445% or New York Heart Association (NYHA) class III or IV or NYHA class II with \u22651 hospitalization within 12 months before inclusion) and sleep disordered breathing (SDB, Apnoea-Hypopnoea Index AHI \u226515)"}], "denoms": [{"units": "Participants", "counts": [{"groupId": "OG000", "value": "3686"}, {"groupId": "OG001", "value": "3190"}]}], "classes": [{"categories": [{"measurements": [{"groupId": "OG000", "value": "717"}, {"groupId": "OG001", "value": "599"}]}]}]}, {"type": "SECONDARY", "title": "Aldosterone Antagonists", "reportingStatus": "POSTED", "paramType": "COUNT_OF_PARTICIPANTS", "unitOfMeasure": "Participants", "timeFrame": "1-time: At baseline medication was assessed 1 time (anamnesis)", "groups": [{"id": "OG000", "title": "Chronic HF Without SDB", "description": "Patients with chronic heart failure (left ventricular ejection fraction \u226445% or New York Heart Association (NYHA) class III or IV or NYHA class II with \u22651 hospitalization within 12 months before inclusion) and no sleep disordered breathing (SDB, Apnoea-Hypopnoea Index AHI \u226515)"}, {"id": "OG001", "title": "Chronic HF With SDB", "description": "Patients with chronic heart failure (left ventricular ejection fraction \u226445% or New York Heart Association (NYHA) class III or IV or NYHA class II with \u22651 hospitalization within 12 months before inclusion) and sleep disordered breathing (SDB, Apnoea-Hypopnoea Index AHI \u226515)"}], "denoms": [{"units": "Participants", "counts": [{"groupId": "OG000", "value": "3686"}, {"groupId": "OG001", "value": "3190"}]}], "classes": [{"categories": [{"measurements": [{"groupId": "OG000", "value": "1808"}, {"groupId": "OG001", "value": "1454"}]}]}]}, {"type": "SECONDARY", "title": "Male Gender as Predictor for SDB in Chronic HF", "description": "From the total number of participants, the number of male patients without and with SDB were counted and an odds Ratio for male sex as predictor for SDB in chronic heart failure", "reportingStatus": "POSTED", "paramType": "COUNT_OF_PARTICIPANTS", "unitOfMeasure": "Participants", "timeFrame": "1-time: At baseline physical status was assessed 1 time (anamnesis and medical records)", "groups": [{"id": "OG000", "title": "Patients With Chronic HF Without SDB Male", "description": "patients with chronic heart failure and no sleep disordered breathing who are male"}, {"id": "OG001", "title": "Patients With Chronic Heart Failure and SDB Male", "description": "patients with chronic heart failure and sleep disorderd breathing who are male"}], "denoms": [{"units": "Participants", "counts": [{"groupId": "OG000", "value": "3686"}, {"groupId": "OG001", "value": "3190"}]}], "classes": [{"categories": [{"measurements": [{"groupId": "OG000", "value": "2754"}, {"groupId": "OG001", "value": "2674"}]}]}], "analyses": [{"groupIds": ["OG000", "OG001"], "nonInferiorityType": "OTHER", "paramType": "Odds Ratio (OR)", "paramValue": "1.90", "ciPctValue": "95", "ciNumSides": "TWO_SIDED"}]}, {"type": "SECONDARY", "title": "Atrial Fibrillation (AF) as a Predictor for SDB in Chronic HF", "description": "From the total number of participants, the number of male patients without and with SDB were counted and an odds ratio calculated for AF as predictor for SDB in chronic heart failure", "reportingStatus": "POSTED", "paramType": "COUNT_OF_PARTICIPANTS", "unitOfMeasure": "Participants", "timeFrame": "1-time: At baseline physical status was assessed 1 time (anamnesis and medical records)", "groups": [{"id": "OG000", "title": "Patients With Chronic HF Without SDB and AF", "description": "patients with chronic heart failure and no sleep disordered breathing who have atrial fibrillation (AF)"}, {"id": "OG001", "title": "Patients With Chronic Heart Failure and SDB and AF", "description": "patients with chronic heart failure and sleep disorderd breathing who have atrial fibrillation (AF)"}], "denoms": [{"units": "Participants", "counts": [{"groupId": "OG000", "value": "3686"}, {"groupId": "OG001", "value": "3190"}]}], "classes": [{"categories": [{"measurements": [{"groupId": "OG000", "value": "863"}, {"groupId": "OG001", "value": "1001"}]}]}], "analyses": [{"groupIds": ["OG000", "OG001"], "nonInferiorityType": "OTHER", "paramType": "Odds Ratio (OR)", "paramValue": "1.19", "ciPctValue": "95", "ciNumSides": "TWO_SIDED"}]}, {"type": "SECONDARY", "title": "Ischemic Etiology as Predictor for SDB in Chronic HF", "description": "From the total number of participants, the number of male patients without and with SDB were counted and an odds ratio calculated for ischemic etiology as predictor for SDB in chronic heart failure", "reportingStatus": "POSTED", "paramType": "COUNT_OF_PARTICIPANTS", "unitOfMeasure": "Participants", "timeFrame": "1-time: At baseline physical status was assessed 1 time (anamnesis and medical records)", "groups": [{"id": "OG000", "title": "Patients With Chronic HF Without SDB and Ischemic Etiology", "description": "patients with chronic heart failure and no sleep disordered breathing who have an ischemic etiology (reduced blood flow to the heart muscle) of HF"}, {"id": "OG001", "title": "Patients With Chronic Heart Failure and SDB and Ischemic Etiol", "description": "patients with chronic heart failure and sleep disorderd breathing who have an ischemic etiology (reduced blood flow to the heart muscle) of HF"}], "denoms": [{"units": "Participants", "counts": [{"groupId": "OG000", "value": "3686"}, {"groupId": "OG001", "value": "3190"}]}], "classes": [{"categories": [{"measurements": [{"groupId": "OG000", "value": "1961"}, {"groupId": "OG001", "value": "1742"}]}]}], "analyses": [{"groupIds": ["OG000", "OG001"], "nonInferiorityType": "OTHER", "paramType": "Odds Ratio (OR)", "paramValue": "0.92", "ciNumSides": "TWO_SIDED"}]}, {"type": "SECONDARY", "title": "NYHA Class >= III as Predictor for SDB in Chronic HF", "description": "From the total number of participants, the number of male patients without and with SDB were counted and an odds ratio calculated for NYHA (New York Heart Association - class I not impaired, class II slighly impaired, class III severly impaired, class IV = unable to perform normal tasks) class\u2265III as predictor for SDB in chronic heart failure", "reportingStatus": "POSTED", "paramType": "COUNT_OF_PARTICIPANTS", "unitOfMeasure": "Participants", "timeFrame": "1-time: At baseline physical status was assessed 1 time (anamnesis and medical records)", "groups": [{"id": "OG000", "title": "Patients With Chronic HF Without SDB and NYHA>III", "description": "patients with chronic heart failure and no sleep disordered breathing who are classified as NYHA \\>=III"}, {"id": "OG001", "title": "Patients With Chronic Heart Failure and SDB and NYHA >III", "description": "patients with chronic heart failure and sleep disorderd breathing who are classified as NYHA \\>=III"}], "denoms": [{"units": "Participants", "counts": [{"groupId": "OG000", "value": "3686"}, {"groupId": "OG001", "value": "3190"}]}], "classes": [{"categories": [{"measurements": [{"groupId": "OG000", "value": "2566"}, {"groupId": "OG001", "value": "2341"}]}]}], "analyses": [{"groupIds": ["OG000", "OG001"], "nonInferiorityType": "OTHER", "paramType": "Odds Ratio (OR)", "paramValue": "1.12", "ciPctValue": "95", "ciNumSides": "TWO_SIDED"}]}]}, "adverseEventsModule": {"frequencyThreshold": "0", "description": "Non-serious adverse events were not collected in this observational study. Usual side-effects of therapy in clinical routine are well described. Serious adverse events (SAE) were recorded, but in this observational study only those in connection to the device: Unexpected serious device defects (USADE). No device effects were recorded during the course of this study.", "eventGroups": [{"id": "EG000", "title": "Chronic HF Without SDB", "description": "Patients with chronic heart failure (left ventricular ejection fraction \u226445% or New York Heart Association (NYHA) class III or IV or NYHA class II with \u22651 hospitalization within 12 months before inclusion) and no sleep disordered breathing (SDB, Apnoea-Hypopnoea Index AHI \u226515)", "seriousNumAffected": 0, "seriousNumAtRisk": 3686, "otherNumAffected": 0, "otherNumAtRisk": 0}, {"id": "EG001", "title": "Chronic HF With SDB", "description": "Patients with chronic heart failure (left ventricular ejection fraction \u226445% or New York Heart Association (NYHA) class III or IV or NYHA class II with \u22651 hospitalization within 12 months before inclusion) and sleep disordered breathing (SDB, Apnoea-Hypopnoea Index AHI \u226515)", "seriousNumAffected": 0, "seriousNumAtRisk": 3190, "otherNumAffected": 0, "otherNumAtRisk": 0}]}, "moreInfoModule": {"certainAgreement": {"piSponsorEmployee": false, "restrictiveAgreement": false}, "pointOfContact": {"title": "Medical Affairs CRS", "organization": "ResMed Germany Inc", "email": "ClinicalResearch&Strategy@ResMed.com", "phone": "089990100"}}}, "derivedSection": {"miscInfoModule": {"versionHolder": "2024-06-24"}, "conditionBrowseModule": {"meshes": [{"id": "D000012891", "term": "Sleep Apnea Syndromes"}, {"id": "D000006333", "term": "Heart Failure"}, {"id": "D000018487", "term": "Ventricular Dysfunction, Left"}, {"id": "D000054160", "term": "Systolic Murmurs"}], "ancestors": [{"id": "D000006331", "term": "Heart Diseases"}, {"id": "D000002318", "term": "Cardiovascular Diseases"}, {"id": "D000012120", "term": "Respiration Disorders"}, {"id": "D000012140", "term": "Respiratory Tract Diseases"}, {"id": "D000006337", "term": "Heart Murmurs"}, {"id": "D000001049", "term": "Apnea"}, {"id": "D000020919", "term": "Sleep Disorders, Intrinsic"}, {"id": "D000020920", "term": "Dyssomnias"}, {"id": "D000012893", "term": "Sleep Wake Disorders"}, {"id": "D000009422", "term": "Nervous System Diseases"}, {"id": "D000018754", "term": "Ventricular Dysfunction"}], "browseLeaves": [{"id": "M4361", "name": "Apnea", "relevance": "LOW"}, {"id": "M15694", "name": "Sleep Apnea Syndromes", "asFound": "Sleep Disordered Breathing", "relevance": "HIGH"}, {"id": "M27137", "name": "Respiratory Aspiration", "relevance": "LOW"}, {"id": "M9421", "name": "Heart Failure", "asFound": "Heart Failure", "relevance": "HIGH"}, {"id": "M27579", "name": "Heart Failure, Systolic", "relevance": "LOW"}, {"id": "M27583", "name": "Systolic Murmurs", "asFound": "Systolic", "relevance": "HIGH"}, {"id": "M5884", "name": "Cheyne-Stokes Respiration", "relevance": "LOW"}, {"id": "M16355", "name": "Syndrome", "relevance": "LOW"}, {"id": "M20824", "name": "Ventricular Dysfunction", "relevance": "LOW"}, {"id": "M20591", "name": "Ventricular Dysfunction, Left", "asFound": "Left Ventricular Systolic Dysfunction", "relevance": "HIGH"}, {"id": "M9425", "name": "Heart Murmurs", "relevance": "LOW"}, {"id": "M9419", "name": "Heart Diseases", "relevance": "LOW"}, {"id": "M14957", "name": "Respiration Disorders", "relevance": "LOW"}, {"id": "M14977", "name": "Respiratory Tract Diseases", "relevance": "LOW"}, {"id": "M22242", "name": "Parasomnias", "relevance": "LOW"}, {"id": "M22654", "name": "Sleep Disorders, Intrinsic", "relevance": "LOW"}, {"id": "M22655", "name": "Dyssomnias", "relevance": "LOW"}, {"id": "M15696", "name": "Sleep Wake Disorders", "relevance": "LOW"}, {"id": "T1303", "name": "Chronic Graft Versus Host Disease", "relevance": "LOW"}], "browseBranches": [{"abbrev": "BC08", "name": "Respiratory Tract (Lung and Bronchial) Diseases"}, {"abbrev": "BC23", "name": "Symptoms and General Pathology"}, {"abbrev": "All", "name": "All Conditions"}, {"abbrev": "BC10", "name": "Nervous System Diseases"}, {"abbrev": "BC14", "name": "Heart and Blood Diseases"}, {"abbrev": "BXM", "name": "Behaviors and Mental Disorders"}, {"abbrev": "Rare", "name": "Rare Diseases"}]}}, "hasResults": true}