{"protocolSection": {"identificationModule": {"nctId": "NCT01512979", "orgStudyIdInfo": {"id": "1218.83"}, "secondaryIdInfos": [{"id": "2011-004158-24", "type": "EUDRACT_NUMBER", "domain": "EudraCT"}], "organization": {"fullName": "Boehringer Ingelheim", "class": "INDUSTRY"}, "briefTitle": "Linagliptin and Metformin Versus Linagliptin in Newly Diagnosed, Untreated Type 2 Diabetes", "officialTitle": "A 24-week, Randomized, Double-blind, Active-controlled, Parallel Group Trial to Assess the Superiority of Oral Linagliptin and Metformin Compared to Linagliptin Monotherapy in Newly Diagnosed, Treatment-na\u00efve, Uncontrolled Type 2 Diabetes Mellitus Patients"}, "statusModule": {"statusVerifiedDate": "2014-05", "overallStatus": "COMPLETED", "expandedAccessInfo": {"hasExpandedAccess": false}, "startDateStruct": {"date": "2012-01"}, "primaryCompletionDateStruct": {"date": "2013-04", "type": "ACTUAL"}, "completionDateStruct": {"date": "2013-04", "type": "ACTUAL"}, "studyFirstSubmitDate": "2012-01-16", "studyFirstSubmitQcDate": "2012-01-16", "studyFirstPostDateStruct": {"date": "2012-01-20", "type": "ESTIMATED"}, "resultsFirstSubmitDate": "2014-04-08", "resultsFirstSubmitQcDate": "2014-04-08", "resultsFirstPostDateStruct": {"date": "2014-05-09", "type": "ESTIMATED"}, "lastUpdateSubmitDate": "2014-05-12", "lastUpdatePostDateStruct": {"date": "2014-05-20", "type": "ESTIMATED"}}, "sponsorCollaboratorsModule": {"responsibleParty": {"type": "SPONSOR"}, "leadSponsor": {"name": "Boehringer Ingelheim", "class": "INDUSTRY"}, "collaborators": [{"name": "Eli Lilly and Company", "class": "INDUSTRY"}]}, "descriptionModule": {"briefSummary": "The purpose of this trial is to determine whether a initial combination of linagliptin and metformin compared to linagliptin alone for 24 weeks is effective in newly diagnosed, treatment-na\u00efve patients with Type 2 Diabetes."}, "conditionsModule": {"conditions": ["Diabetes Mellitus, Type 2"]}, "designModule": {"studyType": "INTERVENTIONAL", "phases": ["PHASE4"], "designInfo": {"allocation": "RANDOMIZED", "interventionModel": "PARALLEL", "primaryPurpose": "TREATMENT", "maskingInfo": {"masking": "DOUBLE"}}, "enrollmentInfo": {"count": 316, "type": "ACTUAL"}}, "armsInterventionsModule": {"armGroups": [{"label": "linagliptin", "type": "EXPERIMENTAL", "description": "patients receive linagliptin tablet once daily", "interventionNames": ["Drug: linagliptin", "Drug: metformin placebo"]}, {"label": "linagliptin plus metformin", "type": "EXPERIMENTAL", "description": "patients receive linagliptin tablet once daily and metformin tablets twice daily", "interventionNames": ["Drug: metformin", "Drug: linagliptin", "Drug: metformin placebo"]}], "interventions": [{"type": "DRUG", "name": "metformin", "description": "1000 mg to 2000 mg per day", "armGroupLabels": ["linagliptin plus metformin"]}, {"type": "DRUG", "name": "linagliptin", "description": "5 mg daily", "armGroupLabels": ["linagliptin", "linagliptin plus metformin"]}, {"type": "DRUG", "name": "metformin placebo", "description": "0 to 2 tablets daily", "armGroupLabels": ["linagliptin plus metformin"]}, {"type": "DRUG", "name": "metformin placebo", "description": "4 tablets daily", "armGroupLabels": ["linagliptin"]}]}, "outcomesModule": {"primaryOutcomes": [{"measure": "Change From Baseline in HbA1c After 24 Weeks", "description": "HbA1c is measured as a percentage. The change from baseline is the Week 24 HbA1c minus the baseline HbA1c. Means are adjusted for treatment and continuous baseline HbA1c", "timeFrame": "Baseline and 24 weeks"}], "secondaryOutcomes": [{"measure": "Change From Baseline in Fasting Plasma Glucose (FPG) After 24 Weeks of Treatment", "description": "The change from baseline is the FPG after 24 weeks minus the baseline FPG. Means are adjusted for treatment, continuous baseline HbA1c and continuous baseline fasting plasma glucose.", "timeFrame": "Baseline and 24 weeks"}, {"measure": "Change From Baseline in HbA1c by Visit Over Time", "description": "HbA1c is measured as a percentage. The change from baseline is the HbA1c over time minus the baseline HbA1c. The model includes treatment, continuous baseline HbA1c in addition to week repeated within patient, week by baseline HbA1c interaction and week by treatment interaction.", "timeFrame": "Baseline, 6, 12, 18 and 24 weeks"}, {"measure": "Occurrence of Relative Efficacy Response (HbA1c Lowering by at Least 0.5% After 24 Weeks of Treatment)", "description": "The proportion of patients who achieved HbA1c lowering by at least 0.5% after 24 weeks of treatment.The model includes treatment, and continuous baseline HbA1c.", "timeFrame": "Baseline and 24 weeks"}, {"measure": "Occurrence of Relative Efficacy Response (HbA1c Lowering by at Least 1.0% After 24 Weeks of Treatment)", "description": "The proportion of patients who achieved HbA1c lowering by at least 1.0% after 24 weeks of treatment. The model includes treatment, and continuous baseline HbA1c.", "timeFrame": "Baseline and 24 weeks"}, {"measure": "Occurrence of Treat to Target Efficacy Response (HbA1c <7.0%) After 24 Weeks of Treatment", "description": "The proportion of patients who achieved HbA1c below 7.0% after 24 weeks of treatment. The model includes treatment, and continuous baseline HbA1c.", "timeFrame": "Baseline and 24 weeks"}, {"measure": "Change From Baseline in FPG by Visit Over Time", "description": "The change from baseline is the FPG over time minus the baseline FPG. Means are adjusted for treatment, continuous baseline HbA1c, continuous baseline FPG in addition to week repeated within patient, week by baseline FPG interaction and week by treatment interaction.", "timeFrame": "Baseline, 6, 12, 18 and 24 weeks"}]}, "eligibilityModule": {"eligibilityCriteria": "Inclusion criteria:\n\n1. Patients must sign and date an Informed Consent consistent with International Conference on Harmonisation / Good Clinical Practice guidelines and local regulations prior to any evaluation and participation in the trial.\n2. Male and female patients, 18 years of age or older at Visit 1 (Screen), with newly diagnosed (less than 12 months prior to Screen) Type 2 Diabetes Mellitus.\n3. Patients who are treatment-na\u00efve, defined as absence of any oral antidiabetic therapy, injectable glucagon-like peptide-1 agonist/analogue, or insulin, and uncontrolled for the 12 weeks prior to randomisation.\n4. Patients must have an glycated (or glycosylated) haemoglobin (HbA1c) between 8.5% \\[69 millimoles per mole (mmol/mol)\\] and 12.0% (108 mmol/mol) at Visit 1 (Screen).\n5. Patients must have a Body Mass Index (BMI) of 45 kg/m2 or less at Visit 1 (Screen).\n6. In the investigators opinion, patients must be reliable, honest, compliant, and agree to cooperate with all planned future trial evaluations as explained in detail during the informed consent process and to be able to perform them.\n\nExclusion criteria:\n\nPatients with, who are, who have, or who have had:\n\n1. Acute coronary syndrome (non-ST Elevation Myocardial Infarction (STEMI), STEMI, and unstable angina pectoris), stroke or transient ischemic attack within 3 months prior to informed consent.\n2. Indication of liver disease determined during Screen and/or Run-In Period, defined by a serum level above 3 times the upper limit of normal (ULN) in any of the following: alanine aminotransferase, aspartate aminotransferase, or alkaline phosphatase. Gilbert-Meulengracht syndrome (also known as conjugated hyperbilirubinemia, constitutional hepatic dysfunction, or familial nonhemolytic jaundice) will be permitted.\n3. Impaired renal function, defined as calculated creatinine clearance of less than 60 milliliters per minute (\\< 60 mL/min), by the Cockcroft-Gault Equation, as determined during Screen and/or Run-In Period.\n4. Bariatric, gastric bypass, and other gastrointestinal surgeries (including all types of gastric banding and/or LapBand) within the past two years.\n5. Medical history of cancer (except for basal cell carcinoma) and/or treatment for cancer within the last 5 years.\n6. Medical history of pancreatitis.\n7. Blood dyscrasias or any disorders causing hemolysis or unstable red blood cells (e.g., malaria, babesiosis, haemolytic anaemia).\n8. Any contraindication to metformin and/or linagliptin therapies, according to local labels.\n9. Treatment with anti-obesity drugs, including over-the-counter drugs such as Alli (orlistat), 3 months prior to informed consent or any other treatment at the time of screening (i.e., surgery, aggressive diet regimen, etc.) leading to unstable body weight.\n10. Current treatment with systemic steroids at time of informed consent or change in dosage of thyroid hormones within 6 weeks prior to informed consent or any other uncontrolled endocrine disorder except Type 2 Diabetes Mellitus.\n11. Pre-menopausal women (last menstruation of 1 year or less prior to informed consent) who are nursing or pregnant, are of child-bearing potential and are not practicing an acceptable method of birth control, or do not plan to continue using this method throughout the trial and do not agree to submit to periodic pregnancy testing during participation in the trial.\n\n    Note: Acceptable methods of birth control include tubal ligation, transdermal patch, intra uterine devices/systems, oral, implantable, intra-vaginal, or injectable contraceptives, Essure micro-inserts placed more than six months prior to Screen Visit, complete sexual abstinence (if acceptable by local authorities), double barrier method (e.g., diaphragm or condom and spermicide), and vasectomised partner.\n12. Alcohol or drug abuse within the 3 months prior to informed consent that would interfere with trial participation or any ongoing condition leading to decreased compliance to trial procedures or study medication intake in the opinion of the investigator.\n13. Participation in another trial with an investigational drug within 2 months prior to informed consent.\n14. Any other clinical condition that would jeopardize patient safety while participating in this clinical trial in the opinion of the Investigator.\n15. Inability to commit to regular overnight fasting of at least 10 hours duration and attendance to study site visits between 07:00 and 11:00 ante meridiem (a.m.).", "healthyVolunteers": false, "sex": "ALL", "minimumAge": "18 Years", "stdAges": ["ADULT", "OLDER_ADULT"]}, "contactsLocationsModule": {"overallOfficials": [{"name": "Boehringer Ingelheim", "affiliation": "Boehringer Ingelheim", "role": "STUDY_CHAIR"}], "locations": [{"facility": "1218.83.11002 Boehringer Ingelheim Investigational Site", "city": "Phoenix", "state": "Arizona", "country": "United States", "geoPoint": {"lat": 33.44838, "lon": -112.07404}}, {"facility": "1218.83.11036 Boehringer Ingelheim Investigational Site", "city": "Little Rock", "state": "Arkansas", "country": "United States", "geoPoint": {"lat": 34.74648, "lon": -92.28959}}, {"facility": "1218.83.11011 Boehringer Ingelheim Investigational Site", "city": "Chino", "state": "California", "country": "United States", "geoPoint": {"lat": 34.01223, "lon": -117.68894}}, {"facility": "1218.83.11001 Boehringer Ingelheim Investigational Site", "city": "Huntington Beach", "state": "California", "country": "United States", "geoPoint": {"lat": 33.6603, "lon": -117.99923}}, {"facility": "1218.83.11019 Boehringer Ingelheim Investigational Site", "city": "Huntington Park", "state": "California", "country": "United States", "geoPoint": {"lat": 33.98168, "lon": -118.22507}}, {"facility": "1218.83.11015 Boehringer Ingelheim Investigational Site", "city": "Lomita", "state": "California", "country": "United States", "geoPoint": {"lat": 33.79224, "lon": -118.31507}}, {"facility": "1218.83.11023 Boehringer Ingelheim Investigational Site", "city": "Norwalk", "state": "California", "country": "United States", "geoPoint": {"lat": 33.90224, "lon": -118.08173}}, {"facility": "1218.83.11014 Boehringer Ingelheim Investigational Site", "city": "Roseville", "state": "California", "country": "United States", "geoPoint": {"lat": 38.75212, "lon": -121.28801}}, {"facility": "1218.83.11031 Boehringer Ingelheim Investigational Site", "city": "San Diego", "state": "California", "country": "United States", "geoPoint": {"lat": 32.71533, "lon": -117.15726}}, {"facility": "1218.83.11022 Boehringer Ingelheim Investigational Site", "city": "Fort Lauderdale", "state": "Florida", "country": "United States", "geoPoint": {"lat": 26.12231, "lon": -80.14338}}, {"facility": "1218.83.11025 Boehringer Ingelheim Investigational Site", "city": "Orlando", "state": "Florida", "country": "United States", "geoPoint": {"lat": 28.53834, "lon": -81.37924}}, {"facility": "1218.83.11033 Boehringer Ingelheim Investigational Site", "city": "Sanford", "state": "Florida", "country": "United States", "geoPoint": {"lat": 28.80041, "lon": -81.27319}}, {"facility": "1218.83.11029 Boehringer Ingelheim Investigational Site", "city": "Oakwood", "state": "Georgia", "country": "United States", "geoPoint": {"lat": 34.2276, "lon": -83.88435}}, {"facility": "1218.83.11026 Boehringer Ingelheim Investigational Site", "city": "Owensboro", "state": "Kentucky", "country": "United States", "geoPoint": {"lat": 37.77422, "lon": -87.11333}}, {"facility": "1218.83.11008 Boehringer Ingelheim Investigational Site", "city": "Elkton", "state": "Maryland", "country": "United States", "geoPoint": {"lat": 39.60678, "lon": -75.83327}}, {"facility": "1218.83.11027 Boehringer Ingelheim Investigational Site", "city": "Freemont", "state": "Nebraska", "country": "United States", "geoPoint": {"lat": 41.43333, "lon": -96.49808}}, {"facility": "1218.83.11005 Boehringer Ingelheim Investigational Site", "city": "Edison", "state": "New Jersey", "country": "United States", "geoPoint": {"lat": 40.51872, "lon": -74.4121}}, {"facility": "1218.83.11013 Boehringer Ingelheim Investigational Site", "city": "Jacksonville", "state": "North Carolina", "country": "United States", "geoPoint": {"lat": 34.75405, "lon": -77.43024}}, {"facility": "1218.83.11028 Boehringer Ingelheim Investigational Site", "city": "Salisbury", "state": "North Carolina", "country": "United States", "geoPoint": {"lat": 35.67097, "lon": -80.47423}}, {"facility": "1218.83.11009 Boehringer Ingelheim Investigational Site", "city": "Shelby", "state": "North Carolina", "country": "United States", "geoPoint": {"lat": 35.29235, "lon": -81.53565}}, {"facility": "1218.83.11003 Boehringer Ingelheim Investigational Site", "city": "Franklin", "state": "Ohio", "country": "United States", "geoPoint": {"lat": 39.55895, "lon": -84.30411}}, {"facility": "1218.83.11024 Boehringer Ingelheim Investigational Site", "city": "Gallipolis", "state": "Ohio", "country": "United States", "geoPoint": {"lat": 38.8098, "lon": -82.20237}}, {"facility": "1218.83.11018 Boehringer Ingelheim Investigational Site", "city": "Columbia", "state": "South Carolina", "country": "United States", "geoPoint": {"lat": 34.00071, "lon": -81.03481}}, {"facility": "1218.83.11004 Boehringer Ingelheim Investigational Site", "city": "Bristol", "state": "Tennessee", "country": "United States", "geoPoint": {"lat": 36.59511, "lon": -82.18874}}, {"facility": "1218.83.11017 Boehringer Ingelheim Investigational Site", "city": "Chattanooga", "state": "Tennessee", "country": "United States", "geoPoint": {"lat": 35.04563, "lon": -85.30968}}, {"facility": "1218.83.11032 Boehringer Ingelheim Investigational Site", "city": "Grand Prairie", "state": "Texas", "country": "United States", "geoPoint": {"lat": 32.74596, "lon": -96.99778}}, {"facility": "1218.83.11030 Boehringer Ingelheim Investigational Site", "city": "Houston", "state": "Texas", "country": "United States", "geoPoint": {"lat": 29.76328, "lon": -95.36327}}, {"facility": "1218.83.11034 Boehringer Ingelheim Investigational Site", "city": "San Antonio", "state": "Texas", "country": "United States", "geoPoint": {"lat": 29.42412, "lon": -98.49363}}, {"facility": "1218.83.11021 Boehringer Ingelheim Investigational Site", "city": "Tomball", "state": "Texas", "country": "United States", "geoPoint": {"lat": 30.09716, "lon": -95.61605}}, {"facility": "1218.83.12011 Boehringer Ingelheim Investigational Site", "city": "Calgary", "state": "Alberta", "country": "Canada", "geoPoint": {"lat": 51.05011, "lon": -114.08529}}, {"facility": "1218.83.12007 Boehringer Ingelheim Investigational Site", "city": "Edmonton", "state": "Alberta", "country": "Canada", "geoPoint": {"lat": 53.55014, "lon": -113.46871}}, {"facility": "1218.83.12001 Boehringer Ingelheim Investigational Site", "city": "Red Deer", "state": "Alberta", "country": "Canada", "geoPoint": {"lat": 52.26682, "lon": -113.802}}, {"facility": "1218.83.12002 Boehringer Ingelheim Investigational Site", "city": "Paradise", "state": "Newfoundland and Labrador", "country": "Canada"}, {"facility": "1218.83.12009 Boehringer Ingelheim Investigational Site", "city": "St. John's", "state": "Newfoundland and Labrador", "country": "Canada", "geoPoint": {"lat": 47.56494, "lon": -52.70931}}, {"facility": "1218.83.12005 Boehringer Ingelheim Investigational Site", "city": "Kitchener", "state": "Ontario", "country": "Canada", "geoPoint": {"lat": 43.42537, "lon": -80.5112}}, {"facility": "1218.83.12006 Boehringer Ingelheim Investigational Site", "city": "London", "state": "Ontario", "country": "Canada", "geoPoint": {"lat": 42.98339, "lon": -81.23304}}, {"facility": "1218.83.12003 Boehringer Ingelheim Investigational Site", "city": "Smiths Falls", "state": "Ontario", "country": "Canada", "geoPoint": {"lat": 44.90452, "lon": -76.02333}}, {"facility": "1218.83.12010 Boehringer Ingelheim Investigational Site", "city": "Sudbury", "state": "Ontario", "country": "Canada", "geoPoint": {"lat": 46.49, "lon": -80.99001}}, {"facility": "1218.83.12012 Boehringer Ingelheim Investigational Site", "city": "Winnipeg", "state": "Ontario", "country": "Canada", "geoPoint": {"lat": 49.8844, "lon": -97.14704}}, {"facility": "1218.83.91003 Boehringer Ingelheim Investigational Site", "city": "Bangalore", "country": "India", "geoPoint": {"lat": 12.97194, "lon": 77.59369}}, {"facility": "1218.83.91005 Boehringer Ingelheim Investigational Site", "city": "Chennai", "country": "India", "geoPoint": {"lat": 13.08784, "lon": 80.27847}}, {"facility": "1218.83.91001 Boehringer Ingelheim Investigational Site", "city": "Mumbai", "country": "India", "geoPoint": {"lat": 19.07283, "lon": 72.88261}}, {"facility": "1218.83.97004 Boehringer Ingelheim Investigational Site", "city": "Haifa", "country": "Israel", "geoPoint": {"lat": 32.81841, "lon": 34.9885}}, {"facility": "1218.83.97005 Boehringer Ingelheim Investigational Site", "city": "Haifa", "country": "Israel", "geoPoint": {"lat": 32.81841, "lon": 34.9885}}, {"facility": "1218.83.97007 Boehringer Ingelheim Investigational Site", "city": "Holon", "country": "Israel", "geoPoint": {"lat": 32.01034, "lon": 34.77918}}, {"facility": "1218.83.60001 Boehringer Ingelheim Investigational Site", "city": "Kelantan", "country": "Malaysia"}, {"facility": "1218.83.60002 Boehringer Ingelheim Investigational Site", "city": "Perak", "country": "Malaysia"}, {"facility": "1218.83.60003 Boehringer Ingelheim Investigational Site", "city": "Selangor, Malaysia", "country": "Malaysia"}, {"facility": "1218.83.52004 Boehringer Ingelheim Investigational Site", "city": "Cuautla", "country": "Mexico", "geoPoint": {"lat": 18.8106, "lon": -98.93525}}, {"facility": "1218.83.52001 Boehringer Ingelheim Investigational Site", "city": "Guadalajara", "country": "Mexico", "geoPoint": {"lat": 20.66682, "lon": -103.39182}}, {"facility": "1218.83.52002 Boehringer Ingelheim Investigational Site", "city": "Guadalajara", "country": "Mexico", "geoPoint": {"lat": 20.66682, "lon": -103.39182}}, {"facility": "1218.83.52005 Boehringer Ingelheim Investigational Site", "city": "Merida", "country": "Mexico", "geoPoint": {"lat": 20.97537, "lon": -89.61696}}, {"facility": "1218.83.52003 Boehringer Ingelheim Investigational Site", "city": "Tampico", "country": "Mexico", "geoPoint": {"lat": 22.26695, "lon": -97.86815}}, {"facility": "1218.83.63007 Boehringer Ingelheim Investigational Site", "city": "Cebu City", "country": "Philippines", "geoPoint": {"lat": 10.31672, "lon": 123.89071}}, {"facility": "1218.83.63001 Boehringer Ingelheim Investigational Site", "city": "Cebu", "country": "Philippines", "geoPoint": {"lat": 10.31672, "lon": 123.89071}}, {"facility": "1218.83.63008 Boehringer Ingelheim Investigational Site", "city": "Iloilo City", "country": "Philippines", "geoPoint": {"lat": 10.69694, "lon": 122.56444}}, {"facility": "1218.83.63003 Boehringer Ingelheim Investigational Site", "city": "Iloilo", "country": "Philippines", "geoPoint": {"lat": 10.69694, "lon": 122.56444}}, {"facility": "1218.83.63002 Boehringer Ingelheim Investigational Site", "city": "Marikina City", "country": "Philippines", "geoPoint": {"lat": 14.6481, "lon": 121.1133}}, {"facility": "1218.83.63006 Boehringer Ingelheim Investigational Site", "city": "Marikina City", "country": "Philippines", "geoPoint": {"lat": 14.6481, "lon": 121.1133}}, {"facility": "1218.83.63004 Boehringer Ingelheim Investigational Site", "city": "Quezon", "country": "Philippines", "geoPoint": {"lat": 7.73028, "lon": 125.09889}}, {"facility": "1218.83.11037 Boehringer Ingelheim Investigational Site", "city": "San Juan", "country": "Puerto Rico", "geoPoint": {"lat": 18.46633, "lon": -66.10572}}, {"facility": "1218.83.07001 Boehringer Ingelheim Investigational Site", "city": "Kazan", "country": "Russian Federation", "geoPoint": {"lat": 55.78874, "lon": 49.12214}}, {"facility": "1218.83.07002 Boehringer Ingelheim Investigational Site", "city": "Petrozavodsk", "country": "Russian Federation", "geoPoint": {"lat": 61.78491, "lon": 34.34691}}, {"facility": "1218.83.07004 Boehringer Ingelheim Investigational Site", "city": "Samara", "country": "Russian Federation", "geoPoint": {"lat": 53.20007, "lon": 50.15}}, {"facility": "1218.83.07006 Boehringer Ingelheim Investigational Site", "city": "Smolensk", "country": "Russian Federation", "geoPoint": {"lat": 54.7818, "lon": 32.0401}}, {"facility": "1218.83.07003 Boehringer Ingelheim Investigational Site", "city": "St. Petersburg", "country": "Russian Federation", "geoPoint": {"lat": 59.93863, "lon": 30.31413}}, {"facility": "1218.83.07007 Boehringer Ingelheim Investigational Site", "city": "St. Petersburg", "country": "Russian Federation", "geoPoint": {"lat": 59.93863, "lon": 30.31413}}, {"facility": "1218.83.07005 Boehringer Ingelheim Investigational Site", "city": "Yaroslavl", "country": "Russian Federation", "geoPoint": {"lat": 57.62987, "lon": 39.87368}}, {"facility": "1218.83.94004 Boehringer Ingelheim Investigational Site", "city": "Dehiwela", "country": "Sri Lanka"}, {"facility": "1218.83.94002 Boehringer Ingelheim Investigational Site", "city": "Galle, Sri Lanka", "country": "Sri Lanka"}, {"facility": "1218.83.94003 Boehringer Ingelheim Investigational Site", "city": "Kandy", "country": "Sri Lanka", "geoPoint": {"lat": 7.2955, "lon": 80.6356}}, {"facility": "1218.83.94001 Boehringer Ingelheim Investigational Site", "city": "Ragama", "country": "Sri Lanka", "geoPoint": {"lat": 7.0292, "lon": 79.917}}, {"facility": "1218.83.66002 Boehringer Ingelheim Investigational Site", "city": "Bangkok", "country": "Thailand", "geoPoint": {"lat": 13.75398, "lon": 100.50144}}, {"facility": "1218.83.66003 Boehringer Ingelheim Investigational Site", "city": "Bangkok", "country": "Thailand", "geoPoint": {"lat": 13.75398, "lon": 100.50144}}, {"facility": "1218.83.66001 Boehringer Ingelheim Investigational Site", "city": "Muang, Khonkaen", "country": "Thailand"}, {"facility": "1218.83.38007 Boehringer Ingelheim Investigational Site", "city": "Dnepropetrovsk", "country": "Ukraine", "geoPoint": {"lat": 48.4593, "lon": 35.03864}}, {"facility": "1218.83.38001 Boehringer Ingelheim Investigational Site", "city": "Ivano-Frankivsk", "country": "Ukraine", "geoPoint": {"lat": 48.9215, "lon": 24.70972}}, {"facility": "1218.83.38006 Boehringer Ingelheim Investigational Site", "city": "Kharkiv", "country": "Ukraine", "geoPoint": {"lat": 49.98081, "lon": 36.25272}}, {"facility": "1218.83.38004 Boehringer Ingelheim Investigational Site", "city": "Odessa", "country": "Ukraine", "geoPoint": {"lat": 46.47747, "lon": 30.73262}}, {"facility": "1218.83.38008 Boehringer Ingelheim Investigational Site", "city": "Vinnitsa", "country": "Ukraine", "geoPoint": {"lat": 49.84639, "lon": 37.71861}}, {"facility": "1218.83.38003 Boehringer Ingelheim Investigational Site", "city": "Vinnytsya", "country": "Ukraine", "geoPoint": {"lat": 49.23278, "lon": 28.48097}}, {"facility": "1218.83.38005 Boehringer Ingelheim Investigational Site", "city": "Vinnytsya", "country": "Ukraine", "geoPoint": {"lat": 49.23278, "lon": 28.48097}}]}, "referencesModule": {"references": [{"pmid": "27684308", "type": "DERIVED", "citation": "Ross SA, Caballero AE, Del Prato S, Gallwitz B, Lewis-D'Agostino D, Bailes Z, Thiemann S, Patel S, Woerle HJ, von Eynatten M. Linagliptin plus metformin in patients with newly diagnosed type 2 diabetes and marked hyperglycemia. Postgrad Med. 2016 Nov;128(8):747-754. doi: 10.1080/00325481.2016.1238280. Epub 2016 Sep 29."}]}}, "resultsSection": {"participantFlowModule": {"groups": [{"id": "FG000", "title": "Linagliptin 5mg + Metformin", "description": "Patients treated with linagliptin 5mg and metformin IR (1500mg to 2000mg total daily dose)"}, {"id": "FG001", "title": "Linagliptin 5mg", "description": "Patients treated with linagliptin 5mg"}], "periods": [{"title": "Overall Study", "milestones": [{"type": "STARTED", "achievements": [{"groupId": "FG000", "comment": "Randomised and treated", "numSubjects": "159"}, {"groupId": "FG001", "comment": "Randomised and treated", "numSubjects": "157"}]}, {"type": "COMPLETED", "achievements": [{"groupId": "FG000", "numSubjects": "140"}, {"groupId": "FG001", "numSubjects": "135"}]}, {"type": "NOT COMPLETED", "achievements": [{"groupId": "FG000", "numSubjects": "19"}, {"groupId": "FG001", "numSubjects": "22"}]}], "dropWithdraws": [{"type": "Adverse Event", "reasons": [{"groupId": "FG000", "numSubjects": "2"}, {"groupId": "FG001", "numSubjects": "2"}]}, {"type": "Protocol Violation", "reasons": [{"groupId": "FG000", "numSubjects": "1"}, {"groupId": "FG001", "numSubjects": "4"}]}, {"type": "Lost to Follow-up", "reasons": [{"groupId": "FG000", "numSubjects": "2"}, {"groupId": "FG001", "numSubjects": "5"}]}, {"type": "Withdrawal by Subject", "reasons": [{"groupId": "FG000", "numSubjects": "1"}, {"groupId": "FG001", "numSubjects": "2"}]}, {"type": "Reason other than stated above", "reasons": [{"groupId": "FG000", "numSubjects": "13"}, {"groupId": "FG001", "numSubjects": "9"}]}]}]}, "baselineCharacteristicsModule": {"populationDescription": "Patients from Treated Set (TS): All patients treated with at least 1 dose of study drug.", "groups": [{"id": "BG000", "title": "Linagliptin 5mg + Metformin", "description": "Patients treated with linagliptin 5mg and metformin IR (1500mg to 2000mg total daily dose)"}, {"id": "BG001", "title": "Linagliptin 5mg", "description": "Patients treated with linagliptin 5mg"}, {"id": "BG002", "title": "Total", "description": "Total of all reporting groups"}], "denoms": [{"units": "Participants", "counts": [{"groupId": "BG000", "value": "159"}, {"groupId": "BG001", "value": "157"}, {"groupId": "BG002", "value": "316"}]}], "measures": [{"title": "Age, Continuous", "paramType": "MEAN", "dispersionType": "STANDARD_DEVIATION", "unitOfMeasure": "years", "classes": [{"categories": [{"measurements": [{"groupId": "BG000", "value": "49.0", "spread": "10.9"}, {"groupId": "BG001", "value": "48.6", "spread": "11.2"}, {"groupId": "BG002", "value": "48.8", "spread": "11.0"}]}]}]}, {"title": "Sex: Female, Male", "paramType": "COUNT_OF_PARTICIPANTS", "unitOfMeasure": "Participants", "classes": [{"categories": [{"title": "Female", "measurements": [{"groupId": "BG000", "value": "90"}, {"groupId": "BG001", "value": "80"}, {"groupId": "BG002", "value": "170"}]}, {"title": "Male", "measurements": [{"groupId": "BG000", "value": "69"}, {"groupId": "BG001", "value": "77"}, {"groupId": "BG002", "value": "146"}]}]}]}, {"title": "Baseline HbA1c", "description": "Baseline HbA1c was analyzed for the Full Analysis Set which includes all patients randomised, treated with at least 1 dose of study drug, with a baseline HbA1c value and at least 1 on-treatment HbA1c value. The Linagliptin 5mg + Metformin group includes 153 participants, the Linagliptin 5mg group includes 150 participants (303 participants in total).", "paramType": "MEAN", "dispersionType": "STANDARD_DEVIATION", "unitOfMeasure": "percentage", "classes": [{"categories": [{"measurements": [{"groupId": "BG000", "value": "9.79", "spread": "1.19"}, {"groupId": "BG001", "value": "9.88", "spread": "1.10"}, {"groupId": "BG002", "value": "9.83", "spread": "1.14"}]}]}]}]}, "outcomeMeasuresModule": {"outcomeMeasures": [{"type": "PRIMARY", "title": "Change From Baseline in HbA1c After 24 Weeks", "description": "HbA1c is measured as a percentage. The change from baseline is the Week 24 HbA1c minus the baseline HbA1c. Means are adjusted for treatment and continuous baseline HbA1c", "populationDescription": "Per Protocol completers cohort (PPCC): All patients randomised, treated with at least 1 dose of study drug, with a baseline HbA1c value without important protocol violations and who completed 24 weeks of treatment, were not treated with rescue medication and have an HbA1c measurement after 24 weeks of treatment.", "reportingStatus": "POSTED", "paramType": "MEAN", "dispersionType": "Standard Error", "unitOfMeasure": "percent", "timeFrame": "Baseline and 24 weeks", "groups": [{"id": "OG000", "title": "Linagliptin 5mg + Metformin", "description": "Patients treated with linagliptin 5mg and metformin IR (1500mg to 2000mg total daily dose)"}, {"id": "OG001", "title": "Linagliptin 5mg", "description": "Patients treated with linagliptin 5mg"}], "denoms": [{"units": "Participants", "counts": [{"groupId": "OG000", "value": "132"}, {"groupId": "OG001", "value": "113"}]}], "classes": [{"categories": [{"measurements": [{"groupId": "OG000", "value": "-2.81", "spread": "0.12"}, {"groupId": "OG001", "value": "-2.02", "spread": "0.13"}]}]}], "analyses": [{"groupIds": ["OG000", "OG001"], "testedNonInferiority": false, "nonInferiorityType": "SUPERIORITY_OR_OTHER", "pValue": "<0.0001", "pValueComment": "The model includes treatment and continuous baseline HbA1c.", "statisticalMethod": "ANCOVA", "paramType": "Mean Difference (Final Values)", "paramValue": "-0.79", "ciPctValue": "95", "ciLowerLimit": "-1.13", "ciUpperLimit": "-0.46", "dispersionType": "STANDARD_ERROR_OF_MEAN", "dispersionValue": "0.17"}]}, {"type": "SECONDARY", "title": "Change From Baseline in Fasting Plasma Glucose (FPG) After 24 Weeks of Treatment", "description": "The change from baseline is the FPG after 24 weeks minus the baseline FPG. Means are adjusted for treatment, continuous baseline HbA1c and continuous baseline fasting plasma glucose.", "populationDescription": "Patients from PPCC (LOCF)", "reportingStatus": "POSTED", "paramType": "MEAN", "dispersionType": "Standard Error", "unitOfMeasure": "mg/dL", "timeFrame": "Baseline and 24 weeks", "groups": [{"id": "OG000", "title": "Linagliptin 5mg + Metformin", "description": "Patients treated with linagliptin 5mg and metformin IR (1500mg to 2000mg total daily dose)"}, {"id": "OG001", "title": "Linagliptin 5mg", "description": "Patients treated with linagliptin 5mg"}], "denoms": [{"units": "Participants", "counts": [{"groupId": "OG000", "value": "132"}, {"groupId": "OG001", "value": "113"}]}], "classes": [{"categories": [{"measurements": [{"groupId": "OG000", "value": "-47.1", "spread": "3.8"}, {"groupId": "OG001", "value": "-30.2", "spread": "4.2"}]}]}], "analyses": [{"groupIds": ["OG000", "OG001"], "testedNonInferiority": false, "nonInferiorityType": "SUPERIORITY_OR_OTHER", "pValue": "0.0032", "pValueComment": "The model includes treatment, continuous baseline HbA1c and continuous baseline FPG.", "statisticalMethod": "ANCOVA", "paramType": "Mean Difference (Final Values)", "paramValue": "-16.9", "ciPctValue": "95", "ciLowerLimit": "-28.0", "ciUpperLimit": "-5.7", "dispersionType": "STANDARD_ERROR_OF_MEAN", "dispersionValue": "5.7"}]}, {"type": "SECONDARY", "title": "Change From Baseline in HbA1c by Visit Over Time", "description": "HbA1c is measured as a percentage. The change from baseline is the HbA1c over time minus the baseline HbA1c. The model includes treatment, continuous baseline HbA1c in addition to week repeated within patient, week by baseline HbA1c interaction and week by treatment interaction.", "populationDescription": "Patients from PPCC (observed cases)", "reportingStatus": "POSTED", "paramType": "MEAN", "dispersionType": "Standard Error", "unitOfMeasure": "percent", "timeFrame": "Baseline, 6, 12, 18 and 24 weeks", "groups": [{"id": "OG000", "title": "Linagliptin 5mg + Metformin", "description": "Patients treated with linagliptin 5mg and metformin IR (1500mg to 2000mg total daily dose)"}, {"id": "OG001", "title": "Linagliptin 5mg", "description": "Patients treated with linagliptin 5mg"}], "denoms": [{"units": "Participants", "counts": [{"groupId": "OG000", "value": "132"}, {"groupId": "OG001", "value": "113"}]}], "classes": [{"title": "Change to week 6", "categories": [{"measurements": [{"groupId": "OG000", "value": "-1.97", "spread": "0.09"}, {"groupId": "OG001", "value": "-1.33", "spread": "0.10"}]}]}, {"title": "Change to week 12", "categories": [{"measurements": [{"groupId": "OG000", "value": "-2.69", "spread": "0.11"}, {"groupId": "OG001", "value": "-1.85", "spread": "0.12"}]}]}, {"title": "Change to week 18", "categories": [{"measurements": [{"groupId": "OG000", "value": "-2.79", "spread": "0.11"}, {"groupId": "OG001", "value": "-2.01", "spread": "0.12"}]}]}, {"title": "Change to week 24", "categories": [{"measurements": [{"groupId": "OG000", "value": "-2.81", "spread": "0.12"}, {"groupId": "OG001", "value": "-2.01", "spread": "0.13"}]}]}]}, {"type": "SECONDARY", "title": "Occurrence of Relative Efficacy Response (HbA1c Lowering by at Least 0.5% After 24 Weeks of Treatment)", "description": "The proportion of patients who achieved HbA1c lowering by at least 0.5% after 24 weeks of treatment.The model includes treatment, and continuous baseline HbA1c.", "populationDescription": "Patients from PPCC. Non-completers considered as failures.", "reportingStatus": "POSTED", "paramType": "NUMBER", "unitOfMeasure": "participants", "timeFrame": "Baseline and 24 weeks", "groups": [{"id": "OG000", "title": "Linagliptin 5mg + Metformin", "description": "Patients treated with linagliptin 5mg and metformin IR (1500mg to 2000mg total daily dose)"}, {"id": "OG001", "title": "Linagliptin 5mg", "description": "Patients treated with linagliptin 5mg"}], "denoms": [{"units": "Participants", "counts": [{"groupId": "OG000", "value": "132"}, {"groupId": "OG001", "value": "113"}]}], "classes": [{"categories": [{"measurements": [{"groupId": "OG000", "value": "124"}, {"groupId": "OG001", "value": "92"}]}]}], "analyses": [{"groupIds": ["OG000", "OG001"], "testedNonInferiority": false, "nonInferiorityType": "SUPERIORITY_OR_OTHER", "pValue": "0.0031", "pValueComment": "The model includes treatment and continuous baseline HbA1c.", "statisticalMethod": "Regression, Logistic", "paramType": "Odds Ratio (OR)", "paramValue": "3.830", "ciPctValue": "95", "ciLowerLimit": "1.573", "ciUpperLimit": "9.328"}]}, {"type": "SECONDARY", "title": "Occurrence of Relative Efficacy Response (HbA1c Lowering by at Least 1.0% After 24 Weeks of Treatment)", "description": "The proportion of patients who achieved HbA1c lowering by at least 1.0% after 24 weeks of treatment. The model includes treatment, and continuous baseline HbA1c.", "populationDescription": "Patients from PPCC. Non-completers considered as failures.", "reportingStatus": "POSTED", "paramType": "NUMBER", "unitOfMeasure": "participants", "timeFrame": "Baseline and 24 weeks", "groups": [{"id": "OG000", "title": "Linagliptin 5mg + Metformin", "description": "Patients treated with linagliptin 5mg and metformin IR (1500mg to 2000mg total daily dose)"}, {"id": "OG001", "title": "Linagliptin 5mg", "description": "Patients treated with linagliptin 5mg"}], "denoms": [{"units": "Participants", "counts": [{"groupId": "OG000", "value": "132"}, {"groupId": "OG001", "value": "113"}]}], "classes": [{"categories": [{"measurements": [{"groupId": "OG000", "value": "116"}, {"groupId": "OG001", "value": "82"}]}]}], "analyses": [{"groupIds": ["OG000", "OG001"], "testedNonInferiority": false, "nonInferiorityType": "SUPERIORITY_OR_OTHER", "pValue": "0.0025", "pValueComment": "The model includes treatment and continuous baseline HbA1c.", "statisticalMethod": "Regression, Logistic", "paramType": "Odds Ratio (OR)", "paramValue": "2.920", "ciPctValue": "95", "ciLowerLimit": "1.458", "ciUpperLimit": "5.849"}]}, {"type": "SECONDARY", "title": "Occurrence of Treat to Target Efficacy Response (HbA1c <7.0%) After 24 Weeks of Treatment", "description": "The proportion of patients who achieved HbA1c below 7.0% after 24 weeks of treatment. The model includes treatment, and continuous baseline HbA1c.", "populationDescription": "Patients from PPCC. Non-completers considered as failures.", "reportingStatus": "POSTED", "paramType": "NUMBER", "unitOfMeasure": "participants", "timeFrame": "Baseline and 24 weeks", "groups": [{"id": "OG000", "title": "Linagliptin 5mg + Metformin", "description": "Patients treated with linagliptin 5mg and metformin IR (1500mg to 2000mg total daily dose)"}, {"id": "OG001", "title": "Linagliptin 5mg", "description": "Patients treated with linagliptin 5mg"}], "denoms": [{"units": "Participants", "counts": [{"groupId": "OG000", "value": "132"}, {"groupId": "OG001", "value": "113"}]}], "classes": [{"categories": [{"measurements": [{"groupId": "OG000", "value": "81"}, {"groupId": "OG001", "value": "45"}]}]}], "analyses": [{"groupIds": ["OG000", "OG001"], "testedNonInferiority": false, "nonInferiorityType": "SUPERIORITY_OR_OTHER", "pValue": "0.0008", "pValueComment": "The model includes treatment and continuous baseline HbA1c.", "statisticalMethod": "Regression, Logistic", "paramType": "Odds Ratio (OR)", "paramValue": "2.448", "ciPctValue": "95", "ciLowerLimit": "1.453", "ciUpperLimit": "4.123"}]}, {"type": "SECONDARY", "title": "Change From Baseline in FPG by Visit Over Time", "description": "The change from baseline is the FPG over time minus the baseline FPG. Means are adjusted for treatment, continuous baseline HbA1c, continuous baseline FPG in addition to week repeated within patient, week by baseline FPG interaction and week by treatment interaction.", "populationDescription": "Patients from PPCC, Observed Cases", "reportingStatus": "POSTED", "paramType": "MEAN", "dispersionType": "Standard Error", "unitOfMeasure": "mg/dL", "timeFrame": "Baseline, 6, 12, 18 and 24 weeks", "groups": [{"id": "OG000", "title": "Linagliptin 5mg + Metformin", "description": "Patients treated with linagliptin 5mg and metformin IR (1500mg to 2000mg total daily dose)"}, {"id": "OG001", "title": "Linagliptin 5mg", "description": "Patients treated with linagliptin 5mg"}], "denoms": [{"units": "Participants", "counts": [{"groupId": "OG000", "value": "132"}, {"groupId": "OG001", "value": "113"}]}], "classes": [{"title": "Change to week 6", "categories": [{"measurements": [{"groupId": "OG000", "value": "-52.3", "spread": "3.37"}, {"groupId": "OG001", "value": "-31.9", "spread": "3.67"}]}]}, {"title": "Change to week 12", "categories": [{"measurements": [{"groupId": "OG000", "value": "-54.1", "spread": "3.49"}, {"groupId": "OG001", "value": "-30.5", "spread": "3.77"}]}]}, {"title": "Change to week 18", "categories": [{"measurements": [{"groupId": "OG000", "value": "-52.4", "spread": "3.20"}, {"groupId": "OG001", "value": "-35.4", "spread": "3.46"}]}]}, {"title": "Change to week 24", "categories": [{"measurements": [{"groupId": "OG000", "value": "-47.1", "spread": "3.88"}, {"groupId": "OG001", "value": "-30.1", "spread": "4.16"}]}]}]}]}, "adverseEventsModule": {"frequencyThreshold": "5", "timeFrame": "Up to 28 weeks", "eventGroups": [{"id": "EG000", "title": "Linagliptin 5mg + Metformin", "description": "Patients treated with linagliptin 5mg and metformin IR (1500mg to 2000mg total daily dose)", "seriousNumAffected": 3, "seriousNumAtRisk": 159, "otherNumAffected": 39, "otherNumAtRisk": 159}, {"id": "EG001", "title": "Linagliptin 5mg", "description": "Patients treated with linagliptin 5mg", "seriousNumAffected": 2, "seriousNumAtRisk": 157, "otherNumAffected": 51, "otherNumAtRisk": 157}], "seriousEvents": [{"term": "Coronary artery disease", "organSystem": "Cardiac disorders", "sourceVocabulary": "MEDDRA 16.0", "assessmentType": "SYSTEMATIC_ASSESSMENT", "stats": [{"groupId": "EG000", "numAffected": 0, "numAtRisk": 159}, {"groupId": "EG001", "numAffected": 1, "numAtRisk": 157}]}, {"term": "Small intestinal obstruction", "organSystem": "Gastrointestinal disorders", "sourceVocabulary": "MEDDRA 16.0", "assessmentType": "SYSTEMATIC_ASSESSMENT", "stats": [{"groupId": "EG000", "numAffected": 1, "numAtRisk": 159}, {"groupId": "EG001", "numAffected": 0, "numAtRisk": 157}]}, {"term": "Umbilical hernia, obstructive", "organSystem": "Gastrointestinal disorders", "sourceVocabulary": "MEDDRA 16.0", "assessmentType": "SYSTEMATIC_ASSESSMENT", "stats": [{"groupId": "EG000", "numAffected": 1, "numAtRisk": 159}, {"groupId": "EG001", "numAffected": 0, "numAtRisk": 157}]}, {"term": "Thyroid neoplasm", "organSystem": "Neoplasms benign, malignant and unspecified (incl cysts and polyps)", "sourceVocabulary": "MEDDRA 16.0", "assessmentType": "SYSTEMATIC_ASSESSMENT", "stats": [{"groupId": "EG000", "numAffected": 0, "numAtRisk": 159}, {"groupId": "EG001", "numAffected": 1, "numAtRisk": 157}]}, {"term": "Menstruation irregular", "organSystem": "Reproductive system and breast disorders", "sourceVocabulary": "MEDDRA 16.0", "assessmentType": "SYSTEMATIC_ASSESSMENT", "stats": [{"groupId": "EG000", "numAffected": 1, "numAtRisk": 159}, {"groupId": "EG001", "numAffected": 0, "numAtRisk": 157}]}], "otherEvents": [{"term": "Diarrhoea", "organSystem": "Gastrointestinal disorders", "sourceVocabulary": "MEDDRA 16.0", "assessmentType": "SYSTEMATIC_ASSESSMENT", "stats": [{"groupId": "EG000", "numAffected": 9, "numAtRisk": 159}, {"groupId": "EG001", "numAffected": 3, "numAtRisk": 157}]}, {"term": "Urinary tract infection", "organSystem": "Infections and infestations", "sourceVocabulary": "MEDDRA 16.0", "assessmentType": "SYSTEMATIC_ASSESSMENT", "stats": [{"groupId": "EG000", "numAffected": 10, "numAtRisk": 159}, {"groupId": "EG001", "numAffected": 14, "numAtRisk": 157}]}, {"term": "Dyslipidaemia", "organSystem": "Metabolism and nutrition disorders", "sourceVocabulary": "MEDDRA 16.0", "assessmentType": "SYSTEMATIC_ASSESSMENT", "stats": [{"groupId": "EG000", "numAffected": 14, "numAtRisk": 159}, {"groupId": "EG001", "numAffected": 22, "numAtRisk": 157}]}, {"term": "Hyperglycaemia", "organSystem": "Metabolism and nutrition disorders", "sourceVocabulary": "MEDDRA 16.0", "assessmentType": "SYSTEMATIC_ASSESSMENT", "stats": [{"groupId": "EG000", "numAffected": 5, "numAtRisk": 159}, {"groupId": "EG001", "numAffected": 20, "numAtRisk": 157}]}, {"term": "Headache", "organSystem": "Nervous system disorders", "sourceVocabulary": "MEDDRA 16.0", "assessmentType": "SYSTEMATIC_ASSESSMENT", "stats": [{"groupId": "EG000", "numAffected": 10, "numAtRisk": 159}, {"groupId": "EG001", "numAffected": 7, "numAtRisk": 157}]}]}, "moreInfoModule": {"certainAgreement": {"piSponsorEmployee": false, "restrictionType": "OTHER", "restrictiveAgreement": true, "otherDetails": "Any publication of the result of this trial must be consistent with the Boehringer Ingelheim publication policy. The rights of the investigator and of the sponsor with regard to publication of the results of this trial are described in the investigator contract."}, "pointOfContact": {"title": "Boehringer Ingelheim Call Center", "organization": "Boehringer Ingelheim Pharmaceuticals", "email": "clintriage.rdg@boehringer-ingelheim.com", "phone": "1-800-243-0127"}}}, "derivedSection": {"miscInfoModule": {"versionHolder": "2024-06-24", "removedCountries": ["Guatemala"]}, "conditionBrowseModule": {"meshes": [{"id": "D000003920", "term": "Diabetes Mellitus"}, {"id": "D000003924", "term": "Diabetes Mellitus, Type 2"}], "ancestors": [{"id": "D000044882", "term": "Glucose Metabolism Disorders"}, {"id": "D000008659", "term": "Metabolic Diseases"}, {"id": "D000004700", "term": "Endocrine System Diseases"}], "browseLeaves": [{"id": "M7115", "name": "Diabetes Mellitus", "asFound": "Diabetes Mellitus", "relevance": "HIGH"}, {"id": "M7119", "name": "Diabetes Mellitus, Type 2", "asFound": "Diabetes Mellitus, Type 2", "relevance": "HIGH"}, {"id": "M11639", "name": "Metabolic Diseases", "relevance": "LOW"}, {"id": "M25403", "name": "Glucose Metabolism Disorders", "relevance": "LOW"}, {"id": "M7862", "name": "Endocrine System Diseases", "relevance": "LOW"}], "browseBranches": [{"abbrev": "BC18", "name": "Nutritional and Metabolic Diseases"}, {"abbrev": "BC19", "name": "Gland and Hormone Related Diseases"}, {"abbrev": "All", "name": "All Conditions"}]}, "interventionBrowseModule": {"meshes": [{"id": "D000008687", "term": "Metformin"}, {"id": "D000069476", "term": "Linagliptin"}], "ancestors": [{"id": "D000007004", "term": "Hypoglycemic Agents"}, {"id": "D000045505", "term": "Physiological Effects of Drugs"}, {"id": "D000054795", "term": "Incretins"}, {"id": "D000006728", "term": "Hormones"}, {"id": "D000006730", "term": "Hormones, Hormone Substitutes, and Hormone Antagonists"}, {"id": "D000054873", "term": "Dipeptidyl-Peptidase IV Inhibitors"}, {"id": "D000011480", "term": "Protease Inhibitors"}, {"id": "D000004791", "term": "Enzyme Inhibitors"}, {"id": "D000045504", "term": "Molecular Mechanisms of Pharmacological Action"}], "browseLeaves": [{"id": "M11667", "name": "Metformin", "asFound": "Assessment", "relevance": "HIGH"}, {"id": "M445", "name": "Linagliptin", "asFound": "Output", "relevance": "HIGH"}, {"id": "M10054", "name": "Hypoglycemic Agents", "relevance": "LOW"}, {"id": "M27905", "name": "Incretins", "relevance": "LOW"}, {"id": "M9789", "name": "Hormones", "relevance": "LOW"}, {"id": "M9788", "name": "Hormone Antagonists", "relevance": "LOW"}, {"id": "M27957", "name": "Dipeptidyl-Peptidase IV Inhibitors", "relevance": "LOW"}, {"id": "M19609", "name": "HIV Protease Inhibitors", "relevance": "LOW"}, {"id": "M14343", "name": "Protease Inhibitors", "relevance": "LOW"}, {"id": "M7951", "name": "Enzyme Inhibitors", "relevance": "LOW"}], "browseBranches": [{"abbrev": "Hypo", "name": "Hypoglycemic Agents"}, {"abbrev": "All", "name": "All Drugs and Chemicals"}, {"abbrev": "Infe", "name": "Anti-Infective Agents"}]}}, "hasResults": true}