{"protocolSection": {"identificationModule": {"nctId": "NCT00955708", "orgStudyIdInfo": {"id": "LSR of ACUITY Spiral"}, "organization": {"fullName": "Boston Scientific Corporation", "class": "INDUSTRY"}, "briefTitle": "Longitudinal Surveillance Registry (LSR) of ACUITY Spiral", "officialTitle": "Condition of Approval Study: Longitudinal Surveillance Registry of the ACUITY Spiral Lead"}, "statusModule": {"statusVerifiedDate": "2018-07", "overallStatus": "TERMINATED", "whyStopped": "Early termination was granted by FDA based on study results meeting the post approval requirements.", "expandedAccessInfo": {"hasExpandedAccess": false}, "startDateStruct": {"date": "2009-08-04", "type": "ACTUAL"}, "primaryCompletionDateStruct": {"date": "2018-02-28", "type": "ACTUAL"}, "completionDateStruct": {"date": "2018-02-28", "type": "ACTUAL"}, "studyFirstSubmitDate": "2009-08-04", "studyFirstSubmitQcDate": "2009-08-07", "studyFirstPostDateStruct": {"date": "2009-08-10", "type": "ESTIMATED"}, "resultsFirstSubmitDate": "2018-07-10", "resultsFirstSubmitQcDate": "2019-01-31", "resultsFirstPostDateStruct": {"date": "2019-05-02", "type": "ACTUAL"}, "lastUpdateSubmitDate": "2019-01-31", "lastUpdatePostDateStruct": {"date": "2019-05-02", "type": "ACTUAL"}}, "sponsorCollaboratorsModule": {"responsibleParty": {"type": "SPONSOR"}, "leadSponsor": {"name": "Boston Scientific Corporation", "class": "INDUSTRY"}}, "oversightModule": {"oversightHasDmc": false}, "descriptionModule": {"briefSummary": "The primary purpose of the LSR of ACUITY Spiral is to evaluate and report on the long-term performance of the ACUITY Spiral Left Ventricular Lead."}, "conditionsModule": {"conditions": ["Heart Failure"]}, "designModule": {"studyType": "OBSERVATIONAL", "designInfo": {"observationalModel": "COHORT", "timePerspective": "PROSPECTIVE"}, "enrollmentInfo": {"count": 1308, "type": "ACTUAL"}}, "armsInterventionsModule": {"armGroups": [{"label": "Implants", "description": "Patients successfully implanted with the ACUITY Spiral Lead", "interventionNames": ["Device: ACUITY Spiral Left Ventricular Lead"]}], "interventions": [{"type": "DEVICE", "name": "ACUITY Spiral Left Ventricular Lead", "description": "The implant of the ACUITY Spiral Lead", "armGroupLabels": ["Implants"]}]}, "outcomesModule": {"primaryOutcomes": [{"measure": "Chronic Left Ventricular Lead-related Complication Free Rate", "timeFrame": "Date of enrollment to study completion (Date of 5 year follow-up, withdrawal or death)."}]}, "eligibilityModule": {"eligibilityCriteria": "Inclusion Criteria:\n\n* Has been or will be implanted with the ACUITY Spiral Lead within 29 days\n* Plans to remain in the long-term care of his/her enrolling physician\n* Is willing and capable (or appropriate legal representative) of authorizing access to and use of health information as required by an institution's institutional review board (IRB)\n* Is willing and capable (or appropriate legal representative) of providing authorization for participation in the registry\n\nExclusion Criteria:\n\n* Is unable or unwilling to comply with the protocol requirements", "healthyVolunteers": false, "sex": "ALL", "stdAges": ["CHILD", "ADULT", "OLDER_ADULT"], "studyPopulation": "The population will be a broad base representative of those recieving the ACUITY Spiral lead.", "samplingMethod": "NON_PROBABILITY_SAMPLE"}, "contactsLocationsModule": {"overallOfficials": [{"name": "Olaf Hedrich, MD", "affiliation": "Boston Scientific Corporation", "role": "STUDY_DIRECTOR"}], "locations": [{"facility": "Birmingham Heart Clinic", "city": "Birmingham", "state": "Alabama", "zip": "35235", "country": "United States", "geoPoint": {"lat": 33.52066, "lon": -86.80249}}, {"facility": "University of Alabama at Birmingham", "city": "Birmingham", "state": "Alabama", "zip": "35294", "country": "United States", "geoPoint": {"lat": 33.52066, "lon": -86.80249}}, {"facility": "Providence Alaska Medical Center", "city": "Anchorage", "state": "Alaska", "zip": "99508", "country": "United States", "geoPoint": {"lat": 61.21806, "lon": -149.90028}}, {"facility": "Tri-City Cardiology", "city": "Mesa", "state": "Arizona", "zip": "85206", "country": "United States", "geoPoint": {"lat": 33.42227, "lon": -111.82264}}, {"facility": "Arizona Arrhythmia Research Center", "city": "Scottsdale", "state": "Arizona", "zip": "85258", "country": "United States", "geoPoint": {"lat": 33.50921, "lon": -111.89903}}, {"facility": "Pima Heart Physicians", "city": "Tucson", "state": "Arizona", "zip": "85712", "country": "United States", "geoPoint": {"lat": 32.22174, "lon": -110.92648}}, {"facility": "Cardiology Associates of Northeast Arkansas", "city": "Jonesboro", "state": "Arkansas", "zip": "72401", "country": "United States", "geoPoint": {"lat": 35.8423, "lon": -90.70428}}, {"facility": "Heart Clinic Arkansas", "city": "Little Rock", "state": "Arkansas", "zip": "72205", "country": "United States", "geoPoint": {"lat": 34.74648, "lon": -92.28959}}, {"facility": "Comprehensive Cardiovascular Medical Group", "city": "Bakersfield", "state": "California", "zip": "93309", "country": "United States", "geoPoint": {"lat": 35.37329, "lon": -119.01871}}, {"facility": "Belott Cardiology", "city": "El Cajon", "state": "California", "zip": "92021", "country": "United States", "geoPoint": {"lat": 32.79477, "lon": -116.96253}}, {"facility": "Fullerton Cardiovascular", "city": "Fullerton", "state": "California", "zip": "92835", "country": "United States", "geoPoint": {"lat": 33.87029, "lon": -117.92534}}, {"facility": "Cardiac Device Rhythm Specialists", "city": "Los Angeles", "state": "California", "zip": "90033", "country": "United States", "geoPoint": {"lat": 34.05223, "lon": -118.24368}}, {"facility": "Cedars - Sinai Medical Center", "city": "Los Angeles", "state": "California", "zip": "90048", "country": "United States", "geoPoint": {"lat": 34.05223, "lon": -118.24368}}, {"facility": "Memorial Hospital", "city": "Modesto", "state": "California", "zip": "95355", "country": "United States", "geoPoint": {"lat": 37.6391, "lon": -120.99688}}, {"facility": "Cardiac Rhythm Specialists, Inc.", "city": "Northridge", "state": "California", "zip": "91325", "country": "United States", "geoPoint": {"lat": 34.22834, "lon": -118.53675}}, {"facility": "Cardiovascular Consultants", "city": "Oakland", "state": "California", "zip": "94609", "country": "United States", "geoPoint": {"lat": 37.80437, "lon": -122.2708}}, {"facility": "Orange County Heart Institute", "city": "Orange", "state": "California", "zip": "92868", "country": "United States", "geoPoint": {"lat": 33.78779, "lon": -117.85311}}, {"facility": "Eisenhower Medical Center", "city": "Rancho Mirage", "state": "California", "zip": "92270", "country": "United States", "geoPoint": {"lat": 33.73974, "lon": -116.41279}}, {"facility": "Truong D Duong Cardiac Electrophysiology", "city": "Riverside", "state": "California", "zip": "92501", "country": "United States", "geoPoint": {"lat": 33.95335, "lon": -117.39616}}, {"facility": "Regional Cardiology Associates", "city": "Sacramento", "state": "California", "zip": "95819", "country": "United States", "geoPoint": {"lat": 38.58157, "lon": -121.4944}}, {"facility": "Sansum Clinic", "city": "Santa Barbara", "state": "California", "zip": "93102", "country": "United States", "geoPoint": {"lat": 34.42083, "lon": -119.69819}}, {"facility": "Bethesda Memorial Hospital", "city": "Atlantis", "state": "Florida", "zip": "33462", "country": "United States", "geoPoint": {"lat": 26.5909, "lon": -80.10088}}, {"facility": "Heart and Vascular Institute of Florida", "city": "Clearwater", "state": "Florida", "zip": "33756", "country": "United States", "geoPoint": {"lat": 27.96585, "lon": -82.8001}}, {"facility": "Miami International Cardiology Consultants", "city": "Miami", "state": "Florida", "zip": "33137", "country": "United States", "geoPoint": {"lat": 25.77427, "lon": -80.19366}}, {"facility": "Complete Cardiology Care", "city": "New Smyrna Beach", "state": "Florida", "zip": "32168", "country": "United States", "geoPoint": {"lat": 29.02582, "lon": -80.927}}, {"facility": "Orlando Regional Hospital", "city": "Orlando", "state": "Florida", "zip": "32806", "country": "United States", "geoPoint": {"lat": 28.53834, "lon": -81.37924}}, {"facility": "Tallahassee Memorial Hospital", "city": "Tallahassee", "state": "Florida", "zip": "32308", "country": "United States", "geoPoint": {"lat": 30.43826, "lon": -84.28073}}, {"facility": "West Coast Arrhythmia Center", "city": "Trinity", "state": "Florida", "zip": "34655", "country": "United States", "geoPoint": {"lat": 28.18085, "lon": -82.68177}}, {"facility": "Phoebe Putney Memorial Hospital", "city": "Albany", "state": "Georgia", "zip": "31701", "country": "United States", "geoPoint": {"lat": 31.57851, "lon": -84.15574}}, {"facility": "Medical College of Georgia Health", "city": "Augusta", "state": "Georgia", "zip": "30912", "country": "United States", "geoPoint": {"lat": 33.47097, "lon": -81.97484}}, {"facility": "Northeast Georgia Heart Center", "city": "Gainesville", "state": "Georgia", "zip": "30501", "country": "United States", "geoPoint": {"lat": 34.29788, "lon": -83.82407}}, {"facility": "Georgia Arrhythmia Consultants", "city": "Macon", "state": "Georgia", "zip": "31201", "country": "United States", "geoPoint": {"lat": 32.84069, "lon": -83.6324}}, {"facility": "St Lukes Idaho Cardiology Assoc.", "city": "Boise", "state": "Idaho", "zip": "83712", "country": "United States", "geoPoint": {"lat": 43.6135, "lon": -116.20345}}, {"facility": "Alexian Brothers Medical Center", "city": "Elk Grove Village", "state": "Illinois", "zip": "60007", "country": "United States", "geoPoint": {"lat": 42.00392, "lon": -87.97035}}, {"facility": "Heart Care Research Foundation", "city": "Mokena", "state": "Illinois", "zip": "60448", "country": "United States", "geoPoint": {"lat": 41.52614, "lon": -87.88922}}, {"facility": "Northern Indiana Research Alliance", "city": "Fort Wayne", "state": "Indiana", "zip": "46804", "country": "United States", "geoPoint": {"lat": 41.1306, "lon": -85.12886}}, {"facility": "St. Mary Medical Center - Indiana", "city": "Hobart", "state": "Indiana", "zip": "46342", "country": "United States", "geoPoint": {"lat": 41.53226, "lon": -87.25504}}, {"facility": "Via-Christi Regional Medical Center", "city": "Wichita", "state": "Kansas", "zip": "67214", "country": "United States", "geoPoint": {"lat": 37.69224, "lon": -97.33754}}, {"facility": "Southern Kentucky Heart Institute", "city": "Bowling Green", "state": "Kentucky", "zip": "42101", "country": "United States", "geoPoint": {"lat": 36.99032, "lon": -86.4436}}, {"facility": "Central Baptist Hospital", "city": "Lexington", "state": "Kentucky", "zip": "40503", "country": "United States", "geoPoint": {"lat": 37.98869, "lon": -84.47772}}, {"facility": "St. Joseph Hospital", "city": "Lexington", "state": "Kentucky", "zip": "40504", "country": "United States", "geoPoint": {"lat": 37.98869, "lon": -84.47772}}, {"facility": "Commonwealth Cardiology", "city": "Louisville", "state": "Kentucky", "zip": "40202", "country": "United States", "geoPoint": {"lat": 38.25424, "lon": -85.75941}}, {"facility": "Baltimore Heart Association", "city": "Randallstown", "state": "Maryland", "zip": "21133", "country": "United States", "geoPoint": {"lat": 39.36733, "lon": -76.79525}}, {"facility": "Massachusetts General Hospital", "city": "Boston", "state": "Massachusetts", "zip": "02114", "country": "United States", "geoPoint": {"lat": 42.35843, "lon": -71.05977}}, {"facility": "Steward St. Elizabeth's Medical Center", "city": "Boston", "state": "Massachusetts", "zip": "02135", "country": "United States", "geoPoint": {"lat": 42.35843, "lon": -71.05977}}, {"facility": "St. Joseph Mercy Hospital", "city": "Ann Arbor", "state": "Michigan", "zip": "48106", "country": "United States", "geoPoint": {"lat": 42.27756, "lon": -83.74088}}, {"facility": "Heart Care", "city": "Detroit", "state": "Michigan", "zip": "48201", "country": "United States", "geoPoint": {"lat": 42.33143, "lon": -83.04575}}, {"facility": "Cardiology Consultants of East Michigan", "city": "Flint", "state": "Michigan", "zip": "48507", "country": "United States", "geoPoint": {"lat": 43.01253, "lon": -83.68746}}, {"facility": "West Michigan Heart", "city": "Grand Rapids", "state": "Michigan", "zip": "49301", "country": "United States", "geoPoint": {"lat": 42.96336, "lon": -85.66809}}, {"facility": "Providence Hospital", "city": "Southfield", "state": "Michigan", "zip": "48075", "country": "United States", "geoPoint": {"lat": 42.47337, "lon": -83.22187}}, {"facility": "St. Mary's Duluth Clinic", "city": "Duluth", "state": "Minnesota", "zip": "55805", "country": "United States", "geoPoint": {"lat": 46.78327, "lon": -92.10658}}, {"facility": "Missouri Heart Center", "city": "Columbia", "state": "Missouri", "zip": "65201", "country": "United States", "geoPoint": {"lat": 38.95171, "lon": -92.33407}}, {"facility": "Research Medical Center", "city": "Kansas City", "state": "Missouri", "zip": "64114", "country": "United States", "geoPoint": {"lat": 39.09973, "lon": -94.57857}}, {"facility": "Metro Heart Group South County", "city": "Saint Louis", "state": "Missouri", "zip": "63128", "country": "United States", "geoPoint": {"lat": 38.62727, "lon": -90.19789}}, {"facility": "Cox Health", "city": "Springfield", "state": "Missouri", "zip": "65807", "country": "United States", "geoPoint": {"lat": 37.21533, "lon": -93.29824}}, {"facility": "Nebraska Heart Institute", "city": "Lincoln", "state": "Nebraska", "zip": "68526", "country": "United States", "geoPoint": {"lat": 40.8, "lon": -96.66696}}, {"facility": "New Jersey Cardiology Associates", "city": "West Orange", "state": "New Jersey", "zip": "07052", "country": "United States", "geoPoint": {"lat": 40.79871, "lon": -74.23904}}, {"facility": "Capital Cardiology Associates", "city": "Albany", "state": "New York", "zip": "12208", "country": "United States", "geoPoint": {"lat": 42.65258, "lon": -73.75623}}, {"facility": "Island Cardiac Specialists", "city": "Garden City", "state": "New York", "zip": "11530", "country": "United States", "geoPoint": {"lat": 40.72677, "lon": -73.6343}}, {"facility": "Columbia University Medical Center", "city": "New York", "state": "New York", "zip": "10032", "country": "United States", "geoPoint": {"lat": 40.71427, "lon": -74.00597}}, {"facility": "Mid-Carolina Cardiology", "city": "Charlotte", "state": "North Carolina", "zip": "28204", "country": "United States", "geoPoint": {"lat": 35.22709, "lon": -80.84313}}, {"facility": "Pinehurst Cardiology Consultants", "city": "Pinehurst", "state": "North Carolina", "zip": "28374", "country": "United States", "geoPoint": {"lat": 35.19543, "lon": -79.46948}}, {"facility": "Christ Hospital - Cincinnati", "city": "Cincinnati", "state": "Ohio", "zip": "45219", "country": "United States", "geoPoint": {"lat": 39.12713, "lon": -84.51435}}, {"facility": "Ohio State University Medical Center", "city": "Columbus", "state": "Ohio", "zip": "43210", "country": "United States", "geoPoint": {"lat": 39.96118, "lon": -82.99879}}, {"facility": "Riverside Methodist Hospital", "city": "Columbus", "state": "Ohio", "zip": "43214", "country": "United States", "geoPoint": {"lat": 39.96118, "lon": -82.99879}}, {"facility": "Regional Cardiovascular Medical Center", "city": "Steubenville", "state": "Ohio", "zip": "43952", "country": "United States", "geoPoint": {"lat": 40.36979, "lon": -80.63396}}, {"facility": "Genesis Healthcare System", "city": "Zanesville", "state": "Ohio", "zip": "43701", "country": "United States", "geoPoint": {"lat": 39.94035, "lon": -82.01319}}, {"facility": "Hillcrest Medical Center", "city": "Tulsa", "state": "Oklahoma", "zip": "74101", "country": "United States", "geoPoint": {"lat": 36.15398, "lon": -95.99277}}, {"facility": "Abington Memorial Hospital", "city": "Abington", "state": "Pennsylvania", "zip": "19001", "country": "United States", "geoPoint": {"lat": 40.12067, "lon": -75.11795}}, {"facility": "Associated Cardiologists", "city": "Harrisburg", "state": "Pennsylvania", "zip": "17112", "country": "United States", "geoPoint": {"lat": 40.2737, "lon": -76.88442}}, {"facility": "Drexel University College of Medicine", "city": "Philadelphia", "state": "Pennsylvania", "zip": "19102", "country": "United States", "geoPoint": {"lat": 39.95233, "lon": -75.16379}}, {"facility": "Hospital of the University of Pennsylvania", "city": "Philadelphia", "state": "Pennsylvania", "zip": "19104", "country": "United States", "geoPoint": {"lat": 39.95233, "lon": -75.16379}}, {"facility": "Albert Einstein Medical Center", "city": "Philadelphia", "state": "Pennsylvania", "zip": "19141", "country": "United States", "geoPoint": {"lat": 39.95233, "lon": -75.16379}}, {"facility": "Lankenau Hospital", "city": "Wynnewood", "state": "Pennsylvania", "zip": "19096", "country": "United States", "geoPoint": {"lat": 40.00289, "lon": -75.27074}}, {"facility": "Cardiovascular Associates of Rhode Island", "city": "Providence", "state": "Rhode Island", "zip": "02904", "country": "United States", "geoPoint": {"lat": 41.82399, "lon": -71.41283}}, {"facility": "Columbia Cardiology", "city": "Columbia", "state": "South Carolina", "zip": "29204", "country": "United States", "geoPoint": {"lat": 34.00071, "lon": -81.03481}}, {"facility": "PeeDee Cardiology Associates", "city": "Florence", "state": "South Carolina", "zip": "29505", "country": "United States", "geoPoint": {"lat": 34.19543, "lon": -79.76256}}, {"facility": "Heart Doctors", "city": "Rapid City", "state": "South Dakota", "zip": "57701", "country": "United States", "geoPoint": {"lat": 44.08054, "lon": -103.23101}}, {"facility": "Memphis Heart Clinic", "city": "Memphis", "state": "Tennessee", "zip": "37501", "country": "United States", "geoPoint": {"lat": 35.14953, "lon": -90.04898}}, {"facility": "Amarillo Heart Group", "city": "Amarillo", "state": "Texas", "zip": "79106", "country": "United States", "geoPoint": {"lat": 35.222, "lon": -101.8313}}, {"facility": "Texas Cardiac Arrhythmia Research", "city": "Austin", "state": "Texas", "zip": "78705", "country": "United States", "geoPoint": {"lat": 30.26715, "lon": -97.74306}}, {"facility": "Heart Hospital of Austin", "city": "Austin", "state": "Texas", "zip": "78756", "country": "United States", "geoPoint": {"lat": 30.26715, "lon": -97.74306}}, {"facility": "Cardiology Care Consultants", "city": "El Paso", "state": "Texas", "zip": "79902", "country": "United States", "geoPoint": {"lat": 31.75872, "lon": -106.48693}}, {"facility": "Hall Garcia Cardiology", "city": "Houston", "state": "Texas", "zip": "77030", "country": "United States", "geoPoint": {"lat": 29.76328, "lon": -95.36327}}, {"facility": "Houston Electrophysiology Associates", "city": "Houston", "state": "Texas", "zip": "77030", "country": "United States", "geoPoint": {"lat": 29.76328, "lon": -95.36327}}, {"facility": "Willowbrook Cardiovascular Associates", "city": "Houston", "state": "Texas", "zip": "77030", "country": "United States", "geoPoint": {"lat": 29.76328, "lon": -95.36327}}, {"facility": "EP Heart", "city": "The Woodlands", "state": "Texas", "zip": "77384", "country": "United States", "geoPoint": {"lat": 30.15799, "lon": -95.48938}}, {"facility": "Tyler Cardiovascular Consultants", "city": "Tyler", "state": "Texas", "zip": "75701", "country": "United States", "geoPoint": {"lat": 32.35126, "lon": -95.30106}}, {"facility": "Intermountain Medical Center", "city": "Murray", "state": "Utah", "zip": "84107", "country": "United States", "geoPoint": {"lat": 40.66689, "lon": -111.88799}}, {"facility": "Dixie Regional Medical Center", "city": "Saint George", "state": "Utah", "zip": "84790", "country": "United States", "geoPoint": {"lat": 37.10415, "lon": -113.58412}}, {"facility": "Virginia Heart", "city": "Falls Church", "state": "Virginia", "zip": "22042", "country": "United States", "geoPoint": {"lat": 38.88233, "lon": -77.17109}}, {"facility": "Richmond Cardiology Associates", "city": "Mechanicsville", "state": "Virginia", "zip": "23116", "country": "United States", "geoPoint": {"lat": 37.60876, "lon": -77.37331}}, {"facility": "Overlake Medical Center", "city": "Bellevue", "state": "Washington", "zip": "98004", "country": "United States", "geoPoint": {"lat": 47.61038, "lon": -122.20068}}, {"facility": "St. Joseph Hospital", "city": "Bellingham", "state": "Washington", "zip": "98225", "country": "United States", "geoPoint": {"lat": 48.75955, "lon": -122.48822}}, {"facility": "Swedish Medical Center", "city": "Seattle", "state": "Washington", "zip": "98133", "country": "United States", "geoPoint": {"lat": 47.60621, "lon": -122.33207}}, {"facility": "Heart Clinics Northwest", "city": "Spokane", "state": "Washington", "zip": "99204", "country": "United States", "geoPoint": {"lat": 47.65966, "lon": -117.42908}}, {"facility": "Wheaton Franciscan Healthcare", "city": "Wauwatosa", "state": "Wisconsin", "zip": "53226", "country": "United States", "geoPoint": {"lat": 43.04946, "lon": -88.00759}}]}, "ipdSharingStatementModule": {"ipdSharing": "NO"}}, "resultsSection": {"participantFlowModule": {"groups": [{"id": "FG000", "title": "Implants", "description": "Patients successfully implanted or underwent an attempted implant with the ACUITY Spiral Lead\n\nACUITY Spiral Left Ventricular Lead: The implant of the ACUITY Spiral Lead"}], "periods": [{"title": "Overall Study", "milestones": [{"type": "STARTED", "achievements": [{"groupId": "FG000", "numSubjects": "1308"}]}, {"type": "COMPLETED", "achievements": [{"groupId": "FG000", "numSubjects": "250"}]}, {"type": "NOT COMPLETED", "achievements": [{"groupId": "FG000", "numSubjects": "1058"}]}], "dropWithdraws": [{"type": "Death", "reasons": [{"groupId": "FG000", "numSubjects": "269"}]}, {"type": "Lost to Follow-up", "reasons": [{"groupId": "FG000", "numSubjects": "72"}]}, {"type": "Physician Decision", "reasons": [{"groupId": "FG000", "numSubjects": "36"}]}, {"type": "Protocol Violation", "reasons": [{"groupId": "FG000", "numSubjects": "134"}]}, {"type": "Registry Conclusion", "reasons": [{"groupId": "FG000", "numSubjects": "186"}]}, {"type": "Product removed from service", "reasons": [{"groupId": "FG000", "numSubjects": "94"}]}, {"type": "Patient Refused to participate further", "reasons": [{"groupId": "FG000", "numSubjects": "116"}]}, {"type": "Closure of study location", "reasons": [{"groupId": "FG000", "numSubjects": "60"}]}, {"type": "Patient changed care provider/moved", "reasons": [{"groupId": "FG000", "numSubjects": "91"}]}]}]}, "baselineCharacteristicsModule": {"populationDescription": "Baseline data includes data on the patients that received an implant or underwent an attempted implant. This does not include intent patients who were consented but did not participate in the trial and did not undergo anesthesia.", "groups": [{"id": "BG000", "title": "Implants", "description": "Patients successfully implanted or underwent an attempted implant with the ACUITY Spiral Lead\n\nACUITY Spiral Left Ventricular Lead: The implant of the ACUITY Spiral Lead"}], "denoms": [{"units": "Participants", "counts": [{"groupId": "BG000", "value": "1303"}]}], "measures": [{"title": "Age, Categorical", "paramType": "COUNT_OF_PARTICIPANTS", "unitOfMeasure": "Participants", "classes": [{"denoms": [{"units": "Participants", "counts": [{"groupId": "BG000", "value": "1303"}]}], "categories": [{"title": "<=18 years", "measurements": [{"groupId": "BG000", "value": "0"}]}, {"title": "Between 18 and 65 years", "measurements": [{"groupId": "BG000", "value": "387"}]}, {"title": ">=65 years", "measurements": [{"groupId": "BG000", "value": "916"}]}]}]}, {"title": "Sex: Female, Male", "paramType": "COUNT_OF_PARTICIPANTS", "unitOfMeasure": "Participants", "classes": [{"denoms": [{"units": "Participants", "counts": [{"groupId": "BG000", "value": "1303"}]}], "categories": [{"title": "Female", "measurements": [{"groupId": "BG000", "value": "357"}]}, {"title": "Male", "measurements": [{"groupId": "BG000", "value": "946"}]}]}]}, {"title": "Race/Ethnicity, Customized", "paramType": "COUNT_OF_PARTICIPANTS", "unitOfMeasure": "Participants", "classes": [{"title": "American Indian or Alaska Native", "denoms": [{"units": "Participants", "counts": [{"groupId": "BG000", "value": "1303"}]}], "categories": [{"measurements": [{"groupId": "BG000", "value": "6"}]}]}, {"title": "Asian", "denoms": [{"units": "Participants", "counts": [{"groupId": "BG000", "value": "1303"}]}], "categories": [{"measurements": [{"groupId": "BG000", "value": "16"}]}]}, {"title": "Native Hawaiian or Pacific Islander", "denoms": [{"units": "Participants", "counts": [{"groupId": "BG000", "value": "1303"}]}], "categories": [{"measurements": [{"groupId": "BG000", "value": "5"}]}]}, {"title": "Black or African American", "denoms": [{"units": "Participants", "counts": [{"groupId": "BG000", "value": "1303"}]}], "categories": [{"measurements": [{"groupId": "BG000", "value": "124"}]}]}, {"title": "White", "denoms": [{"units": "Participants", "counts": [{"groupId": "BG000", "value": "1303"}]}], "categories": [{"measurements": [{"groupId": "BG000", "value": "1065"}]}]}, {"title": "Bosnian", "denoms": [{"units": "Participants", "counts": [{"groupId": "BG000", "value": "1303"}]}], "categories": [{"measurements": [{"groupId": "BG000", "value": "1"}]}]}, {"title": "East Indian", "denoms": [{"units": "Participants", "counts": [{"groupId": "BG000", "value": "1303"}]}], "categories": [{"measurements": [{"groupId": "BG000", "value": "1"}]}]}, {"title": "Filipino", "denoms": [{"units": "Participants", "counts": [{"groupId": "BG000", "value": "1303"}]}], "categories": [{"measurements": [{"groupId": "BG000", "value": "1"}]}]}, {"title": "Middle Eastern", "denoms": [{"units": "Participants", "counts": [{"groupId": "BG000", "value": "1303"}]}], "categories": [{"measurements": [{"groupId": "BG000", "value": "1"}]}]}, {"title": "Russian", "denoms": [{"units": "Participants", "counts": [{"groupId": "BG000", "value": "1303"}]}], "categories": [{"measurements": [{"groupId": "BG000", "value": "1"}]}]}, {"title": "Unknown", "denoms": [{"units": "Participants", "counts": [{"groupId": "BG000", "value": "1303"}]}], "categories": [{"measurements": [{"groupId": "BG000", "value": "29"}]}]}, {"title": "Hispanic or Latino", "denoms": [{"units": "Participants", "counts": [{"groupId": "BG000", "value": "1303"}]}], "categories": [{"measurements": [{"groupId": "BG000", "value": "52"}]}]}, {"title": "Vietnamese", "denoms": [{"units": "Participants", "counts": [{"groupId": "BG000", "value": "1303"}]}], "categories": [{"measurements": [{"groupId": "BG000", "value": "1"}]}]}]}, {"title": "Region of Enrollment", "paramType": "NUMBER", "unitOfMeasure": "participants", "classes": [{"title": "Puerto Rico", "denoms": [{"units": "Participants", "counts": [{"groupId": "BG000", "value": "1303"}]}], "categories": [{"measurements": [{"groupId": "BG000", "value": "2"}]}]}, {"title": "United States", "denoms": [{"units": "Participants", "counts": [{"groupId": "BG000", "value": "1303"}]}], "categories": [{"measurements": [{"groupId": "BG000", "value": "1301"}]}]}]}, {"title": "QRS Duration", "populationDescription": "QRS Duration value unavailable for 49 subjects", "paramType": "MEAN", "dispersionType": "STANDARD_DEVIATION", "unitOfMeasure": "Milliseconds", "classes": [{"denoms": [{"units": "Participants", "counts": [{"groupId": "BG000", "value": "1254"}]}], "categories": [{"measurements": [{"groupId": "BG000", "value": "150", "spread": "31"}]}]}]}, {"title": "PR Interval", "populationDescription": "PR Interval (ms) unavailable for 354 subjects", "paramType": "MEAN", "dispersionType": "STANDARD_DEVIATION", "unitOfMeasure": "milliseconds", "classes": [{"denoms": [{"units": "Participants", "counts": [{"groupId": "BG000", "value": "958"}]}], "categories": [{"measurements": [{"groupId": "BG000", "value": "183", "spread": "55"}]}]}]}, {"title": "Left Ventricular Ejection Fraction", "populationDescription": "Left Ventricular Ejection Fraction unavailable for 25 subjects", "paramType": "MEAN", "dispersionType": "STANDARD_DEVIATION", "unitOfMeasure": "percentage", "classes": [{"denoms": [{"units": "Participants", "counts": [{"groupId": "BG000", "value": "1278"}]}], "categories": [{"measurements": [{"groupId": "BG000", "value": "26.8", "spread": "7.9"}]}]}]}, {"title": "Arrhythmia Conduction Disorder", "populationDescription": "Arrhythmia Conduction Disorder was unavailable for 23 subjects", "paramType": "COUNT_OF_PARTICIPANTS", "unitOfMeasure": "Participants", "classes": [{"denoms": [{"units": "Participants", "counts": [{"groupId": "BG000", "value": "1285"}]}], "categories": [{"title": "Left Bundle Branch Block", "measurements": [{"groupId": "BG000", "value": "691"}]}, {"title": "Right Bundle Branch Block", "measurements": [{"groupId": "BG000", "value": "149"}]}, {"title": "Nonspecific Intraventricular Delay", "measurements": [{"groupId": "BG000", "value": "228"}]}, {"title": "No Arrhythmia Conduction Disorder", "measurements": [{"groupId": "BG000", "value": "140"}]}, {"title": "Unknown", "measurements": [{"groupId": "BG000", "value": "77"}]}]}]}]}, "outcomeMeasuresModule": {"outcomeMeasures": [{"type": "PRIMARY", "title": "Chronic Left Ventricular Lead-related Complication Free Rate", "reportingStatus": "POSTED", "paramType": "NUMBER", "dispersionType": "95% Confidence Interval", "unitOfMeasure": "Percent free from event", "timeFrame": "Date of enrollment to study completion (Date of 5 year follow-up, withdrawal or death).", "groups": [{"id": "OG000", "title": "Implants", "description": "Patients successfully implanted or underwent an attempted implant with the ACUITY Spiral Lead\n\nACUITY Spiral Left Ventricular Lead: The implant of the ACUITY Spiral Lead"}], "denoms": [{"units": "Participants", "counts": [{"groupId": "OG000", "value": "1303"}]}], "classes": [{"categories": [{"measurements": [{"groupId": "OG000", "value": "95.3", "lowerLimit": "94.0", "upperLimit": "NA", "comment": "Interval is only calculated for the lower end. The method is defined as the lower one-sided 95% confidence interval compared to the confidence boundary of 92.5%."}]}]}], "analyses": [{"groupIds": ["OG000"], "groupDescription": "The endpoint data reflected here is a modified primary endpoint analysis requested by the Food and Drug Administration early in the registry to include data that is related to the left ventricular lead function in a chronic setting.", "nonInferiorityType": "OTHER", "nonInferiorityComment": "Primary endpoint was estimated using the Kaplan-Meier method. In addition, Greenwood's formula was used to calculate the lower one-sided 95% confidence bound.", "paramType": "Kaplan-Meier Rate", "paramValue": "95.3", "ciPctValue": "95.0", "ciNumSides": "ONE_SIDED", "ciLowerLimit": "94.0", "estimateComment": "The lower one-sided 95% confidence bound was pre-specified to be greater than 92.5%."}, {"groupIds": ["OG000"], "groupDescription": "The non-modified primary endpoint analysis initially included confirmed chronic LV lead related complications that result in permanent loss of therapy, invasive intervention, injury or death, and are deemed attributable to a structural lead failure by an independent Clinical Events Committee (CEC). These results are represented here.", "nonInferiorityType": "OTHER", "nonInferiorityComment": "Primary endpoint was estimated using the Kaplan-Meier method. In addition, Greenwood's formula was used to calculate the lower one-sided 95% confidence bound.", "paramType": "Kaplan-Meier Rate", "paramValue": "100", "ciPctValue": "95", "ciNumSides": "ONE_SIDED", "ciLowerLimit": "100"}]}]}, "adverseEventsModule": {"frequencyThreshold": "1", "timeFrame": "Adverse Events were collected from the time of enrollment into the trial through completion of the registry at 5 years, date of withdrawal or death.", "description": "Adverse event reporting for the LSR of ACUITY Spiral trial included all pulse generator, or lead (Left Ventricular, Right Ventricular or atrial leads are all included) related events occurring at or after implant. Reportable events are defined as inappropriate performance of the pulse generator or leads that result in an undesirable or unanticipated procedure or clinical occurrence.", "eventGroups": [{"id": "EG000", "title": "Implants", "description": "Patients successfully implanted or underwent an attempted implant with the ACUITY Spiral Lead\n\nACUITY Spiral Left Ventricular Lead: The implant of the ACUITY Spiral Lead", "deathsNumAffected": 269, "deathsNumAtRisk": 1303, "seriousNumAffected": 117, "seriousNumAtRisk": 1303, "otherNumAffected": 131, "otherNumAtRisk": 1303}], "seriousEvents": [{"term": "Extracardiac Stimulation, Left Ventricular", "organSystem": "Cardiac disorders", "assessmentType": "SYSTEMATIC_ASSESSMENT", "stats": [{"groupId": "EG000", "numEvents": 10, "numAffected": 10, "numAtRisk": 1303}]}, {"term": "Lead Dislodgment, Left Ventricular", "organSystem": "Cardiac disorders", "assessmentType": "SYSTEMATIC_ASSESSMENT", "stats": [{"groupId": "EG000", "numEvents": 29, "numAffected": 29, "numAtRisk": 1303}]}, {"term": "Threshold Related, Left Ventricular", "organSystem": "Cardiac disorders", "assessmentType": "SYSTEMATIC_ASSESSMENT", "stats": [{"groupId": "EG000", "numEvents": 19, "numAffected": 19, "numAtRisk": 1303}]}, {"term": "Ventricular Tachycardia", "organSystem": "Cardiac disorders", "assessmentType": "SYSTEMATIC_ASSESSMENT", "stats": [{"groupId": "EG000", "numEvents": 2, "numAffected": 2, "numAtRisk": 1303}]}, {"term": "Cardiac Vessel Dissection", "organSystem": "Surgical and medical procedures", "assessmentType": "SYSTEMATIC_ASSESSMENT", "stats": [{"groupId": "EG000", "numEvents": 1, "numAffected": 1, "numAtRisk": 1303}]}, {"term": "Lead Revision for no heart failure improvement, Left Ventricular", "organSystem": "Surgical and medical procedures", "assessmentType": "SYSTEMATIC_ASSESSMENT", "stats": [{"groupId": "EG000", "numEvents": 1, "numAffected": 1, "numAtRisk": 1303}]}, {"term": "Accelerated Ventricular Rhythm", "organSystem": "Cardiac disorders", "assessmentType": "SYSTEMATIC_ASSESSMENT", "stats": [{"groupId": "EG000", "numEvents": 2, "numAffected": 2, "numAtRisk": 1303}]}, {"term": "Atrial Arrhythmia", "organSystem": "Cardiac disorders", "assessmentType": "SYSTEMATIC_ASSESSMENT", "stats": [{"groupId": "EG000", "numEvents": 1, "numAffected": 1, "numAtRisk": 1303}]}, {"term": "Pulse Generator Possible Malfunction", "organSystem": "Product Issues", "assessmentType": "SYSTEMATIC_ASSESSMENT", "stats": [{"groupId": "EG000", "numEvents": 2, "numAffected": 2, "numAtRisk": 1303}]}, {"term": "Pulse Generator Related", "organSystem": "Surgical and medical procedures", "assessmentType": "SYSTEMATIC_ASSESSMENT", "notes": "Lead to device connection re-evaluated", "stats": [{"groupId": "EG000", "numEvents": 1, "numAffected": 1, "numAtRisk": 1303}]}, {"term": "Erosion/Migration", "organSystem": "Surgical and medical procedures", "assessmentType": "SYSTEMATIC_ASSESSMENT", "stats": [{"groupId": "EG000", "numEvents": 10, "numAffected": 9, "numAtRisk": 1303}]}, {"term": "Heart Failure Decompensation", "organSystem": "Cardiac disorders", "assessmentType": "SYSTEMATIC_ASSESSMENT", "stats": [{"groupId": "EG000", "numEvents": 2, "numAffected": 2, "numAtRisk": 1303}]}, {"term": "Hematoma", "organSystem": "Blood and lymphatic system disorders", "assessmentType": "SYSTEMATIC_ASSESSMENT", "stats": [{"groupId": "EG000", "numEvents": 2, "numAffected": 2, "numAtRisk": 1303}]}, {"term": "Inability to provide therapy, pulse generator", "organSystem": "Surgical and medical procedures", "assessmentType": "SYSTEMATIC_ASSESSMENT", "stats": [{"groupId": "EG000", "numEvents": 5, "numAffected": 5, "numAtRisk": 1303}]}, {"term": "Infection, Procedure related", "organSystem": "Surgical and medical procedures", "assessmentType": "SYSTEMATIC_ASSESSMENT", "stats": [{"groupId": "EG000", "numEvents": 10, "numAffected": 10, "numAtRisk": 1303}]}, {"term": "Pneumothorax", "organSystem": "Injury, poisoning and procedural complications", "assessmentType": "SYSTEMATIC_ASSESSMENT", "stats": [{"groupId": "EG000", "numEvents": 1, "numAffected": 1, "numAtRisk": 1303}]}, {"term": "Premature Ventricular Contractions (PVCs)", "organSystem": "Cardiac disorders", "assessmentType": "SYSTEMATIC_ASSESSMENT", "stats": [{"groupId": "EG000", "numEvents": 1, "numAffected": 1, "numAtRisk": 1303}]}, {"term": "Impedance Related, Atrial Lead", "organSystem": "Cardiac disorders", "assessmentType": "SYSTEMATIC_ASSESSMENT", "stats": [{"groupId": "EG000", "numEvents": 1, "numAffected": 1, "numAtRisk": 1303}]}, {"term": "Infection, Atrial Lead", "organSystem": "Injury, poisoning and procedural complications", "assessmentType": "SYSTEMATIC_ASSESSMENT", "stats": [{"groupId": "EG000", "numEvents": 1, "numAffected": 1, "numAtRisk": 1303}]}, {"term": "Lead Dislodgment, Atrial Lead", "organSystem": "Cardiac disorders", "assessmentType": "SYSTEMATIC_ASSESSMENT", "stats": [{"groupId": "EG000", "numEvents": 6, "numAffected": 6, "numAtRisk": 1303}]}, {"term": "Sensing Related, Atrial Lead", "organSystem": "Cardiac disorders", "assessmentType": "SYSTEMATIC_ASSESSMENT", "stats": [{"groupId": "EG000", "numEvents": 1, "numAffected": 1, "numAtRisk": 1303}]}, {"term": "Threshold Related, Atrial Lead", "organSystem": "Cardiac disorders", "assessmentType": "SYSTEMATIC_ASSESSMENT", "stats": [{"groupId": "EG000", "numEvents": 2, "numAffected": 2, "numAtRisk": 1303}]}, {"term": "Cardiac Perforation, Right Ventricular", "organSystem": "Surgical and medical procedures", "assessmentType": "SYSTEMATIC_ASSESSMENT", "stats": [{"groupId": "EG000", "numEvents": 1, "numAffected": 1, "numAtRisk": 1303}]}, {"term": "Impedance Related, Right Ventricular", "organSystem": "Cardiac disorders", "assessmentType": "SYSTEMATIC_ASSESSMENT", "stats": [{"groupId": "EG000", "numEvents": 3, "numAffected": 3, "numAtRisk": 1303}]}, {"term": "Inappropriate Tachy Therapy, Right Ventricular", "organSystem": "Cardiac disorders", "assessmentType": "SYSTEMATIC_ASSESSMENT", "stats": [{"groupId": "EG000", "numEvents": 3, "numAffected": 3, "numAtRisk": 1303}]}, {"term": "Infection, Right Ventricular", "organSystem": "Injury, poisoning and procedural complications", "assessmentType": "SYSTEMATIC_ASSESSMENT", "stats": [{"groupId": "EG000", "numEvents": 1, "numAffected": 1, "numAtRisk": 1303}]}, {"term": "Lead Dislodgment, Right Ventricular", "organSystem": "Surgical and medical procedures", "assessmentType": "SYSTEMATIC_ASSESSMENT", "stats": [{"groupId": "EG000", "numEvents": 5, "numAffected": 5, "numAtRisk": 1303}]}, {"term": "Pneumothorax, Right Ventricular", "organSystem": "Injury, poisoning and procedural complications", "assessmentType": "SYSTEMATIC_ASSESSMENT", "stats": [{"groupId": "EG000", "numEvents": 1, "numAffected": 1, "numAtRisk": 1303}]}, {"term": "Sensing Related, Right Ventricular", "organSystem": "Cardiac disorders", "assessmentType": "SYSTEMATIC_ASSESSMENT", "stats": [{"groupId": "EG000", "numEvents": 1, "numAffected": 1, "numAtRisk": 1303}]}, {"term": "Threshold Related, Right Ventricular", "organSystem": "Cardiac disorders", "assessmentType": "SYSTEMATIC_ASSESSMENT", "stats": [{"groupId": "EG000", "numEvents": 5, "numAffected": 5, "numAtRisk": 1303}]}], "otherEvents": [{"term": "Extracardiac Stimulation, Left Ventricular", "organSystem": "Cardiac disorders", "assessmentType": "SYSTEMATIC_ASSESSMENT", "stats": [{"groupId": "EG000", "numEvents": 88, "numAffected": 77, "numAtRisk": 1303}]}, {"term": "Threshold Related, Left Ventricular", "organSystem": "Cardiac disorders", "assessmentType": "SYSTEMATIC_ASSESSMENT", "stats": [{"groupId": "EG000", "numEvents": 33, "numAffected": 26, "numAtRisk": 1303}]}, {"term": "Inappropriate Tachy Therapy, Pulse Generator", "organSystem": "Cardiac disorders", "assessmentType": "SYSTEMATIC_ASSESSMENT", "stats": [{"groupId": "EG000", "numEvents": 36, "numAffected": 28, "numAtRisk": 1303}]}]}, "moreInfoModule": {"limitationsAndCaveats": {"description": "Early termination was granted based on study results. The study was one-armed observational. The expected performance / safety of left ventricular leads has been established; permitting comparison to a pre-defined performance standard."}, "certainAgreement": {"piSponsorEmployee": false, "restrictiveAgreement": false}, "pointOfContact": {"title": "Director of Clinical Trial Management - cRM franchise", "organization": "Boston Scientific", "email": "elaine.larson@bsci.com", "phone": "1-800-227-3422"}}}, "documentSection": {"largeDocumentModule": {"largeDocs": [{"typeAbbrev": "Prot", "hasProtocol": true, "hasSap": false, "hasIcf": false, "label": "Study Protocol", "date": "2012-12-06", "uploadDate": "2018-07-10T13:15", "filename": "Prot_000.pdf", "size": 1163068}, {"typeAbbrev": "SAP", "hasProtocol": false, "hasSap": true, "hasIcf": false, "label": "Statistical Analysis Plan", "date": "2013-07-02", "uploadDate": "2018-07-10T13:31", "filename": "SAP_001.pdf", "size": 931157}]}}, "derivedSection": {"miscInfoModule": {"versionHolder": "2024-06-24", "removedCountries": ["Puerto Rico"]}, "conditionBrowseModule": {"meshes": [{"id": "D000006333", "term": "Heart Failure"}], "ancestors": [{"id": "D000006331", "term": "Heart Diseases"}, {"id": "D000002318", "term": "Cardiovascular Diseases"}], "browseLeaves": [{"id": "M9421", "name": "Heart Failure", "asFound": "Heart Failure", "relevance": "HIGH"}, {"id": "M9419", "name": "Heart Diseases", "relevance": "LOW"}], "browseBranches": [{"abbrev": "BC14", "name": "Heart and Blood Diseases"}, {"abbrev": "All", "name": "All Conditions"}]}}, "hasResults": true}