{"protocolSection": {"identificationModule": {"nctId": "NCT00463866", "orgStudyIdInfo": {"id": "D5890L00022"}, "secondaryIdInfos": [{"id": "EUROSMART"}, {"id": "EudraCTNo. 2006-006512-30"}], "organization": {"fullName": "AstraZeneca", "class": "INDUSTRY"}, "briefTitle": "Local Phase 4 Pan-European SMART Study"}, "statusModule": {"statusVerifiedDate": "2010-03", "overallStatus": "COMPLETED", "expandedAccessInfo": {"hasExpandedAccess": false}, "startDateStruct": {"date": "2007-03"}, "completionDateStruct": {"date": "2008-12", "type": "ACTUAL"}, "studyFirstSubmitDate": "2007-04-19", "studyFirstSubmitQcDate": "2007-04-19", "studyFirstPostDateStruct": {"date": "2007-04-20", "type": "ESTIMATED"}, "resultsFirstSubmitDate": "2009-12-22", "resultsFirstSubmitQcDate": "2010-03-08", "resultsFirstPostDateStruct": {"date": "2010-03-22", "type": "ESTIMATED"}, "lastUpdateSubmitDate": "2010-03-08", "lastUpdatePostDateStruct": {"date": "2010-03-22", "type": "ESTIMATED"}}, "sponsorCollaboratorsModule": {"leadSponsor": {"name": "AstraZeneca", "class": "INDUSTRY"}}, "descriptionModule": {"briefSummary": "The purpose of this study is to evaluate the effect of two different maintenance doses of Symbicort Maintenance And Reliever Therapy (SMART) in adult asthmatic patients. A 6 month treatment period"}, "conditionsModule": {"conditions": ["Asthma"], "keywords": ["Asthma"]}, "designModule": {"studyType": "INTERVENTIONAL", "phases": ["PHASE4"], "designInfo": {"allocation": "RANDOMIZED", "interventionModel": "PARALLEL", "primaryPurpose": "TREATMENT", "maskingInfo": {"masking": "NONE"}}, "enrollmentInfo": {"count": 8424, "type": "ACTUAL"}}, "armsInterventionsModule": {"interventions": [{"type": "DRUG", "name": "Budesonide/formoterol"}]}, "outcomesModule": {"primaryOutcomes": [{"measure": "Number of Severe Asthma Exacerbations Per Participant.", "description": "Time to first severe asthma exacerbation, translated to mean number of severe asthma exacerbations per participant. A severe asthma exacerbation is defined as deterioration in asthma requiring oral/systemic glucocorticosteroids for at least 3 days and/or hospitalisation/emergency room visit with oral/systemic glucocorticosteroid treatment.", "timeFrame": "6 months"}], "secondaryOutcomes": [{"measure": "Fraction of Participants With Severe Asthma Exacerbation", "description": "The total number of severe asthma exacerbations was calculated for each participant. A severe asthma exacerbation is defined as deterioration in asthma requiring oral/systemic glucocorticosteroids for at least 3 days and/or hospitalisation/emergency room visit with oral/systemic glucocorticosteroid treatment.", "timeFrame": "6 months."}, {"measure": "Total Number of Severe Asthma Exacerbations That Led to Hospitalisation and/or Emergency Room Treatment.", "description": "A severe asthma exacerbation is defined as deterioration in asthma requiring oral/systemic glucocorticosteroids for at least 3 days and/or hospitalisation/emergency room visit with oral/systemic glucocorticosteroid treatment. Number of events per participant", "timeFrame": "6 months."}, {"measure": "Total Number of Days Per Participant With Oral/Systemic Glucocorticosteroids During Severe Asthma Exacerbation", "description": "Total number of days with oral/systemic glucocorticosteroids during severe exacerbation calculated for each participant. A severe asthma exacerbation is defined as deterioration in asthma requiring oral/systemic glucocorticosteroids for at least 3 days and/or hospitalisation/emergency room visit with oral/systemic glucocorticosteroid treatment.", "timeFrame": "6 months."}, {"measure": "Mean Daily Number of Inhalations of As-needed Medication.", "description": "The number of as-needed inhalations was measured 2 times during 2 weeks before 13 weeks and 26 weeks of treatment.", "timeFrame": "4 weeks"}, {"measure": "Percent of Participants With a Well Controlled Asthma Week.", "description": "The mean percent of participants fulfilling the criteria for a well controlled asthma week in each treatment. A well controlled asthma week is defined as a week with no exacerbations and no night-time awakenings due to asthma and a maximum of 2 days with symptoms and as-needed inhalation use.", "timeFrame": "6 months."}, {"measure": "Mean Overall Asthma Control Questionnaire (ACQ) Score", "description": "The ACQ5 was used. The lower value the better with a full range from 0=no impairment, 6= maximum impairment. Awakenings, morning symptoms, limitations, shortness of breath and wheeze.", "timeFrame": "6 months."}, {"measure": "The Mean Total Daily Dose of Steroids From Symbicort.", "description": "The mean total daily dose of steroids from Symbicort was calculated as the sum of the maintenance dose and the as-needed dose.", "timeFrame": "4 weeks"}, {"measure": "Mean Cost Per Participant Per Country", "description": "Mean cost is calculated for each country using participants from the whole study and country specific costs. Mean value for the whole study can not be calculated.", "timeFrame": "6 months"}]}, "eligibilityModule": {"eligibilityCriteria": "Inclusion Criteria:\n\n* Patients at out-patient clinics\n* \\>18 years with a minimum of 6 months documented history of persistent asthma who have used inhaled glucocorticosteroids for at least one month and have a history of use in rapid-acting B2 agonists for symptom relief\n\nExclusion Criteria:\n\n* Asthma exacerbation within the last 14 days prior to study start\n* subject aged \\>40 years with a smoking history of \\>10pack-years\n* subjects with chronic obstructive lung disease or other significant respiratory disease", "healthyVolunteers": false, "sex": "ALL", "minimumAge": "18 Years", "stdAges": ["ADULT", "OLDER_ADULT"]}, "contactsLocationsModule": {"overallOfficials": [{"name": "Michel Aubier, Prof", "affiliation": "FRANCE", "role": "PRINCIPAL_INVESTIGATOR"}, {"name": "Juliette Ostinelli, MD", "affiliation": "AstraZeneca, MC France", "role": "STUDY_CHAIR"}], "locations": [{"facility": "Research Site", "city": "Aalst", "country": "Belgium", "geoPoint": {"lat": 50.93604, "lon": 4.0355}}, {"facility": "Research Site", "city": "Aarschot", "country": "Belgium", "geoPoint": {"lat": 50.98715, "lon": 4.83695}}, {"facility": "Research Site", "city": "Aatrijken", "country": "Belgium"}, {"facility": "Research Site", "city": "Asse", "country": "Belgium", "geoPoint": {"lat": 50.91011, "lon": 4.19836}}, {"facility": "Research Site", "city": "Balen", "country": "Belgium", "geoPoint": {"lat": 51.16837, "lon": 5.17027}}, {"facility": "Research Site", "city": "Bastogne", "country": "Belgium", "geoPoint": {"lat": 50.00347, "lon": 5.71844}}, {"facility": "Research Site", "city": "Bellaire", "country": "Belgium", "geoPoint": {"lat": 50.64453, "lon": 5.66585}}, {"facility": "Research Site", "city": "Betrix", "country": "Belgium"}, {"facility": "Research Site", "city": "Binche", "country": "Belgium", "geoPoint": {"lat": 50.41155, "lon": 4.16469}}, {"facility": "Research Site", "city": "Blankenberge", "country": "Belgium", "geoPoint": {"lat": 51.31306, "lon": 3.13227}}, {"facility": "Research Site", "city": "Boortmeerbeek", "country": "Belgium", "geoPoint": {"lat": 50.97929, "lon": 4.57443}}, {"facility": "Research Site", "city": "Bornem", "country": "Belgium", "geoPoint": {"lat": 51.09716, "lon": 4.24364}}, {"facility": "Research Site", "city": "Boussu", "country": "Belgium", "geoPoint": {"lat": 50.43417, "lon": 3.7944}}, {"facility": "Research Site", "city": "Brugge", "country": "Belgium", "geoPoint": {"lat": 51.20892, "lon": 3.22424}}, {"facility": "Research Site", "city": "Bruxelles", "country": "Belgium", "geoPoint": {"lat": 50.85045, "lon": 4.34878}}, {"facility": "Research Site", "city": "Buizingen", "country": "Belgium", "geoPoint": {"lat": 50.73537, "lon": 4.24767}}, {"facility": "Research Site", "city": "Burdinne", "country": "Belgium", "geoPoint": {"lat": 50.58454, "lon": 5.07663}}, {"facility": "Research Site", "city": "Champion", "country": "Belgium", "geoPoint": {"lat": 50.4953, "lon": 4.90385}}, {"facility": "Research Site", "city": "Charleroi", "country": "Belgium", "geoPoint": {"lat": 50.41136, "lon": 4.44448}}, {"facility": "Research Site", "city": "Chatelet", "country": "Belgium", "geoPoint": {"lat": 50.40338, "lon": 4.52826}}, {"facility": "Research Site", "city": "Chenee", "country": "Belgium", "geoPoint": {"lat": 50.612, "lon": 5.6141}}, {"facility": "Research Site", "city": "Dendermonde", "country": "Belgium", "geoPoint": {"lat": 51.02869, "lon": 4.10106}}, {"facility": "Research Site", "city": "Diksmuide", "country": "Belgium", "geoPoint": {"lat": 51.03248, "lon": 2.86384}}, {"facility": "Research Site", "city": "Drongen", "country": "Belgium", "geoPoint": {"lat": 51.05067, "lon": 3.65649}}, {"facility": "Research Site", "city": "Duffel", "country": "Belgium", "geoPoint": {"lat": 51.09554, "lon": 4.50903}}, {"facility": "Research Site", "city": "Edegem", "country": "Belgium", "geoPoint": {"lat": 51.15662, "lon": 4.44504}}, {"facility": "Research Site", "city": "Eeklo", "country": "Belgium", "geoPoint": {"lat": 51.18703, "lon": 3.55654}}, {"facility": "Research Site", "city": "Ekeren", "country": "Belgium", "geoPoint": {"lat": 51.28087, "lon": 4.41813}}, {"facility": "Research Site", "city": "Erembodegem", "country": "Belgium", "geoPoint": {"lat": 50.91905, "lon": 4.05041}}, {"facility": "Research Site", "city": "Evergem", "country": "Belgium", "geoPoint": {"lat": 51.10529, "lon": 3.704}}, {"facility": "Research Site", "city": "Fleurus", "country": "Belgium", "geoPoint": {"lat": 50.48351, "lon": 4.55006}}, {"facility": "Research Site", "city": "Gembloux", "country": "Belgium", "geoPoint": {"lat": 50.56149, "lon": 4.69889}}, {"facility": "Research Site", "city": "Genk", "country": "Belgium", "geoPoint": {"lat": 50.965, "lon": 5.50082}}, {"facility": "Research Site", "city": "Gent", "country": "Belgium", "geoPoint": {"lat": 51.05, "lon": 3.71667}}, {"facility": "Research Site", "city": "Gilly", "country": "Belgium", "geoPoint": {"lat": 50.42449, "lon": 4.4789}}, {"facility": "Research Site", "city": "Graty", "country": "Belgium", "geoPoint": {"lat": 50.63172, "lon": 3.99624}}, {"facility": "Research Site", "city": "Grivegnee", "country": "Belgium", "geoPoint": {"lat": 50.62148, "lon": 5.61101}}, {"facility": "Research Site", "city": "Halle", "country": "Belgium", "geoPoint": {"lat": 50.73385, "lon": 4.23454}}, {"facility": "Research Site", "city": "Ham-sur-Heure", "country": "Belgium", "geoPoint": {"lat": 50.323, "lon": 4.38844}}, {"facility": "Research Site", "city": "Ham", "country": "Belgium"}, {"facility": "Research Site", "city": "Hasselt", "country": "Belgium", "geoPoint": {"lat": 50.93106, "lon": 5.33781}}, {"facility": "Research Site", "city": "Havinnes", "country": "Belgium", "geoPoint": {"lat": 50.61658, "lon": 3.46341}}, {"facility": "Research Site", "city": "Heist-op-Den-Berg", "country": "Belgium", "geoPoint": {"lat": 51.07537, "lon": 4.72827}}, {"facility": "Research Site", "city": "Herentals", "country": "Belgium", "geoPoint": {"lat": 51.17655, "lon": 4.83248}}, {"facility": "Research Site", "city": "Herstal", "country": "Belgium", "geoPoint": {"lat": 50.66415, "lon": 5.62346}}, {"facility": "Research Site", "city": "Hoboken", "country": "Belgium", "geoPoint": {"lat": 51.17611, "lon": 4.34844}}, {"facility": "Research Site", "city": "Hoeselt", "country": "Belgium", "geoPoint": {"lat": 50.84714, "lon": 5.48767}}, {"facility": "Research Site", "city": "Hooglede", "country": "Belgium", "geoPoint": {"lat": 50.98333, "lon": 3.08333}}, {"facility": "Research Site", "city": "Hornu", "country": "Belgium", "geoPoint": {"lat": 50.4328, "lon": 3.82736}}, {"facility": "Research Site", "city": "Houthalen-Helchteren", "country": "Belgium", "geoPoint": {"lat": 51.03216, "lon": 5.37849}}, {"facility": "Research Site", "city": "Huldenberg", "country": "Belgium", "geoPoint": {"lat": 50.78939, "lon": 4.5831}}, {"facility": "Research Site", "city": "Izegem", "country": "Belgium", "geoPoint": {"lat": 50.91396, "lon": 3.21378}}, {"facility": "Research Site", "city": "Jambes", "country": "Belgium", "geoPoint": {"lat": 50.45636, "lon": 4.87166}}, {"facility": "Research Site", "city": "Jodoigne", "country": "Belgium", "geoPoint": {"lat": 50.72357, "lon": 4.86914}}, {"facility": "Research Site", "city": "Kinrooi", "country": "Belgium", "geoPoint": {"lat": 51.14543, "lon": 5.74207}}, {"facility": "Research Site", "city": "Kontich", "country": "Belgium", "geoPoint": {"lat": 51.13213, "lon": 4.44706}}, {"facility": "Research Site", "city": "Kraainem", "country": "Belgium", "geoPoint": {"lat": 50.86155, "lon": 4.46946}}, {"facility": "Research Site", "city": "La Louviere", "country": "Belgium", "geoPoint": {"lat": 50.48657, "lon": 4.18785}}, {"facility": "Research Site", "city": "Langdorp", "country": "Belgium", "geoPoint": {"lat": 50.99561, "lon": 4.87175}}, {"facility": "Research Site", "city": "Lauwe", "country": "Belgium", "geoPoint": {"lat": 50.79479, "lon": 3.1869}}, {"facility": "Research Site", "city": "Leopoldsburg", "country": "Belgium", "geoPoint": {"lat": 51.11667, "lon": 5.25}}, {"facility": "Research Site", "city": "Leuven", "country": "Belgium", "geoPoint": {"lat": 50.87959, "lon": 4.70093}}, {"facility": "Research Site", "city": "Liege", "country": "Belgium", "geoPoint": {"lat": 50.63373, "lon": 5.56749}}, {"facility": "Research Site", "city": "Lier", "country": "Belgium", "geoPoint": {"lat": 51.13128, "lon": 4.57041}}, {"facility": "Research Site", "city": "Lommel", "country": "Belgium", "geoPoint": {"lat": 51.23074, "lon": 5.31349}}, {"facility": "Research Site", "city": "Lovendegem", "country": "Belgium", "geoPoint": {"lat": 51.10168, "lon": 3.61298}}, {"facility": "Research Site", "city": "Malmedy", "country": "Belgium", "geoPoint": {"lat": 50.42686, "lon": 6.02794}}, {"facility": "Research Site", "city": "Marchovelette", "country": "Belgium", "geoPoint": {"lat": 50.52303, "lon": 4.94059}}, {"facility": "Research Site", "city": "Meelbeke", "country": "Belgium"}, {"facility": "Research Site", "city": "Moerkerke", "country": "Belgium", "geoPoint": {"lat": 51.24547, "lon": 3.34251}}, {"facility": "Research Site", "city": "Mol", "country": "Belgium", "geoPoint": {"lat": 51.19188, "lon": 5.11662}}, {"facility": "Research Site", "city": "Monceau-sur-Sambre", "country": "Belgium", "geoPoint": {"lat": 50.41694, "lon": 4.37668}}, {"facility": "Research Site", "city": "Mons", "country": "Belgium", "geoPoint": {"lat": 50.45413, "lon": 3.95229}}, {"facility": "Research Site", "city": "Montegnee", "country": "Belgium", "geoPoint": {"lat": 50.64576, "lon": 5.51411}}, {"facility": "Research Site", "city": "Moorsel", "country": "Belgium", "geoPoint": {"lat": 50.94743, "lon": 4.09825}}, {"facility": "Research Site", "city": "Mouscron", "country": "Belgium", "geoPoint": {"lat": 50.74497, "lon": 3.20639}}, {"facility": "Research Site", "city": "Namur", "country": "Belgium", "geoPoint": {"lat": 50.4669, "lon": 4.86746}}, {"facility": "Research Site", "city": "Natoye", "country": "Belgium", "geoPoint": {"lat": 50.34294, "lon": 5.058}}, {"facility": "Research Site", "city": "Nijlen", "country": "Belgium", "geoPoint": {"lat": 51.16096, "lon": 4.67008}}, {"facility": "Research Site", "city": "Nivelles", "country": "Belgium", "geoPoint": {"lat": 50.59833, "lon": 4.32848}}, {"facility": "Research Site", "city": "Oedelem", "country": "Belgium", "geoPoint": {"lat": 51.17033, "lon": 3.33762}}, {"facility": "Research Site", "city": "Oostende", "country": "Belgium", "geoPoint": {"lat": 51.21551, "lon": 2.927}}, {"facility": "Research Site", "city": "Oostkamp", "country": "Belgium", "geoPoint": {"lat": 51.15432, "lon": 3.23128}}, {"facility": "Research Site", "city": "Oppuurs", "country": "Belgium", "geoPoint": {"lat": 51.06629, "lon": 4.24222}}, {"facility": "Research Site", "city": "Oudenaarde", "country": "Belgium", "geoPoint": {"lat": 50.85168, "lon": 3.60891}}, {"facility": "Research Site", "city": "Paal", "country": "Belgium", "geoPoint": {"lat": 51.03988, "lon": 5.17233}}, {"facility": "Research Site", "city": "Peutie", "country": "Belgium", "geoPoint": {"lat": 50.92998, "lon": 4.45187}}, {"facility": "Research Site", "city": "Poederlee", "country": "Belgium", "geoPoint": {"lat": 51.22769, "lon": 4.84034}}, {"facility": "Research Site", "city": "Pulle", "country": "Belgium", "geoPoint": {"lat": 51.20317, "lon": 4.71434}}, {"facility": "Research Site", "city": "Rijkevorsel", "country": "Belgium", "geoPoint": {"lat": 51.34795, "lon": 4.76053}}, {"facility": "Research Site", "city": "Rixensart", "country": "Belgium", "geoPoint": {"lat": 50.71229, "lon": 4.52529}}, {"facility": "Research Site", "city": "Rotselaar", "country": "Belgium", "geoPoint": {"lat": 50.95302, "lon": 4.71665}}, {"facility": "Research Site", "city": "Roux", "country": "Belgium", "geoPoint": {"lat": 50.44111, "lon": 4.3917}}, {"facility": "Research Site", "city": "Sijsele", "country": "Belgium", "geoPoint": {"lat": 51.20846, "lon": 3.31714}}, {"facility": "Research Site", "city": "Sint-Genesius-Rode", "country": "Belgium", "geoPoint": {"lat": 50.74645, "lon": 4.35754}}, {"facility": "Research Site", "city": "Sint-Niklaas", "country": "Belgium", "geoPoint": {"lat": 51.16509, "lon": 4.1437}}, {"facility": "Research Site", "city": "St Katharina Lombeek", "country": "Belgium"}, {"facility": "Research Site", "city": "St-Vith", "country": "Belgium", "geoPoint": {"lat": 50.28146, "lon": 6.12724}}, {"facility": "Research Site", "city": "Steenokkerzeel", "country": "Belgium", "geoPoint": {"lat": 50.91851, "lon": 4.50989}}, {"facility": "Research Site", "city": "Stekene", "country": "Belgium", "geoPoint": {"lat": 51.2099, "lon": 4.03651}}, {"facility": "Research Site", "city": "Tavier", "country": "Belgium", "geoPoint": {"lat": 50.49634, "lon": 5.47063}}, {"facility": "Research Site", "city": "Thieusies", "country": "Belgium", "geoPoint": {"lat": 50.51525, "lon": 4.04931}}, {"facility": "Research Site", "city": "Tielt", "country": "Belgium", "geoPoint": {"lat": 50.99931, "lon": 3.32707}}, {"facility": "Research Site", "city": "Tienen", "country": "Belgium", "geoPoint": {"lat": 50.80745, "lon": 4.9378}}, {"facility": "Research Site", "city": "Tirlt", "country": "Belgium"}, {"facility": "Research Site", "city": "Tongeren", "country": "Belgium", "geoPoint": {"lat": 50.78054, "lon": 5.46484}}, {"facility": "Research Site", "city": "Tournai", "country": "Belgium", "geoPoint": {"lat": 50.60715, "lon": 3.38932}}, {"facility": "Research Site", "city": "Tremelo", "country": "Belgium", "geoPoint": {"lat": 50.99231, "lon": 4.70807}}, {"facility": "Research Site", "city": "Turhout", "country": "Belgium"}, {"facility": "Research Site", "city": "Vedrin", "country": "Belgium", "geoPoint": {"lat": 50.50273, "lon": 4.87604}}, {"facility": "Research Site", "city": "Villers-Poterie", "country": "Belgium", "geoPoint": {"lat": 50.35379, "lon": 4.54885}}, {"facility": "Research Site", "city": "Vilvoorde", "country": "Belgium", "geoPoint": {"lat": 50.92814, "lon": 4.42938}}, {"facility": "Research Site", "city": "Vosselaar", "country": "Belgium", "geoPoint": {"lat": 51.30856, "lon": 4.8896}}, {"facility": "Research Site", "city": "Wambeek", "country": "Belgium"}, {"facility": "Research Site", "city": "Waregem", "country": "Belgium", "geoPoint": {"lat": 50.88898, "lon": 3.42756}}, {"facility": "Research Site", "city": "Waterloo", "country": "Belgium", "geoPoint": {"lat": 50.71469, "lon": 4.3991}}, {"facility": "Research Site", "city": "Wetteren", "country": "Belgium", "geoPoint": {"lat": 51.00526, "lon": 3.88341}}, {"facility": "Research Site", "city": "Wijnegem", "country": "Belgium", "geoPoint": {"lat": 51.22787, "lon": 4.51895}}, {"facility": "Research Site", "city": "Willebroek", "country": "Belgium", "geoPoint": {"lat": 51.06041, "lon": 4.36019}}, {"facility": "Research Site", "city": "Wilsele", "country": "Belgium", "geoPoint": {"lat": 50.89188, "lon": 4.69769}}, {"facility": "Research Site", "city": "Zele", "country": "Belgium", "geoPoint": {"lat": 51.06566, "lon": 4.0403}}, {"facility": "Research Site", "city": "Zemst", "country": "Belgium", "geoPoint": {"lat": 50.98318, "lon": 4.46079}}, {"facility": "Research Site", "city": "Zoersel", "country": "Belgium", "geoPoint": {"lat": 51.26825, "lon": 4.71296}}, {"facility": "Research Site", "city": "Zottegem", "country": "Belgium", "geoPoint": {"lat": 50.86955, "lon": 3.81052}}, {"facility": "Research Site", "city": "Zwijnaarde", "country": "Belgium", "geoPoint": {"lat": 51.00077, "lon": 3.70746}}, {"facility": "Research Site", "city": "Espho", "country": "Finland"}, {"facility": "Research Site", "city": "Espoo", "country": "Finland", "geoPoint": {"lat": 60.2052, "lon": 24.6522}}, {"facility": "Research Site", "city": "Hameenlinna", "country": "Finland", "geoPoint": {"lat": 60.99596, "lon": 24.46434}}, {"facility": "Research Site", "city": "Harjavalta", "country": "Finland", "geoPoint": {"lat": 61.31667, "lon": 22.13333}}, {"facility": "Research Site", "city": "Helsinki", "country": "Finland", "geoPoint": {"lat": 60.16952, "lon": 24.93545}}, {"facility": "Research Site", "city": "Hyvinkaa", "country": "Finland", "geoPoint": {"lat": 60.63333, "lon": 24.86667}}, {"facility": "Research Site", "city": "Joensuu", "country": "Finland", "geoPoint": {"lat": 62.60118, "lon": 29.76316}}, {"facility": "Research Site", "city": "Jokioinen", "country": "Finland", "geoPoint": {"lat": 60.80162, "lon": 23.48004}}, {"facility": "Research Site", "city": "Kannus", "country": "Finland", "geoPoint": {"lat": 63.9, "lon": 23.9}}, {"facility": "Research Site", "city": "Kemi", "country": "Finland", "geoPoint": {"lat": 65.73641, "lon": 24.56371}}, {"facility": "Research Site", "city": "Kereva", "country": "Finland"}, {"facility": "Research Site", "city": "Kokkola", "country": "Finland", "geoPoint": {"lat": 63.83847, "lon": 23.13066}}, {"facility": "Research Site", "city": "Korpilahti", "country": "Finland", "geoPoint": {"lat": 62.01667, "lon": 25.55}}, {"facility": "Research Site", "city": "Kotka", "country": "Finland", "geoPoint": {"lat": 60.4664, "lon": 26.94577}}, {"facility": "Research Site", "city": "Kouvola", "country": "Finland", "geoPoint": {"lat": 60.86667, "lon": 26.7}}, {"facility": "Research Site", "city": "Kuopio", "country": "Finland", "geoPoint": {"lat": 62.89238, "lon": 27.67703}}, {"facility": "Research Site", "city": "Kuusankoski", "country": "Finland", "geoPoint": {"lat": 60.907, "lon": 26.62437}}, {"facility": "Research Site", "city": "Lahti", "country": "Finland", "geoPoint": {"lat": 60.98267, "lon": 25.66151}}, {"facility": "Research Site", "city": "Lappeenranta", "country": "Finland", "geoPoint": {"lat": 61.05871, "lon": 28.18871}}, {"facility": "Research Site", "city": "Lapua", "country": "Finland", "geoPoint": {"lat": 62.96927, "lon": 23.0088}}, {"facility": "Research Site", "city": "Lathi", "country": "Finland"}, {"facility": "Research Site", "city": "Lempaala", "country": "Finland", "geoPoint": {"lat": 61.31667, "lon": 23.75}}, {"facility": "Research Site", "city": "Lohja", "country": "Finland", "geoPoint": {"lat": 60.24859, "lon": 24.06534}}, {"facility": "Research Site", "city": "Mikkeli", "country": "Finland", "geoPoint": {"lat": 61.68857, "lon": 27.27227}}, {"facility": "Research Site", "city": "Muurame", "country": "Finland", "geoPoint": {"lat": 62.13333, "lon": 25.66667}}, {"facility": "Research Site", "city": "Nurmij\ufffdrvi", "country": "Finland"}, {"facility": "Research Site", "city": "Oulu", "country": "Finland", "geoPoint": {"lat": 65.01236, "lon": 25.46816}}, {"facility": "Research Site", "city": "Pello", "country": "Finland", "geoPoint": {"lat": 66.77364, "lon": 23.96255}}, {"facility": "Research Site", "city": "Pieksamaki", "country": "Finland", "geoPoint": {"lat": 62.3, "lon": 27.13333}}, {"facility": "Research Site", "city": "Pietarsaari", "country": "Finland"}, {"facility": "Research Site", "city": "Pori", "country": "Finland", "geoPoint": {"lat": 61.48333, "lon": 21.78333}}, {"facility": "Research Site", "city": "Porvo", "country": "Finland"}, {"facility": "Research Site", "city": "Pudasj\ufffdrvi", "country": "Finland"}, {"facility": "Research Site", "city": "Pyhajoki", "country": "Finland", "geoPoint": {"lat": 64.46667, "lon": 24.23333}}, {"facility": "Research Site", "city": "Riihimaki", "country": "Finland", "geoPoint": {"lat": 60.73769, "lon": 24.77726}}, {"facility": "Research Site", "city": "Seinajoki", "country": "Finland", "geoPoint": {"lat": 62.79446, "lon": 22.82822}}, {"facility": "Research Site", "city": "Suonenjoki", "country": "Finland", "geoPoint": {"lat": 62.61667, "lon": 27.13333}}, {"facility": "Research Site", "city": "Tamepare", "country": "Finland"}, {"facility": "Research Site", "city": "Tampera", "country": "Finland"}, {"facility": "Research Site", "city": "Turku", "country": "Finland", "geoPoint": {"lat": 60.45148, "lon": 22.26869}}, {"facility": "Research Site", "city": "Ulvila", "country": "Finland", "geoPoint": {"lat": 61.42844, "lon": 21.87103}}, {"facility": "Research Site", "city": "Vaajakoksi", "country": "Finland"}, {"facility": "Research Site", "city": "Vantaa", "country": "Finland", "geoPoint": {"lat": 60.29414, "lon": 25.04099}}, {"facility": "Research Site", "city": "Agen", "country": "France", "geoPoint": {"lat": 44.2, "lon": 0.63333}}, {"facility": "Research Site", "city": "Aix En Provence", "country": "France", "geoPoint": {"lat": 43.5283, "lon": 5.44973}}, {"facility": "Research Site", "city": "Ajaccio", "country": "France", "geoPoint": {"lat": 41.91888, "lon": 8.73811}}, {"facility": "Research Site", "city": "Ales", "country": "France", "geoPoint": {"lat": 44.12489, "lon": 4.08082}}, {"facility": "Research Site", "city": "Amboise", "country": "France", "geoPoint": {"lat": 47.41249, "lon": 0.98266}}, {"facility": "Research Site", "city": "Amelie Les Bains Palalda", "country": "France"}, {"facility": "Research Site", "city": "Amiens", "country": "France", "geoPoint": {"lat": 49.9, "lon": 2.3}}, {"facility": "Research Site", "city": "Angers", "country": "France", "geoPoint": {"lat": 47.46667, "lon": -0.55}}, {"facility": "Research Site", "city": "Angouleme", "country": "France", "geoPoint": {"lat": 45.65, "lon": 0.15}}, {"facility": "Research Site", "city": "Annecy", "country": "France", "geoPoint": {"lat": 45.9, "lon": 6.11667}}, {"facility": "Research Site", "city": "Annonay", "country": "France", "geoPoint": {"lat": 45.23969, "lon": 4.67075}}, {"facility": "Research Site", "city": "Antibes Cedex", "country": "France", "geoPoint": {"lat": 43.56241, "lon": 7.12777}}, {"facility": "Research Site", "city": "Arpajon", "country": "France", "geoPoint": {"lat": 48.58875, "lon": 2.24672}}, {"facility": "Research Site", "city": "Asnieres Sur seine", "country": "France", "geoPoint": {"lat": 48.91667, "lon": 2.28333}}, {"facility": "Research Site", "city": "Aubagne Cedex", "country": "France", "geoPoint": {"lat": 43.29276, "lon": 5.57067}}, {"facility": "Research Site", "city": "Aulnay Sous Bois", "country": "France", "geoPoint": {"lat": 48.93814, "lon": 2.49402}}, {"facility": "Research Site", "city": "Avignon", "country": "France", "geoPoint": {"lat": 43.94834, "lon": 4.80892}}, {"facility": "Research Site", "city": "Bastia", "country": "France", "geoPoint": {"lat": 42.70278, "lon": 9.45}}, {"facility": "Research Site", "city": "Bayonne", "country": "France", "geoPoint": {"lat": 43.48333, "lon": -1.48333}}, {"facility": "Research Site", "city": "Belfort", "country": "France", "geoPoint": {"lat": 47.63333, "lon": 6.86667}}, {"facility": "Research Site", "city": "Bernay", "country": "France", "geoPoint": {"lat": 49.08888, "lon": 0.59858}}, {"facility": "Research Site", "city": "Besancon", "country": "France", "geoPoint": {"lat": 47.24878, "lon": 6.01815}}, {"facility": "Research Site", "city": "Bethune", "country": "France", "geoPoint": {"lat": 50.53333, "lon": 2.63333}}, {"facility": "Research Site", "city": "Beziers", "country": "France", "geoPoint": {"lat": 43.34122, "lon": 3.21402}}, {"facility": "Research Site", "city": "Biganos", "country": "France", "geoPoint": {"lat": 44.64504, "lon": -0.97367}}, {"facility": "Research Site", "city": "Bois Guillaume", "country": "France", "geoPoint": {"lat": 49.4602, "lon": 1.12219}}, {"facility": "Research Site", "city": "Bordeaux", "country": "France", "geoPoint": {"lat": 44.84044, "lon": -0.5805}}, {"facility": "Research Site", "city": "Bouoin Jallieu", "country": "France"}, {"facility": "Research Site", "city": "Bourges", "country": "France", "geoPoint": {"lat": 47.08333, "lon": 2.4}}, {"facility": "Research Site", "city": "Brest", "country": "France", "geoPoint": {"lat": 48.3903, "lon": -4.48628}}, {"facility": "Research Site", "city": "Briey Cedex", "country": "France", "geoPoint": {"lat": 49.25, "lon": 5.93333}}, {"facility": "Research Site", "city": "Brive La Gaillarde", "country": "France", "geoPoint": {"lat": 45.15, "lon": 1.53333}}, {"facility": "Research Site", "city": "Cachan", "country": "France", "geoPoint": {"lat": 48.79632, "lon": 2.33661}}, {"facility": "Research Site", "city": "Caen Cedex 4", "country": "France", "geoPoint": {"lat": 49.18585, "lon": -0.35912}}, {"facility": "Research Site", "city": "Cagnes Sur Mer", "country": "France", "geoPoint": {"lat": 43.66459, "lon": 7.15339}}, {"facility": "Research Site", "city": "Caluire Et Cuire", "country": "France", "geoPoint": {"lat": 45.79041, "lon": 4.84112}}, {"facility": "Research Site", "city": "Cambrai", "country": "France", "geoPoint": {"lat": 50.16667, "lon": 3.23333}}, {"facility": "Research Site", "city": "Carpentras", "country": "France", "geoPoint": {"lat": 44.05, "lon": 5.05}}, {"facility": "Research Site", "city": "Castelnau Le Lez", "country": "France", "geoPoint": {"lat": 43.63333, "lon": 3.9}}, {"facility": "Research Site", "city": "Castres", "country": "France", "geoPoint": {"lat": 43.6, "lon": 2.25}}, {"facility": "Research Site", "city": "Cavaillon", "country": "France", "geoPoint": {"lat": 43.83125, "lon": 5.03586}}, {"facility": "Research Site", "city": "Challans", "country": "France", "geoPoint": {"lat": 46.84363, "lon": -1.87491}}, {"facility": "Research Site", "city": "Chalons En Champagne", "country": "France", "geoPoint": {"lat": 48.95393, "lon": 4.36724}}, {"facility": "Research Site", "city": "Charleville Mezieres", "country": "France", "geoPoint": {"lat": 49.76667, "lon": 4.71667}}, {"facility": "Research Site", "city": "Chateauroux", "country": "France", "geoPoint": {"lat": 46.81667, "lon": 1.7}}, {"facility": "Research Site", "city": "Chauny", "country": "France", "geoPoint": {"lat": 49.61514, "lon": 3.21857}}, {"facility": "Research Site", "city": "Chaville", "country": "France", "geoPoint": {"lat": 48.80565, "lon": 2.18864}}, {"facility": "Research Site", "city": "Chevillu Larue Cedex", "country": "France"}, {"facility": "Research Site", "city": "Cholet", "country": "France", "geoPoint": {"lat": 47.06667, "lon": -0.88333}}, {"facility": "Research Site", "city": "Cluses", "country": "France", "geoPoint": {"lat": 46.06251, "lon": 6.57497}}, {"facility": "Research Site", "city": "Colmar", "country": "France", "geoPoint": {"lat": 48.08333, "lon": 7.36667}}, {"facility": "Research Site", "city": "Colma", "country": "France"}, {"facility": "Research Site", "city": "Colomiers", "country": "France", "geoPoint": {"lat": 43.61058, "lon": 1.33467}}, {"facility": "Research Site", "city": "Corbeil Essonnes", "country": "France", "geoPoint": {"lat": 48.60603, "lon": 2.48757}}, {"facility": "Research Site", "city": "Creteil Cedex", "country": "France", "geoPoint": {"lat": 48.78333, "lon": 2.46667}}, {"facility": "Research Site", "city": "Denain Cedex", "country": "France", "geoPoint": {"lat": 50.3293, "lon": 3.3943}}, {"facility": "Research Site", "city": "Eaubonne", "country": "France", "geoPoint": {"lat": 48.99712, "lon": 2.28249}}, {"facility": "Research Site", "city": "Echirolles", "country": "France", "geoPoint": {"lat": 45.1439, "lon": 5.72883}}, {"facility": "Research Site", "city": "Ecully", "country": "France", "geoPoint": {"lat": 45.77726, "lon": 4.77481}}, {"facility": "Research Site", "city": "Epernay", "country": "France", "geoPoint": {"lat": 49.05, "lon": 3.95}}, {"facility": "Research Site", "city": "Epinal", "country": "France", "geoPoint": {"lat": 48.18333, "lon": 6.45}}, {"facility": "Research Site", "city": "Etampes", "country": "France", "geoPoint": {"lat": 48.43333, "lon": 2.15}}, {"facility": "Research Site", "city": "Ferolles Attilly", "country": "France", "geoPoint": {"lat": 48.73184, "lon": 2.63088}}, {"facility": "Research Site", "city": "Forbach", "country": "France", "geoPoint": {"lat": 49.18333, "lon": 6.9}}, {"facility": "Research Site", "city": "Gentilly", "country": "France", "geoPoint": {"lat": 48.81294, "lon": 2.3417}}, {"facility": "Research Site", "city": "Gleize", "country": "France", "geoPoint": {"lat": 45.99082, "lon": 4.70071}}, {"facility": "Research Site", "city": "Grasse", "country": "France", "geoPoint": {"lat": 43.66667, "lon": 6.91667}}, {"facility": "Research Site", "city": "Grenoble", "country": "France", "geoPoint": {"lat": 45.16667, "lon": 5.71667}}, {"facility": "Research Site", "city": "Hagondange", "country": "France", "geoPoint": {"lat": 49.25134, "lon": 6.16812}}, {"facility": "Research Site", "city": "Hazebrouck", "country": "France", "geoPoint": {"lat": 50.72374, "lon": 2.53729}}, {"facility": "Research Site", "city": "Herblay", "country": "France", "geoPoint": {"lat": 48.98994, "lon": 2.1699}}, {"facility": "Research Site", "city": "Hyeres", "country": "France", "geoPoint": {"lat": 43.12038, "lon": 6.12859}}, {"facility": "Research Site", "city": "Joue Les Tours", "country": "France", "geoPoint": {"lat": 47.35223, "lon": 0.66905}}, {"facility": "Research Site", "city": "Juan Les Pins", "country": "France", "geoPoint": {"lat": 43.56945, "lon": 7.11309}}, {"facility": "Research Site", "city": "La Garda", "country": "France"}, {"facility": "Research Site", "city": "La Roche Sur Yon", "country": "France", "geoPoint": {"lat": 46.66667, "lon": -1.43333}}, {"facility": "Research Site", "city": "La Rochelle", "country": "France", "geoPoint": {"lat": 46.16667, "lon": -1.15}}, {"facility": "Research Site", "city": "La Teste De Buch", "country": "France", "geoPoint": {"lat": 44.62875, "lon": -1.14059}}, {"facility": "Research Site", "city": "Lagny Sur Marne", "country": "France", "geoPoint": {"lat": 48.86667, "lon": 2.71667}}, {"facility": "Research Site", "city": "Langon", "country": "France", "geoPoint": {"lat": 44.55, "lon": -0.25}}, {"facility": "Research Site", "city": "Laval", "country": "France", "geoPoint": {"lat": 48.06667, "lon": -0.76667}}, {"facility": "Research Site", "city": "Le Bouscat", "country": "France", "geoPoint": {"lat": 44.866, "lon": -0.59411}}, {"facility": "Research Site", "city": "Le Perreux Sur Marne", "country": "France", "geoPoint": {"lat": 48.85, "lon": 2.5}}, {"facility": "Research Site", "city": "Lens", "country": "France", "geoPoint": {"lat": 50.43302, "lon": 2.82791}}, {"facility": "Research Site", "city": "Les Sbles D Olonne", "country": "France"}, {"facility": "Research Site", "city": "Libourne", "country": "France", "geoPoint": {"lat": 44.91667, "lon": -0.23333}}, {"facility": "Research Site", "city": "Lille", "country": "France", "geoPoint": {"lat": 50.63297, "lon": 3.05858}}, {"facility": "Research Site", "city": "Limoges Cedex 1", "country": "France", "geoPoint": {"lat": 45.83153, "lon": 1.25781}}, {"facility": "Research Site", "city": "Limoges", "country": "France", "geoPoint": {"lat": 45.83153, "lon": 1.25781}}, {"facility": "Research Site", "city": "Lorient", "country": "France", "geoPoint": {"lat": 47.75, "lon": -3.36667}}, {"facility": "Research Site", "city": "Lunel", "country": "France", "geoPoint": {"lat": 43.67778, "lon": 4.13611}}, {"facility": "Research Site", "city": "Luneville", "country": "France", "geoPoint": {"lat": 48.6, "lon": 6.5}}, {"facility": "Research Site", "city": "Lyon", "country": "France", "geoPoint": {"lat": 45.74848, "lon": 4.84669}}, {"facility": "Research Site", "city": "Maisons Laffitte", "country": "France", "geoPoint": {"lat": 48.95264, "lon": 2.14521}}, {"facility": "Research Site", "city": "Mandelieu La Napoule", "country": "France", "geoPoint": {"lat": 43.55, "lon": 6.93333}}, {"facility": "Research Site", "city": "Marmande", "country": "France", "geoPoint": {"lat": 44.5, "lon": 0.16667}}, {"facility": "Research Site", "city": "Marseille", "country": "France", "geoPoint": {"lat": 43.29551, "lon": 5.38958}}, {"facility": "Research Site", "city": "Marselle", "country": "France", "geoPoint": {"lat": 43.29551, "lon": 5.38958}}, {"facility": "Research Site", "city": "Martigues", "country": "France", "geoPoint": {"lat": 43.40735, "lon": 5.05526}}, {"facility": "Research Site", "city": "Maubeuge", "country": "France", "geoPoint": {"lat": 50.27875, "lon": 3.97267}}, {"facility": "Research Site", "city": "Meaux", "country": "France", "geoPoint": {"lat": 48.96014, "lon": 2.87885}}, {"facility": "Research Site", "city": "Melun", "country": "France", "geoPoint": {"lat": 48.53333, "lon": 2.66667}}, {"facility": "Research Site", "city": "Mende", "country": "France", "geoPoint": {"lat": 44.51667, "lon": 3.5}}, {"facility": "Research Site", "city": "Menton", "country": "France", "geoPoint": {"lat": 43.77649, "lon": 7.50435}}, {"facility": "Research Site", "city": "Metz", "country": "France", "geoPoint": {"lat": 49.11911, "lon": 6.17269}}, {"facility": "Research Site", "city": "Montauban", "country": "France", "geoPoint": {"lat": 44.01667, "lon": 1.35}}, {"facility": "Research Site", "city": "Montbeliard", "country": "France", "geoPoint": {"lat": 47.51667, "lon": 6.8}}, {"facility": "Research Site", "city": "Montereau Fault Yonne", "country": "France", "geoPoint": {"lat": 48.38333, "lon": 2.95}}, {"facility": "Research Site", "city": "Montferrier Sur Lez", "country": "France", "geoPoint": {"lat": 43.66742, "lon": 3.85439}}, {"facility": "Research Site", "city": "Montigny Les Metz", "country": "France", "geoPoint": {"lat": 49.09435, "lon": 6.15167}}, {"facility": "Research Site", "city": "Montpellier", "country": "France", "geoPoint": {"lat": 43.61092, "lon": 3.87723}}, {"facility": "Research Site", "city": "Montreuil", "country": "France", "geoPoint": {"lat": 48.86415, "lon": 2.44322}}, {"facility": "Research Site", "city": "Nantes", "country": "France", "geoPoint": {"lat": 47.21725, "lon": -1.55336}}, {"facility": "Research Site", "city": "Narbonne", "country": "France", "geoPoint": {"lat": 43.18396, "lon": 3.00141}}, {"facility": "Research Site", "city": "Nevers Cedex", "country": "France", "geoPoint": {"lat": 46.98956, "lon": 3.159}}, {"facility": "Research Site", "city": "Nice", "country": "France", "geoPoint": {"lat": 43.70313, "lon": 7.26608}}, {"facility": "Research Site", "city": "Nimes", "country": "France", "geoPoint": {"lat": 43.83333, "lon": 4.35}}, {"facility": "Research Site", "city": "Niort", "country": "France", "geoPoint": {"lat": 46.32313, "lon": -0.45877}}, {"facility": "Research Site", "city": "Obernai", "country": "France", "geoPoint": {"lat": 48.46313, "lon": 7.481}}, {"facility": "Research Site", "city": "Ollioules", "country": "France", "geoPoint": {"lat": 43.13517, "lon": 5.848}}, {"facility": "Research Site", "city": "Oloron Ste Marie", "country": "France"}, {"facility": "Research Site", "city": "Orange", "country": "France", "geoPoint": {"lat": 44.1392, "lon": 4.80791}}, {"facility": "Research Site", "city": "Orleans", "country": "France", "geoPoint": {"lat": 47.90289, "lon": 1.90389}}, {"facility": "Research Site", "city": "Oyonnax", "country": "France", "geoPoint": {"lat": 46.25917, "lon": 5.65727}}, {"facility": "Research Site", "city": "Paris", "country": "France", "geoPoint": {"lat": 48.85341, "lon": 2.3488}}, {"facility": "Research Site", "city": "Pau Cedex", "country": "France", "geoPoint": {"lat": 43.3, "lon": -0.36667}}, {"facility": "Research Site", "city": "Perigueux", "country": "France", "geoPoint": {"lat": 45.18333, "lon": 0.71667}}, {"facility": "Research Site", "city": "Perpignan", "country": "France", "geoPoint": {"lat": 42.69764, "lon": 2.89541}}, {"facility": "Research Site", "city": "Pertuis", "country": "France", "geoPoint": {"lat": 43.69252, "lon": 5.50285}}, {"facility": "Research Site", "city": "Pezenas", "country": "France", "geoPoint": {"lat": 43.45953, "lon": 3.42384}}, {"facility": "Research Site", "city": "Poitiers", "country": "France", "geoPoint": {"lat": 46.58333, "lon": 0.33333}}, {"facility": "Research Site", "city": "Pontault Combault", "country": "France", "geoPoint": {"lat": 48.79813, "lon": 2.60676}}, {"facility": "Research Site", "city": "Pontoise", "country": "France", "geoPoint": {"lat": 49.05, "lon": 2.1}}, {"facility": "Research Site", "city": "Privas", "country": "France", "geoPoint": {"lat": 44.73333, "lon": 4.6}}, {"facility": "Research Site", "city": "Quimper", "country": "France", "geoPoint": {"lat": 48.0, "lon": -4.1}}, {"facility": "Research Site", "city": "Reims", "country": "France", "geoPoint": {"lat": 49.25, "lon": 4.03333}}, {"facility": "Research Site", "city": "Rennes", "country": "France", "geoPoint": {"lat": 48.11198, "lon": -1.67429}}, {"facility": "Research Site", "city": "Reze", "country": "France", "geoPoint": {"lat": 47.18144, "lon": -1.54965}}, {"facility": "Research Site", "city": "Roanne", "country": "France", "geoPoint": {"lat": 46.03333, "lon": 4.06667}}, {"facility": "Research Site", "city": "Rochefort", "country": "France", "geoPoint": {"lat": 45.93333, "lon": -0.98333}}, {"facility": "Research Site", "city": "Romans Sur Isere", "country": "France", "geoPoint": {"lat": 45.04639, "lon": 5.0562}}, {"facility": "Research Site", "city": "Romorantin Lanthenay", "country": "France", "geoPoint": {"lat": 47.36667, "lon": 1.75}}, {"facility": "Research Site", "city": "Rosny Sous Bois", "country": "France", "geoPoint": {"lat": 48.87017, "lon": 2.4991}}, {"facility": "Research Site", "city": "Rouen", "country": "France", "geoPoint": {"lat": 49.44313, "lon": 1.09932}}, {"facility": "Research Site", "city": "Rueil Malmaison", "country": "France", "geoPoint": {"lat": 48.8765, "lon": 2.18967}}, {"facility": "Research Site", "city": "Saint Etienne", "country": "France", "geoPoint": {"lat": 45.43389, "lon": 4.39}}, {"facility": "Research Site", "city": "Saintes", "country": "France", "geoPoint": {"lat": 45.75, "lon": -0.63333}}, {"facility": "Research Site", "city": "Salon De Provence", "country": "France", "geoPoint": {"lat": 43.64074, "lon": 5.09545}}, {"facility": "Research Site", "city": "Sarlat La Ceneda", "country": "France"}, {"facility": "Research Site", "city": "Schiltigheim", "country": "France", "geoPoint": {"lat": 48.60749, "lon": 7.74931}}, {"facility": "Research Site", "city": "Sedan", "country": "France", "geoPoint": {"lat": 49.7, "lon": 4.95}}, {"facility": "Research Site", "city": "Selestat", "country": "France", "geoPoint": {"lat": 48.26667, "lon": 7.45}}, {"facility": "Research Site", "city": "Six Fours Les Plages", "country": "France", "geoPoint": {"lat": 43.1, "lon": 5.85}}, {"facility": "Research Site", "city": "St Amand Les Eaux", "country": "France", "geoPoint": {"lat": 50.44718, "lon": 3.43076}}, {"facility": "Research Site", "city": "St Andre Les Verges", "country": "France"}, {"facility": "Research Site", "city": "St Brieuc cedex 1", "country": "France", "geoPoint": {"lat": 48.51513, "lon": -2.76838}}, {"facility": "Research Site", "city": "St Denis", "country": "France", "geoPoint": {"lat": 48.93326, "lon": 2.36666}}, {"facility": "Research Site", "city": "St Dizier", "country": "France", "geoPoint": {"lat": 48.63333, "lon": 4.95}}, {"facility": "Research Site", "city": "St Esteve Cedex", "country": "France", "geoPoint": {"lat": 42.71175, "lon": 2.8449}}, {"facility": "Research Site", "city": "St Etienne", "country": "France", "geoPoint": {"lat": 45.43389, "lon": 4.39}}, {"facility": "Research Site", "city": "St Girons", "country": "France", "geoPoint": {"lat": 42.98333, "lon": 1.15}}, {"facility": "Research Site", "city": "St Herblain", "country": "France", "geoPoint": {"lat": 47.21765, "lon": -1.64841}}, {"facility": "Research Site", "city": "St Jean De Luz", "country": "France", "geoPoint": {"lat": 43.38871, "lon": -1.66267}}, {"facility": "Research Site", "city": "St Jean De Maurienne", "country": "France", "geoPoint": {"lat": 45.28333, "lon": 6.35}}, {"facility": "Research Site", "city": "St Jean", "country": "France", "geoPoint": {"lat": 43.6642, "lon": 1.49941}}, {"facility": "Research Site", "city": "St Laurent Du Var Cedex", "country": "France", "geoPoint": {"lat": 43.67097, "lon": 7.17606}}, {"facility": "Research Site", "city": "St Malo", "country": "France", "geoPoint": {"lat": 48.65, "lon": -2.01667}}, {"facility": "Research Site", "city": "St Orenes De Gameville", "country": "France"}, {"facility": "Research Site", "city": "St Quentin", "country": "France", "geoPoint": {"lat": 49.84889, "lon": 3.28757}}, {"facility": "Research Site", "city": "St Raphael", "country": "France", "geoPoint": {"lat": 43.42332, "lon": 6.7735}}, {"facility": "Research Site", "city": "Ste Feyre", "country": "France"}, {"facility": "Research Site", "city": "Strasbourg", "country": "France", "geoPoint": {"lat": 48.58392, "lon": 7.74553}}, {"facility": "Research Site", "city": "Tergnier", "country": "France", "geoPoint": {"lat": 49.65607, "lon": 3.30107}}, {"facility": "Research Site", "city": "Thionville", "country": "France", "geoPoint": {"lat": 49.36667, "lon": 6.16667}}, {"facility": "Research Site", "city": "Thonon Les Bains", "country": "France", "geoPoint": {"lat": 46.36667, "lon": 6.48333}}, {"facility": "Research Site", "city": "Toulon", "country": "France", "geoPoint": {"lat": 43.12442, "lon": 5.92836}}, {"facility": "Research Site", "city": "Toulouse", "country": "France", "geoPoint": {"lat": 43.60426, "lon": 1.44367}}, {"facility": "Research Site", "city": "Tours", "country": "France", "geoPoint": {"lat": 47.38333, "lon": 0.68333}}, {"facility": "Research Site", "city": "Valence", "country": "France", "geoPoint": {"lat": 44.93333, "lon": 4.9}}, {"facility": "Research Site", "city": "Vannes", "country": "France", "geoPoint": {"lat": 47.66667, "lon": -2.75}}, {"facility": "Research Site", "city": "Verneuil Sur Seine", "country": "France", "geoPoint": {"lat": 48.97388, "lon": 1.9648}}, {"facility": "Research Site", "city": "Vienne", "country": "France", "geoPoint": {"lat": 45.51667, "lon": 4.86667}}, {"facility": "Research Site", "city": "Villebon Sur Yvette", "country": "France", "geoPoint": {"lat": 48.70594, "lon": 2.24019}}, {"facility": "Research Site", "city": "Villejuif", "country": "France", "geoPoint": {"lat": 48.7939, "lon": 2.35992}}, {"facility": "Research Site", "city": "Viooefranche Sur Saone", "country": "France"}, {"facility": "Research Site", "city": "Voiron", "country": "France", "geoPoint": {"lat": 45.36395, "lon": 5.59209}}, {"facility": "Research Site", "city": "Aachen", "country": "Germany", "geoPoint": {"lat": 50.77664, "lon": 6.08342}}, {"facility": "Research Site", "city": "Annaberg-Buchholz", "country": "Germany", "geoPoint": {"lat": 50.57953, "lon": 13.00627}}, {"facility": "Research Site", "city": "Ansbach", "country": "Germany", "geoPoint": {"lat": 49.30481, "lon": 10.5931}}, {"facility": "Research Site", "city": "Apolda", "country": "Germany", "geoPoint": {"lat": 51.02624, "lon": 11.51638}}, {"facility": "Research Site", "city": "Aschaffenburg", "country": "Germany", "geoPoint": {"lat": 49.97704, "lon": 9.15214}}, {"facility": "Research Site", "city": "Auerbach", "country": "Germany", "geoPoint": {"lat": 50.51155, "lon": 12.40083}}, {"facility": "Research Site", "city": "Augusburg", "country": "Germany"}, {"facility": "Research Site", "city": "Bad Bramstedt", "country": "Germany", "geoPoint": {"lat": 53.9183, "lon": 9.88424}}, {"facility": "Research Site", "city": "Bad Lippspringe", "country": "Germany", "geoPoint": {"lat": 51.78333, "lon": 8.81683}}, {"facility": "Research Site", "city": "Bad Naustadt", "country": "Germany"}, {"facility": "Research Site", "city": "Bad Sassendorf", "country": "Germany", "geoPoint": {"lat": 51.58333, "lon": 8.16667}}, {"facility": "Research Site", "city": "Bergkamen", "country": "Germany", "geoPoint": {"lat": 51.61633, "lon": 7.64451}}, {"facility": "Research Site", "city": "Bergrheinfeld", "country": "Germany", "geoPoint": {"lat": 50.01028, "lon": 10.18089}}, {"facility": "Research Site", "city": "Berlin", "country": "Germany", "geoPoint": {"lat": 52.52437, "lon": 13.41053}}, {"facility": "Research Site", "city": "Bernau", "country": "Germany", "geoPoint": {"lat": 52.67982, "lon": 13.58708}}, {"facility": "Research Site", "city": "Bernsheim", "country": "Germany"}, {"facility": "Research Site", "city": "Beucha", "country": "Germany", "geoPoint": {"lat": 51.3231, "lon": 12.56218}}, {"facility": "Research Site", "city": "Bochum", "country": "Germany", "geoPoint": {"lat": 51.48165, "lon": 7.21648}}, {"facility": "Research Site", "city": "Bockenem", "country": "Germany", "geoPoint": {"lat": 52.00993, "lon": 10.13197}}, {"facility": "Research Site", "city": "Bogen", "country": "Germany", "geoPoint": {"lat": 48.91122, "lon": 12.68955}}, {"facility": "Research Site", "city": "Bonn", "country": "Germany", "geoPoint": {"lat": 50.73438, "lon": 7.09549}}, {"facility": "Research Site", "city": "Borna", "country": "Germany", "geoPoint": {"lat": 51.12416, "lon": 12.49639}}, {"facility": "Research Site", "city": "Braunschweig", "country": "Germany", "geoPoint": {"lat": 52.26594, "lon": 10.52673}}, {"facility": "Research Site", "city": "Buchholz", "country": "Germany", "geoPoint": {"lat": 53.00884, "lon": 9.56287}}, {"facility": "Research Site", "city": "Burgwedel", "country": "Germany", "geoPoint": {"lat": 53.65091, "lon": 9.90652}}, {"facility": "Research Site", "city": "Chemnitz", "country": "Germany", "geoPoint": {"lat": 50.8357, "lon": 12.92922}}, {"facility": "Research Site", "city": "Coswig", "country": "Germany", "geoPoint": {"lat": 51.13204, "lon": 13.58312}}, {"facility": "Research Site", "city": "Cottbus", "country": "Germany", "geoPoint": {"lat": 51.75769, "lon": 14.32888}}, {"facility": "Research Site", "city": "Deggendorf", "country": "Germany", "geoPoint": {"lat": 48.84085, "lon": 12.96068}}, {"facility": "Research Site", "city": "Dillingen", "country": "Germany", "geoPoint": {"lat": 49.35557, "lon": 6.72781}}, {"facility": "Research Site", "city": "Dortmund", "country": "Germany", "geoPoint": {"lat": 51.51494, "lon": 7.466}}, {"facility": "Research Site", "city": "Dresden", "country": "Germany", "geoPoint": {"lat": 51.05089, "lon": 13.73832}}, {"facility": "Research Site", "city": "Dusseldorf", "country": "Germany", "geoPoint": {"lat": 51.22172, "lon": 6.77616}}, {"facility": "Research Site", "city": "Emeden", "country": "Germany"}, {"facility": "Research Site", "city": "Eppelborn", "country": "Germany", "geoPoint": {"lat": 49.4, "lon": 6.96667}}, {"facility": "Research Site", "city": "Erfurt", "country": "Germany", "geoPoint": {"lat": 50.9787, "lon": 11.03283}}, {"facility": "Research Site", "city": "Essen", "country": "Germany", "geoPoint": {"lat": 51.45657, "lon": 7.01228}}, {"facility": "Research Site", "city": "Esslingen", "country": "Germany", "geoPoint": {"lat": 48.73961, "lon": 9.30473}}, {"facility": "Research Site", "city": "Flensburg", "country": "Germany", "geoPoint": {"lat": 54.78431, "lon": 9.43961}}, {"facility": "Research Site", "city": "Frankfurt", "country": "Germany", "geoPoint": {"lat": 50.11552, "lon": 8.68417}}, {"facility": "Research Site", "city": "Freiberg", "country": "Germany", "geoPoint": {"lat": 50.91089, "lon": 13.33881}}, {"facility": "Research Site", "city": "Freital", "country": "Germany", "geoPoint": {"lat": 51.00166, "lon": 13.6488}}, {"facility": "Research Site", "city": "Furstenfeldbruck", "country": "Germany", "geoPoint": {"lat": 48.17904, "lon": 11.2547}}, {"facility": "Research Site", "city": "Furstenwalde", "country": "Germany", "geoPoint": {"lat": 52.36067, "lon": 14.06185}}, {"facility": "Research Site", "city": "Furth", "country": "Germany", "geoPoint": {"lat": 49.47593, "lon": 10.98856}}, {"facility": "Research Site", "city": "Geesthacht", "country": "Germany", "geoPoint": {"lat": 53.43575, "lon": 10.3779}}, {"facility": "Research Site", "city": "Geisen", "country": "Germany"}, {"facility": "Research Site", "city": "Gelnhausen", "country": "Germany", "geoPoint": {"lat": 50.20164, "lon": 9.18742}}, {"facility": "Research Site", "city": "Gelsenkirchen", "country": "Germany", "geoPoint": {"lat": 51.50508, "lon": 7.09655}}, {"facility": "Research Site", "city": "Greven", "country": "Germany", "geoPoint": {"lat": 52.09364, "lon": 7.59396}}, {"facility": "Research Site", "city": "Gutersloh", "country": "Germany", "geoPoint": {"lat": 51.90693, "lon": 8.37853}}, {"facility": "Research Site", "city": "Hagen", "country": "Germany", "geoPoint": {"lat": 51.36081, "lon": 7.47168}}, {"facility": "Research Site", "city": "Halle", "country": "Germany", "geoPoint": {"lat": 51.48159, "lon": 11.97948}}, {"facility": "Research Site", "city": "Hamburg", "country": "Germany", "geoPoint": {"lat": 53.57532, "lon": 10.01534}}, {"facility": "Research Site", "city": "Hannover", "country": "Germany", "geoPoint": {"lat": 52.37052, "lon": 9.73322}}, {"facility": "Research Site", "city": "Heidelberg", "country": "Germany", "geoPoint": {"lat": 49.40768, "lon": 8.69079}}, {"facility": "Research Site", "city": "Heilbronn", "country": "Germany", "geoPoint": {"lat": 49.13995, "lon": 9.22054}}, {"facility": "Research Site", "city": "Hsloch", "country": "Germany"}, {"facility": "Research Site", "city": "Ingolstadt", "country": "Germany", "geoPoint": {"lat": 48.76508, "lon": 11.42372}}, {"facility": "Research Site", "city": "Kaarst", "country": "Germany", "geoPoint": {"lat": 51.22929, "lon": 6.61883}}, {"facility": "Research Site", "city": "Karlsruhe-Durlach", "country": "Germany"}, {"facility": "Research Site", "city": "Karlsruhe", "country": "Germany", "geoPoint": {"lat": 49.00937, "lon": 8.40444}}, {"facility": "Research Site", "city": "Kassel", "country": "Germany", "geoPoint": {"lat": 51.31667, "lon": 9.5}}, {"facility": "Research Site", "city": "Katzhutte", "country": "Germany", "geoPoint": {"lat": 50.55183, "lon": 11.05353}}, {"facility": "Research Site", "city": "Kempten", "country": "Germany", "geoPoint": {"lat": 47.72674, "lon": 10.31389}}, {"facility": "Research Site", "city": "Ketzin", "country": "Germany", "geoPoint": {"lat": 52.47809, "lon": 12.8453}}, {"facility": "Research Site", "city": "Kiel", "country": "Germany", "geoPoint": {"lat": 54.32133, "lon": 10.13489}}, {"facility": "Research Site", "city": "Kippenheim", "country": "Germany", "geoPoint": {"lat": 48.29564, "lon": 7.8251}}, {"facility": "Research Site", "city": "Kirchhain", "country": "Germany", "geoPoint": {"lat": 50.8272, "lon": 8.92806}}, {"facility": "Research Site", "city": "Koln", "country": "Germany", "geoPoint": {"lat": 50.93333, "lon": 6.95}}, {"facility": "Research Site", "city": "Krefeld", "country": "Germany", "geoPoint": {"lat": 51.33645, "lon": 6.55382}}, {"facility": "Research Site", "city": "Laage", "country": "Germany", "geoPoint": {"lat": 53.9256, "lon": 12.34694}}, {"facility": "Research Site", "city": "Landsberg", "country": "Germany", "geoPoint": {"lat": 51.52698, "lon": 12.16076}}, {"facility": "Research Site", "city": "Lebach", "country": "Germany", "geoPoint": {"lat": 49.41122, "lon": 6.90988}}, {"facility": "Research Site", "city": "Leipzig", "country": "Germany", "geoPoint": {"lat": 51.33962, "lon": 12.37129}}, {"facility": "Research Site", "city": "Lippstadt", "country": "Germany", "geoPoint": {"lat": 51.67369, "lon": 8.34482}}, {"facility": "Research Site", "city": "Lubeck", "country": "Germany", "geoPoint": {"lat": 53.86893, "lon": 10.68729}}, {"facility": "Research Site", "city": "Ludenscheid", "country": "Germany", "geoPoint": {"lat": 51.21977, "lon": 7.6273}}, {"facility": "Research Site", "city": "Lutjenburg", "country": "Germany", "geoPoint": {"lat": 54.29188, "lon": 10.58945}}, {"facility": "Research Site", "city": "Magdenburg", "country": "Germany"}, {"facility": "Research Site", "city": "Mainz", "country": "Germany", "geoPoint": {"lat": 49.98419, "lon": 8.2791}}, {"facility": "Research Site", "city": "Marburg", "country": "Germany", "geoPoint": {"lat": 50.80904, "lon": 8.77069}}, {"facility": "Research Site", "city": "Marl", "country": "Germany", "geoPoint": {"lat": 51.65671, "lon": 7.09038}}, {"facility": "Research Site", "city": "Meisen", "country": "Germany"}, {"facility": "Research Site", "city": "Mittelbach", "country": "Germany"}, {"facility": "Research Site", "city": "Moers", "country": "Germany", "geoPoint": {"lat": 51.45342, "lon": 6.6326}}, {"facility": "Research Site", "city": "Muhlhausen", "country": "Germany", "geoPoint": {"lat": 51.20896, "lon": 10.45275}}, {"facility": "Research Site", "city": "Mulheim", "country": "Germany", "geoPoint": {"lat": 51.43218, "lon": 6.87967}}, {"facility": "Research Site", "city": "Mulsen", "country": "Germany", "geoPoint": {"lat": 50.75, "lon": 12.56667}}, {"facility": "Research Site", "city": "Munchen", "country": "Germany", "geoPoint": {"lat": 48.13743, "lon": 11.57549}}, {"facility": "Research Site", "city": "Neukirchen-Vluyn", "country": "Germany", "geoPoint": {"lat": 51.78333, "lon": 6.4}}, {"facility": "Research Site", "city": "Neunkirchen", "country": "Germany", "geoPoint": {"lat": 49.34449, "lon": 7.18045}}, {"facility": "Research Site", "city": "Neunstadt", "country": "Germany", "geoPoint": {"lat": 48.94793, "lon": 10.18244}}, {"facility": "Research Site", "city": "Neuss", "country": "Germany", "geoPoint": {"lat": 51.19807, "lon": 6.68504}}, {"facility": "Research Site", "city": "Niesky", "country": "Germany", "geoPoint": {"lat": 51.29241, "lon": 14.82107}}, {"facility": "Research Site", "city": "Oranienburg", "country": "Germany", "geoPoint": {"lat": 52.75577, "lon": 13.24197}}, {"facility": "Research Site", "city": "Oschersleben", "country": "Germany", "geoPoint": {"lat": 52.03039, "lon": 11.22898}}, {"facility": "Research Site", "city": "Osnabr\ufffdck", "country": "Germany", "geoPoint": {"lat": 52.27264, "lon": 8.0498}}, {"facility": "Research Site", "city": "Pirmasens", "country": "Germany", "geoPoint": {"lat": 49.20145, "lon": 7.60529}}, {"facility": "Research Site", "city": "Potsdam", "country": "Germany", "geoPoint": {"lat": 52.39886, "lon": 13.06566}}, {"facility": "Research Site", "city": "Potsda", "country": "Germany"}, {"facility": "Research Site", "city": "Rathenow", "country": "Germany", "geoPoint": {"lat": 52.60659, "lon": 12.33696}}, {"facility": "Research Site", "city": "Ratingen", "country": "Germany", "geoPoint": {"lat": 51.29724, "lon": 6.84929}}, {"facility": "Research Site", "city": "Recklinghausen", "country": "Germany", "geoPoint": {"lat": 51.61379, "lon": 7.19738}}, {"facility": "Research Site", "city": "Remscheid", "country": "Germany", "geoPoint": {"lat": 51.17983, "lon": 7.1925}}, {"facility": "Research Site", "city": "Rodgau", "country": "Germany", "geoPoint": {"lat": 50.02627, "lon": 8.88588}}, {"facility": "Research Site", "city": "Saarbrucken", "country": "Germany", "geoPoint": {"lat": 49.23262, "lon": 7.0098}}, {"facility": "Research Site", "city": "Saarlouis", "country": "Germany", "geoPoint": {"lat": 49.31366, "lon": 6.75154}}, {"facility": "Research Site", "city": "Sangerhausen", "country": "Germany", "geoPoint": {"lat": 51.47221, "lon": 11.29533}}, {"facility": "Research Site", "city": "Schimiedeberg", "country": "Germany"}, {"facility": "Research Site", "city": "Schwetzingen", "country": "Germany", "geoPoint": {"lat": 49.38217, "lon": 8.5823}}, {"facility": "Research Site", "city": "Silbitz", "country": "Germany", "geoPoint": {"lat": 50.95, "lon": 12.0}}, {"facility": "Research Site", "city": "Sindelfingen", "country": "Germany", "geoPoint": {"lat": 48.7, "lon": 9.01667}}, {"facility": "Research Site", "city": "Solingen", "country": "Germany", "geoPoint": {"lat": 51.17343, "lon": 7.0845}}, {"facility": "Research Site", "city": "Stade", "country": "Germany", "geoPoint": {"lat": 53.59337, "lon": 9.47629}}, {"facility": "Research Site", "city": "Steinhagen", "country": "Germany", "geoPoint": {"lat": 52.0, "lon": 8.4}}, {"facility": "Research Site", "city": "Stockach", "country": "Germany", "geoPoint": {"lat": 47.85105, "lon": 9.0091}}, {"facility": "Research Site", "city": "Straelen", "country": "Germany", "geoPoint": {"lat": 51.4419, "lon": 6.26639}}, {"facility": "Research Site", "city": "Stutensee", "country": "Germany"}, {"facility": "Research Site", "city": "Stuttgart", "country": "Germany", "geoPoint": {"lat": 48.78232, "lon": 9.17702}}, {"facility": "Research Site", "city": "Tiefenbach", "country": "Germany", "geoPoint": {"lat": 48.5, "lon": 12.1}}, {"facility": "Research Site", "city": "Ueckermunde", "country": "Germany", "geoPoint": {"lat": 53.73795, "lon": 14.04473}}, {"facility": "Research Site", "city": "Wallerfangen", "country": "Germany", "geoPoint": {"lat": 49.32755, "lon": 6.71108}}, {"facility": "Research Site", "city": "Wedel", "country": "Germany", "geoPoint": {"lat": 53.58374, "lon": 9.69835}}, {"facility": "Research Site", "city": "Weimar", "country": "Germany", "geoPoint": {"lat": 50.9803, "lon": 11.32903}}, {"facility": "Research Site", "city": "Wesseling", "country": "Germany", "geoPoint": {"lat": 50.82709, "lon": 6.9747}}, {"facility": "Research Site", "city": "Weyhe", "country": "Germany", "geoPoint": {"lat": 52.96667, "lon": 8.66667}}, {"facility": "Research Site", "city": "Wilhelmshaven", "country": "Germany", "geoPoint": {"lat": 53.52998, "lon": 8.11253}}, {"facility": "Research Site", "city": "Wunstorf", "country": "Germany", "geoPoint": {"lat": 52.42377, "lon": 9.43585}}, {"facility": "Research Site", "city": "Wuppertal", "country": "Germany", "geoPoint": {"lat": 51.27027, "lon": 7.16755}}, {"facility": "Research Site", "city": "Alexandroupolos", "country": "Greece"}, {"facility": "Research Site", "city": "Athens", "country": "Greece", "geoPoint": {"lat": 37.97945, "lon": 23.71622}}, {"facility": "Research Site", "city": "Crete", "country": "Greece"}, {"facility": "Research Site", "city": "Kavala", "country": "Greece", "geoPoint": {"lat": 40.93959, "lon": 24.40687}}, {"facility": "Research Site", "city": "Larissa", "country": "Greece", "geoPoint": {"lat": 39.63689, "lon": 22.41761}}, {"facility": "Research Site", "city": "Thessaloniki", "country": "Greece", "geoPoint": {"lat": 40.64361, "lon": 22.93086}}, {"facility": "Research Site", "city": "Reykjavik", "country": "Iceland", "geoPoint": {"lat": 64.13548, "lon": -21.89541}}, {"facility": "Research Site", "city": "Bautry", "country": "Ireland"}, {"facility": "Research Site", "city": "Beaumont Park", "country": "Ireland"}, {"facility": "Research Site", "city": "Bishopstown", "country": "Ireland", "geoPoint": {"lat": 51.87326, "lon": -8.54449}}, {"facility": "Research Site", "city": "Blaemy", "country": "Ireland"}, {"facility": "Research Site", "city": "Blanchardstown", "country": "Ireland", "geoPoint": {"lat": 53.38806, "lon": -6.37556}}, {"facility": "Research Site", "city": "Canigtwohill", "country": "Ireland"}, {"facility": "Research Site", "city": "Carlow Town", "country": "Ireland"}, {"facility": "Research Site", "city": "Carrigaline", "country": "Ireland", "geoPoint": {"lat": 51.81167, "lon": -8.39861}}, {"facility": "Research Site", "city": "Clonakilty", "country": "Ireland", "geoPoint": {"lat": 51.62306, "lon": -8.87056}}, {"facility": "Research Site", "city": "Douglas East", "country": "Ireland"}, {"facility": "Research Site", "city": "Drogheda", "country": "Ireland", "geoPoint": {"lat": 53.71889, "lon": -6.34778}}, {"facility": "Research Site", "city": "Dublin", "country": "Ireland", "geoPoint": {"lat": 53.33306, "lon": -6.24889}}, {"facility": "Research Site", "city": "Gorey", "country": "Ireland", "geoPoint": {"lat": 52.67472, "lon": -6.2925}}, {"facility": "Research Site", "city": "Headford", "country": "Ireland", "geoPoint": {"lat": 53.46667, "lon": -9.1}}, {"facility": "Research Site", "city": "Kilfinanen", "country": "Ireland"}, {"facility": "Research Site", "city": "Kilmallock", "country": "Ireland", "geoPoint": {"lat": 52.4, "lon": -8.57722}}, {"facility": "Research Site", "city": "Kinvara", "country": "Ireland"}, {"facility": "Research Site", "city": "Macroom", "country": "Ireland", "geoPoint": {"lat": 51.90643, "lon": -8.96908}}, {"facility": "Research Site", "city": "Mallow", "country": "Ireland", "geoPoint": {"lat": 52.13333, "lon": -8.63333}}, {"facility": "Research Site", "city": "Maynooth", "country": "Ireland", "geoPoint": {"lat": 53.385, "lon": -6.59361}}, {"facility": "Research Site", "city": "Mullingar", "country": "Ireland", "geoPoint": {"lat": 53.53333, "lon": -7.35}}, {"facility": "Research Site", "city": "Naas", "country": "Ireland", "geoPoint": {"lat": 53.21583, "lon": -6.66694}}, {"facility": "Research Site", "city": "Phibsboro", "country": "Ireland"}, {"facility": "Research Site", "city": "Wexfoord", "country": "Ireland"}, {"facility": "Research Site", "city": "Acquaviva della Fonti", "country": "Italy"}, {"facility": "Research Site", "city": "Alba", "country": "Italy", "geoPoint": {"lat": 44.6999, "lon": 8.0347}}, {"facility": "Research Site", "city": "Alessandria", "country": "Italy", "geoPoint": {"lat": 44.90924, "lon": 8.61007}}, {"facility": "Research Site", "city": "Arezzo", "country": "Italy", "geoPoint": {"lat": 43.46276, "lon": 11.88068}}, {"facility": "Research Site", "city": "Ascoli Piceno", "country": "Italy", "geoPoint": {"lat": 42.85351, "lon": 13.57395}}, {"facility": "Research Site", "city": "Avellino", "country": "Italy", "geoPoint": {"lat": 40.91494, "lon": 14.79103}}, {"facility": "Research Site", "city": "Bari", "country": "Italy", "geoPoint": {"lat": 41.11148, "lon": 16.8554}}, {"facility": "Research Site", "city": "Benevento", "country": "Italy", "geoPoint": {"lat": 41.1307, "lon": 14.77816}}, {"facility": "Research Site", "city": "Bergamo", "country": "Italy", "geoPoint": {"lat": 45.69601, "lon": 9.66721}}, {"facility": "Research Site", "city": "Bologna", "country": "Italy", "geoPoint": {"lat": 44.49381, "lon": 11.33875}}, {"facility": "Research Site", "city": "Brescia", "country": "Italy", "geoPoint": {"lat": 45.53558, "lon": 10.21472}}, {"facility": "Research Site", "city": "Busto Arsizio", "country": "Italy", "geoPoint": {"lat": 45.61128, "lon": 8.84914}}, {"facility": "Research Site", "city": "Cagliari", "country": "Italy", "geoPoint": {"lat": 39.23054, "lon": 9.11917}}, {"facility": "Research Site", "city": "Cantanzaro", "country": "Italy"}, {"facility": "Research Site", "city": "Caserta", "country": "Italy", "geoPoint": {"lat": 41.07262, "lon": 14.33231}}, {"facility": "Research Site", "city": "Catania", "country": "Italy", "geoPoint": {"lat": 37.49223, "lon": 15.07041}}, {"facility": "Research Site", "city": "Catanzaro", "country": "Italy", "geoPoint": {"lat": 38.88247, "lon": 16.60086}}, {"facility": "Research Site", "city": "Cattinara", "country": "Italy", "geoPoint": {"lat": 45.63472, "lon": 13.82792}}, {"facility": "Research Site", "city": "Cava dei Tirreni", "country": "Italy"}, {"facility": "Research Site", "city": "Chieti", "country": "Italy", "geoPoint": {"lat": 42.34827, "lon": 14.16494}}, {"facility": "Research Site", "city": "Cittadella", "country": "Italy", "geoPoint": {"lat": 45.64523, "lon": 11.78453}}, {"facility": "Research Site", "city": "Como", "country": "Italy", "geoPoint": {"lat": 45.80819, "lon": 9.0832}}, {"facility": "Research Site", "city": "Coppito", "country": "Italy", "geoPoint": {"lat": 42.3673, "lon": 13.34358}}, {"facility": "Research Site", "city": "Crema", "country": "Italy", "geoPoint": {"lat": 45.36264, "lon": 9.68176}}, {"facility": "Research Site", "city": "Cuneo", "country": "Italy", "geoPoint": {"lat": 44.39071, "lon": 7.54828}}, {"facility": "Research Site", "city": "Fano", "country": "Italy", "geoPoint": {"lat": 43.84052, "lon": 13.01665}}, {"facility": "Research Site", "city": "Ferrara", "country": "Italy", "geoPoint": {"lat": 44.83804, "lon": 11.62057}}, {"facility": "Research Site", "city": "Firenze", "country": "Italy", "geoPoint": {"lat": 43.77925, "lon": 11.24626}}, {"facility": "Research Site", "city": "Foggia", "country": "Italy", "geoPoint": {"lat": 41.45845, "lon": 15.55188}}, {"facility": "Research Site", "city": "Genova", "country": "Italy", "geoPoint": {"lat": 44.40478, "lon": 8.94438}}, {"facility": "Research Site", "city": "Jesi", "country": "Italy", "geoPoint": {"lat": 43.52142, "lon": 13.24368}}, {"facility": "Research Site", "city": "Latina", "country": "Italy", "geoPoint": {"lat": 41.46614, "lon": 12.9043}}, {"facility": "Research Site", "city": "Lecco", "country": "Italy", "geoPoint": {"lat": 45.85589, "lon": 9.39704}}, {"facility": "Research Site", "city": "Livorno", "country": "Italy", "geoPoint": {"lat": 43.54427, "lon": 10.32615}}, {"facility": "Research Site", "city": "Lugo", "country": "Italy", "geoPoint": {"lat": 44.42137, "lon": 11.91094}}, {"facility": "Research Site", "city": "Lungro", "country": "Italy", "geoPoint": {"lat": 39.73772, "lon": 16.12586}}, {"facility": "Research Site", "city": "Macerata", "country": "Italy", "geoPoint": {"lat": 43.29789, "lon": 13.45293}}, {"facility": "Research Site", "city": "Matera", "country": "Italy", "geoPoint": {"lat": 40.66599, "lon": 16.60463}}, {"facility": "Research Site", "city": "Mercatino San Severiono", "country": "Italy"}, {"facility": "Research Site", "city": "Messina", "country": "Italy", "geoPoint": {"lat": 38.19394, "lon": 15.55256}}, {"facility": "Research Site", "city": "Milano", "country": "Italy", "geoPoint": {"lat": 45.46427, "lon": 9.18951}}, {"facility": "Research Site", "city": "Modena", "country": "Italy", "geoPoint": {"lat": 44.64783, "lon": 10.92539}}, {"facility": "Research Site", "city": "Monza", "country": "Italy", "geoPoint": {"lat": 45.58005, "lon": 9.27246}}, {"facility": "Research Site", "city": "Napoli", "country": "Italy", "geoPoint": {"lat": 40.85216, "lon": 14.26811}}, {"facility": "Research Site", "city": "Novara", "country": "Italy", "geoPoint": {"lat": 45.44694, "lon": 8.62118}}, {"facility": "Research Site", "city": "Orbassano", "country": "Italy", "geoPoint": {"lat": 45.00547, "lon": 7.53813}}, {"facility": "Research Site", "city": "Padova", "country": "Italy", "geoPoint": {"lat": 45.40797, "lon": 11.88586}}, {"facility": "Research Site", "city": "Palermo", "country": "Italy", "geoPoint": {"lat": 38.13205, "lon": 13.33561}}, {"facility": "Research Site", "city": "Parma", "country": "Italy", "geoPoint": {"lat": 44.79935, "lon": 10.32618}}, {"facility": "Research Site", "city": "Pavia", "country": "Italy", "geoPoint": {"lat": 45.19205, "lon": 9.15917}}, {"facility": "Research Site", "city": "Perugia", "country": "Italy", "geoPoint": {"lat": 43.1122, "lon": 12.38878}}, {"facility": "Research Site", "city": "Pesaro", "country": "Italy", "geoPoint": {"lat": 43.90921, "lon": 12.9164}}, {"facility": "Research Site", "city": "Pescara", "country": "Italy", "geoPoint": {"lat": 42.4584, "lon": 14.20283}}, {"facility": "Research Site", "city": "Pietra Ligure", "country": "Italy", "geoPoint": {"lat": 44.1492, "lon": 8.28206}}, {"facility": "Research Site", "city": "Pisa", "country": "Italy", "geoPoint": {"lat": 43.70853, "lon": 10.4036}}, {"facility": "Research Site", "city": "Pordenone", "country": "Italy", "geoPoint": {"lat": 45.95689, "lon": 12.66051}}, {"facility": "Research Site", "city": "Prato", "country": "Italy", "geoPoint": {"lat": 43.8805, "lon": 11.09699}}, {"facility": "Research Site", "city": "Reggio Calabria", "country": "Italy", "geoPoint": {"lat": 38.11047, "lon": 15.66129}}, {"facility": "Research Site", "city": "Reggio Emilia", "country": "Italy", "geoPoint": {"lat": 44.69825, "lon": 10.63125}}, {"facility": "Research Site", "city": "Rocca Priora", "country": "Italy", "geoPoint": {"lat": 41.76585, "lon": 12.76577}}, {"facility": "Research Site", "city": "Roma", "country": "Italy", "geoPoint": {"lat": 41.89193, "lon": 12.51133}}, {"facility": "Research Site", "city": "Rovigo", "country": "Italy", "geoPoint": {"lat": 45.06982, "lon": 11.79022}}, {"facility": "Research Site", "city": "Rozzano", "country": "Italy", "geoPoint": {"lat": 45.38193, "lon": 9.1559}}, {"facility": "Research Site", "city": "San Pietro Vernotico", "country": "Italy", "geoPoint": {"lat": 40.4889, "lon": 17.99752}}, {"facility": "Research Site", "city": "Sarzana", "country": "Italy", "geoPoint": {"lat": 44.11178, "lon": 9.9622}}, {"facility": "Research Site", "city": "Sassari", "country": "Italy", "geoPoint": {"lat": 40.72586, "lon": 8.55552}}, {"facility": "Research Site", "city": "Sesto San Giovanni", "country": "Italy", "geoPoint": {"lat": 45.53329, "lon": 9.22585}}, {"facility": "Research Site", "city": "Siena", "country": "Italy", "geoPoint": {"lat": 43.31822, "lon": 11.33064}}, {"facility": "Research Site", "city": "Siracusa", "country": "Italy", "geoPoint": {"lat": 37.08415, "lon": 15.27628}}, {"facility": "Research Site", "city": "Terni", "country": "Italy", "geoPoint": {"lat": 42.56335, "lon": 12.64329}}, {"facility": "Research Site", "city": "Torino", "country": "Italy", "geoPoint": {"lat": 45.07049, "lon": 7.68682}}, {"facility": "Research Site", "city": "Torrette", "country": "Italy"}, {"facility": "Research Site", "city": "Trapani", "country": "Italy", "geoPoint": {"lat": 38.0176, "lon": 12.53617}}, {"facility": "Research Site", "city": "Verona", "country": "Italy", "geoPoint": {"lat": 45.4299, "lon": 10.98444}}, {"facility": "Research Site", "city": "Vicenza", "country": "Italy", "geoPoint": {"lat": 45.54672, "lon": 11.5475}}, {"facility": "Research Site", "city": "Vimercate", "country": "Italy", "geoPoint": {"lat": 45.61545, "lon": 9.36801}}, {"facility": "Research Site", "city": "Beek en", "country": "Netherlands"}, {"facility": "Research Site", "city": "Beerzerveld", "country": "Netherlands", "geoPoint": {"lat": 52.49333, "lon": 6.57361}}, {"facility": "Research Site", "city": "Bennebroek", "country": "Netherlands", "geoPoint": {"lat": 52.32083, "lon": 4.59861}}, {"facility": "Research Site", "city": "Den Bosch", "country": "Netherlands", "geoPoint": {"lat": 51.27, "lon": 5.59167}}, {"facility": "Research Site", "city": "Den Haag", "country": "Netherlands", "geoPoint": {"lat": 52.07667, "lon": 4.29861}}, {"facility": "Research Site", "city": "Deurne", "country": "Netherlands", "geoPoint": {"lat": 51.46, "lon": 5.79722}}, {"facility": "Research Site", "city": "Dordrecht", "country": "Netherlands", "geoPoint": {"lat": 51.81, "lon": 4.67361}}, {"facility": "Research Site", "city": "Echt", "country": "Netherlands", "geoPoint": {"lat": 51.10583, "lon": 5.87361}}, {"facility": "Research Site", "city": "Ermelo", "country": "Netherlands", "geoPoint": {"lat": 52.29833, "lon": 5.62222}}, {"facility": "Research Site", "city": "Fen Haag", "country": "Netherlands"}, {"facility": "Research Site", "city": "Hoogvliet", "country": "Netherlands", "geoPoint": {"lat": 51.86333, "lon": 4.3625}}, {"facility": "Research Site", "city": "Hoogwoud", "country": "Netherlands", "geoPoint": {"lat": 52.71583, "lon": 4.93889}}, {"facility": "Research Site", "city": "Lieshout", "country": "Netherlands", "geoPoint": {"lat": 51.52083, "lon": 5.59478}}, {"facility": "Research Site", "city": "Losser", "country": "Netherlands", "geoPoint": {"lat": 52.26083, "lon": 7.00417}}, {"facility": "Research Site", "city": "Nijmegen", "country": "Netherlands", "geoPoint": {"lat": 51.8425, "lon": 5.85278}}, {"facility": "Research Site", "city": "Oude-Pekela", "country": "Netherlands", "geoPoint": {"lat": 53.10417, "lon": 7.00972}}, {"facility": "Research Site", "city": "Poortvliet", "country": "Netherlands", "geoPoint": {"lat": 51.54417, "lon": 4.14306}}, {"facility": "Research Site", "city": "Rijswijk", "country": "Netherlands", "geoPoint": {"lat": 52.03634, "lon": 4.32501}}, {"facility": "Research Site", "city": "Roelofarends", "country": "Netherlands"}, {"facility": "Research Site", "city": "Soerendonk", "country": "Netherlands", "geoPoint": {"lat": 51.30083, "lon": 5.575}}, {"facility": "Research Site", "city": "Spijkenisse", "country": "Netherlands", "geoPoint": {"lat": 51.845, "lon": 4.32917}}, {"facility": "Research Site", "city": "Voerendaal", "country": "Netherlands", "geoPoint": {"lat": 50.88327, "lon": 5.92978}}, {"facility": "Research Site", "city": "Weerselo", "country": "Netherlands", "geoPoint": {"lat": 52.35167, "lon": 6.85694}}, {"facility": "Research Site", "city": "Wildevank", "country": "Netherlands"}, {"facility": "Research Site", "city": "Woerden", "country": "Netherlands", "geoPoint": {"lat": 52.085, "lon": 4.88333}}, {"facility": "Research Site", "city": "Zaandam", "country": "Netherlands", "geoPoint": {"lat": 52.43854, "lon": 4.82643}}, {"facility": "Research Site", "city": "Zutphen", "country": "Netherlands", "geoPoint": {"lat": 52.13833, "lon": 6.20139}}, {"facility": "Research Site", "city": "Bergen", "country": "Norway", "geoPoint": {"lat": 60.39299, "lon": 5.32415}}, {"facility": "Research Site", "city": "B\ufffdverbru", "country": "Norway"}, {"facility": "Research Site", "city": "Elverum", "country": "Norway", "geoPoint": {"lat": 60.88191, "lon": 11.56231}}, {"facility": "Research Site", "city": "Fevik", "country": "Norway", "geoPoint": {"lat": 58.3782, "lon": 8.67601}}, {"facility": "Research Site", "city": "Fredrikstad", "country": "Norway", "geoPoint": {"lat": 59.2181, "lon": 10.9298}}, {"facility": "Research Site", "city": "Larvik", "country": "Norway", "geoPoint": {"lat": 59.05328, "lon": 10.03517}}, {"facility": "Research Site", "city": "Lovenstad", "country": "Norway"}, {"facility": "Research Site", "city": "Oslo", "country": "Norway", "geoPoint": {"lat": 59.91273, "lon": 10.74609}}, {"facility": "Research Site", "city": "Radal", "country": "Norway", "geoPoint": {"lat": 60.31063, "lon": 5.34554}}, {"facility": "Research Site", "city": "Roa", "country": "Norway"}, {"facility": "Research Site", "city": "Ski", "country": "Norway", "geoPoint": {"lat": 59.71949, "lon": 10.83576}}, {"facility": "Research Site", "city": "Ulstet", "country": "Norway"}, {"facility": "Research Site", "city": "Kasan", "country": "Russian Federation", "geoPoint": {"lat": 55.78874, "lon": 49.12214}}, {"facility": "Research Site", "city": "Moscow", "country": "Russian Federation", "geoPoint": {"lat": 55.75222, "lon": 37.61556}}, {"facility": "Research Site", "city": "St-Petersburg", "country": "Russian Federation", "geoPoint": {"lat": 59.93863, "lon": 30.31413}}, {"facility": "Research Site", "city": "Yaroslavl", "country": "Russian Federation", "geoPoint": {"lat": 57.62987, "lon": 39.87368}}, {"facility": "Research Site", "city": "Alcala de Henares", "country": "Spain", "geoPoint": {"lat": 40.48205, "lon": -3.35996}}, {"facility": "Research Site", "city": "Alcorcon", "country": "Spain", "geoPoint": {"lat": 40.34582, "lon": -3.82487}}, {"facility": "Research Site", "city": "Alicante Orihuela", "country": "Spain"}, {"facility": "Research Site", "city": "Alicante. Elda", "country": "Spain"}, {"facility": "Research Site", "city": "Andujar", "country": "Spain", "geoPoint": {"lat": 38.03922, "lon": -4.05077}}, {"facility": "Research Site", "city": "Aviles", "country": "Spain", "geoPoint": {"lat": 43.55473, "lon": -5.92483}}, {"facility": "Research Site", "city": "Badajoz", "country": "Spain", "geoPoint": {"lat": 38.87789, "lon": -6.97061}}, {"facility": "Research Site", "city": "Bailbao", "country": "Spain"}, {"facility": "Research Site", "city": "Barakaldi/Vizcaya", "country": "Spain"}, {"facility": "Research Site", "city": "Barakaldo Bizkaia", "country": "Spain"}, {"facility": "Research Site", "city": "Barcelona", "country": "Spain", "geoPoint": {"lat": 41.38879, "lon": 2.15899}}, {"facility": "Research Site", "city": "Burgos", "country": "Spain", "geoPoint": {"lat": 42.34106, "lon": -3.70184}}, {"facility": "Research Site", "city": "Caceres", "country": "Spain", "geoPoint": {"lat": 39.47649, "lon": -6.37224}}, {"facility": "Research Site", "city": "Cadiz", "country": "Spain", "geoPoint": {"lat": 36.52672, "lon": -6.2891}}, {"facility": "Research Site", "city": "Castellon", "country": "Spain"}, {"facility": "Research Site", "city": "Coruna", "country": "Spain", "geoPoint": {"lat": 43.37135, "lon": -8.396}}, {"facility": "Research Site", "city": "Elche Alicante", "country": "Spain"}, {"facility": "Research Site", "city": "Ferrol", "country": "Spain", "geoPoint": {"lat": 43.4896, "lon": -8.21942}}, {"facility": "Research Site", "city": "Fuenlabrada", "country": "Spain", "geoPoint": {"lat": 40.28419, "lon": -3.79415}}, {"facility": "Research Site", "city": "Gandia", "country": "Spain", "geoPoint": {"lat": 38.96667, "lon": -0.18333}}, {"facility": "Research Site", "city": "Getafe", "country": "Spain", "geoPoint": {"lat": 40.30571, "lon": -3.73295}}, {"facility": "Research Site", "city": "Gijon", "country": "Spain", "geoPoint": {"lat": 43.53573, "lon": -5.66152}}, {"facility": "Research Site", "city": "Girona", "country": "Spain", "geoPoint": {"lat": 41.98311, "lon": 2.82493}}, {"facility": "Research Site", "city": "Granada", "country": "Spain", "geoPoint": {"lat": 37.18817, "lon": -3.60667}}, {"facility": "Research Site", "city": "Huelva", "country": "Spain", "geoPoint": {"lat": 37.26638, "lon": -6.94004}}, {"facility": "Research Site", "city": "Huercal Overa", "country": "Spain", "geoPoint": {"lat": 37.38897, "lon": -1.94536}}, {"facility": "Research Site", "city": "Jaen", "country": "Spain", "geoPoint": {"lat": 37.76922, "lon": -3.79028}}, {"facility": "Research Site", "city": "Laredo", "country": "Spain", "geoPoint": {"lat": 43.4098, "lon": -3.41613}}, {"facility": "Research Site", "city": "Leganes", "country": "Spain", "geoPoint": {"lat": 40.32718, "lon": -3.7635}}, {"facility": "Research Site", "city": "Lugo", "country": "Spain", "geoPoint": {"lat": 43.00992, "lon": -7.55602}}, {"facility": "Research Site", "city": "Madrid", "country": "Spain", "geoPoint": {"lat": 40.4165, "lon": -3.70256}}, {"facility": "Research Site", "city": "Malaga", "country": "Spain", "geoPoint": {"lat": 36.72016, "lon": -4.42034}}, {"facility": "Research Site", "city": "Manacor", "country": "Spain", "geoPoint": {"lat": 39.56964, "lon": 3.20955}}, {"facility": "Research Site", "city": "Marbella", "country": "Spain", "geoPoint": {"lat": 36.51543, "lon": -4.88583}}, {"facility": "Research Site", "city": "Merida", "country": "Spain", "geoPoint": {"lat": 38.91611, "lon": -6.34366}}, {"facility": "Research Site", "city": "Mostoles Madrid", "country": "Spain"}, {"facility": "Research Site", "city": "Murcia", "country": "Spain", "geoPoint": {"lat": 37.98704, "lon": -1.13004}}, {"facility": "Research Site", "city": "Orense", "country": "Spain", "geoPoint": {"lat": 42.33669, "lon": -7.86407}}, {"facility": "Research Site", "city": "Oviedo", "country": "Spain", "geoPoint": {"lat": 43.36029, "lon": -5.84476}}, {"facility": "Research Site", "city": "Palencia", "country": "Spain", "geoPoint": {"lat": 42.00955, "lon": -4.52406}}, {"facility": "Research Site", "city": "Palma Mallorca", "country": "Spain", "geoPoint": {"lat": 39.56939, "lon": 2.65024}}, {"facility": "Research Site", "city": "Pamplona", "country": "Spain", "geoPoint": {"lat": 42.81687, "lon": -1.64323}}, {"facility": "Research Site", "city": "Ponferrada", "country": "Spain", "geoPoint": {"lat": 42.54664, "lon": -6.59619}}, {"facility": "Research Site", "city": "Pontevedra", "country": "Spain", "geoPoint": {"lat": 42.431, "lon": -8.64435}}, {"facility": "Research Site", "city": "Requena", "country": "Spain", "geoPoint": {"lat": 39.48834, "lon": -1.10044}}, {"facility": "Research Site", "city": "Ronda", "country": "Spain", "geoPoint": {"lat": 36.74231, "lon": -5.16709}}, {"facility": "Research Site", "city": "Sagunto", "country": "Spain", "geoPoint": {"lat": 39.68333, "lon": -0.26667}}, {"facility": "Research Site", "city": "Salamanca", "country": "Spain", "geoPoint": {"lat": 40.96882, "lon": -5.66388}}, {"facility": "Research Site", "city": "San Zebastian", "country": "Spain"}, {"facility": "Research Site", "city": "Santa Cruz d e Tenerife", "country": "Spain"}, {"facility": "Research Site", "city": "Santander", "country": "Spain", "geoPoint": {"lat": 43.46472, "lon": -3.80444}}, {"facility": "Research Site", "city": "Segovia", "country": "Spain", "geoPoint": {"lat": 40.94808, "lon": -4.11839}}, {"facility": "Research Site", "city": "Sevilla", "country": "Spain", "geoPoint": {"lat": 37.38283, "lon": -5.97317}}, {"facility": "Research Site", "city": "Valencia", "country": "Spain", "geoPoint": {"lat": 39.46975, "lon": -0.37739}}, {"facility": "Research Site", "city": "Valladolid", "country": "Spain", "geoPoint": {"lat": 41.65518, "lon": -4.72372}}, {"facility": "Research Site", "city": "Viadecans", "country": "Spain"}, {"facility": "Research Site", "city": "Vigo", "country": "Spain", "geoPoint": {"lat": 42.23282, "lon": -8.72264}}, {"facility": "Research Site", "city": "Vitoria", "country": "Spain", "geoPoint": {"lat": 42.84998, "lon": -2.67268}}, {"facility": "Research Site", "city": "Vizcaya", "country": "Spain"}, {"facility": "Research Site", "city": "Zaragoza", "country": "Spain", "geoPoint": {"lat": 41.65606, "lon": -0.87734}}, {"facility": "Research Site", "city": "Zaroma", "country": "Spain"}, {"facility": "Research Site", "city": "Akersberga", "country": "Sweden", "geoPoint": {"lat": 59.47944, "lon": 18.29967}}, {"facility": "Research Site", "city": "Arvidsjaur", "country": "Sweden", "geoPoint": {"lat": 65.59033, "lon": 19.16682}}, {"facility": "Research Site", "city": "Bromma", "country": "Sweden", "geoPoint": {"lat": 59.34, "lon": 17.94}}, {"facility": "Research Site", "city": "Eskilstuna", "country": "Sweden", "geoPoint": {"lat": 59.36661, "lon": 16.5077}}, {"facility": "Research Site", "city": "Gavle", "country": "Sweden", "geoPoint": {"lat": 60.67452, "lon": 17.14174}}, {"facility": "Research Site", "city": "Goteborg", "country": "Sweden", "geoPoint": {"lat": 57.70716, "lon": 11.96679}}, {"facility": "Research Site", "city": "Grangesberg", "country": "Sweden", "geoPoint": {"lat": 60.07465, "lon": 15.00784}}, {"facility": "Research Site", "city": "Hesingborg", "country": "Sweden"}, {"facility": "Research Site", "city": "Jarfalla", "country": "Sweden"}, {"facility": "Research Site", "city": "Karskrona", "country": "Sweden"}, {"facility": "Research Site", "city": "Kil", "country": "Sweden", "geoPoint": {"lat": 59.50234, "lon": 13.31277}}, {"facility": "Research Site", "city": "Laholm", "country": "Sweden", "geoPoint": {"lat": 56.51207, "lon": 13.04371}}, {"facility": "Research Site", "city": "Limhamn", "country": "Sweden", "geoPoint": {"lat": 55.58333, "lon": 12.95}}, {"facility": "Research Site", "city": "Linkoping", "country": "Sweden", "geoPoint": {"lat": 58.41086, "lon": 15.62157}}, {"facility": "Research Site", "city": "Ludvika", "country": "Sweden", "geoPoint": {"lat": 60.14959, "lon": 15.18776}}, {"facility": "Research Site", "city": "Lulea", "country": "Sweden", "geoPoint": {"lat": 65.58415, "lon": 22.15465}}, {"facility": "Research Site", "city": "Malmo", "country": "Sweden", "geoPoint": {"lat": 55.60587, "lon": 13.00073}}, {"facility": "Research Site", "city": "Nacka", "country": "Sweden", "geoPoint": {"lat": 59.31053, "lon": 18.16372}}, {"facility": "Research Site", "city": "Orebro", "country": "Sweden", "geoPoint": {"lat": 59.27412, "lon": 15.2066}}, {"facility": "Research Site", "city": "Pitea", "country": "Sweden", "geoPoint": {"lat": 65.31717, "lon": 21.47944}}, {"facility": "Research Site", "city": "Stockholm", "country": "Sweden", "geoPoint": {"lat": 59.33258, "lon": 18.0649}}, {"facility": "Research Site", "city": "Torsas", "country": "Sweden", "geoPoint": {"lat": 56.41251, "lon": 15.99844}}, {"facility": "Research Site", "city": "Tyreso", "country": "Sweden"}, {"facility": "Research Site", "city": "Uppsala", "country": "Sweden", "geoPoint": {"lat": 59.85882, "lon": 17.63889}}, {"facility": "Research Site", "city": "Vannas", "country": "Sweden", "geoPoint": {"lat": 63.90676, "lon": 19.75712}}, {"facility": "Research Site", "city": "Varnamo", "country": "Sweden", "geoPoint": {"lat": 57.18604, "lon": 14.04001}}, {"facility": "Research Site", "city": "Vastra Fr\ufffdlunda", "country": "Sweden"}, {"facility": "Research Site", "city": "Vaxjo", "country": "Sweden", "geoPoint": {"lat": 56.87767, "lon": 14.80906}}, {"facility": "Research Site", "city": "Vinslov", "country": "Sweden", "geoPoint": {"lat": 56.1, "lon": 13.91667}}, {"facility": "Research Site", "city": "Airdrie", "country": "United Kingdom", "geoPoint": {"lat": 55.86602, "lon": -3.98025}}, {"facility": "Research Site", "city": "Aldershot", "country": "United Kingdom", "geoPoint": {"lat": 51.24827, "lon": -0.76389}}, {"facility": "Research Site", "city": "Aylesbury", "country": "United Kingdom", "geoPoint": {"lat": 51.81665, "lon": -0.81458}}, {"facility": "Research Site", "city": "Ayrchire", "country": "United Kingdom"}, {"facility": "Research Site", "city": "Barry", "country": "United Kingdom", "geoPoint": {"lat": 51.39979, "lon": -3.2838}}, {"facility": "Research Site", "city": "Basildon", "country": "United Kingdom", "geoPoint": {"lat": 51.56844, "lon": 0.45782}}, {"facility": "Research Site", "city": "Bath", "country": "United Kingdom", "geoPoint": {"lat": 51.3751, "lon": -2.36172}}, {"facility": "Research Site", "city": "Belfast", "country": "United Kingdom", "geoPoint": {"lat": 54.59682, "lon": -5.92541}}, {"facility": "Research Site", "city": "Bellshill", "country": "United Kingdom", "geoPoint": {"lat": 55.81667, "lon": -4.01667}}, {"facility": "Research Site", "city": "Bexhill on Sea", "country": "United Kingdom", "geoPoint": {"lat": 50.85023, "lon": 0.47095}}, {"facility": "Research Site", "city": "Blackburn", "country": "United Kingdom", "geoPoint": {"lat": 53.75, "lon": -2.48333}}, {"facility": "Research Site", "city": "Blantyre", "country": "United Kingdom", "geoPoint": {"lat": 55.79634, "lon": -4.09485}}, {"facility": "Research Site", "city": "Bolton", "country": "United Kingdom", "geoPoint": {"lat": 53.58333, "lon": -2.43333}}, {"facility": "Research Site", "city": "Borehamwood", "country": "United Kingdom", "geoPoint": {"lat": 51.65468, "lon": -0.27762}}, {"facility": "Research Site", "city": "Box", "country": "United Kingdom", "geoPoint": {"lat": 51.41472, "lon": -2.24556}}, {"facility": "Research Site", "city": "Bracknell", "country": "United Kingdom", "geoPoint": {"lat": 51.41363, "lon": -0.75054}}, {"facility": "Research Site", "city": "Bradford On Avon", "country": "United Kingdom", "geoPoint": {"lat": 51.34772, "lon": -2.25065}}, {"facility": "Research Site", "city": "Burbage", "country": "United Kingdom", "geoPoint": {"lat": 51.35184, "lon": -1.67087}}, {"facility": "Research Site", "city": "Bury St Edmonds", "country": "United Kingdom"}, {"facility": "Research Site", "city": "Canterbury", "country": "United Kingdom", "geoPoint": {"lat": 51.27904, "lon": 1.07992}}, {"facility": "Research Site", "city": "Cardiff", "country": "United Kingdom", "geoPoint": {"lat": 51.48, "lon": -3.18}}, {"facility": "Research Site", "city": "Chesterfield", "country": "United Kingdom", "geoPoint": {"lat": 53.25, "lon": -1.41667}}, {"facility": "Research Site", "city": "Chippenham", "country": "United Kingdom", "geoPoint": {"lat": 51.46, "lon": -2.12472}}, {"facility": "Research Site", "city": "Coatbridge", "country": "United Kingdom", "geoPoint": {"lat": 55.86216, "lon": -4.02469}}, {"facility": "Research Site", "city": "Cookstown", "country": "United Kingdom", "geoPoint": {"lat": 54.64305, "lon": -6.74595}}, {"facility": "Research Site", "city": "Corsham", "country": "United Kingdom", "geoPoint": {"lat": 51.43433, "lon": -2.18437}}, {"facility": "Research Site", "city": "Coventry", "country": "United Kingdom", "geoPoint": {"lat": 52.40656, "lon": -1.51217}}, {"facility": "Research Site", "city": "Crawley", "country": "United Kingdom", "geoPoint": {"lat": 51.11303, "lon": -0.18312}}, {"facility": "Research Site", "city": "Crowthorne", "country": "United Kingdom", "geoPoint": {"lat": 51.37027, "lon": -0.79219}}, {"facility": "Research Site", "city": "Cumbernauld", "country": "United Kingdom", "geoPoint": {"lat": 55.94685, "lon": -3.99051}}, {"facility": "Research Site", "city": "Darlington", "country": "United Kingdom", "geoPoint": {"lat": 54.52429, "lon": -1.55039}}, {"facility": "Research Site", "city": "Doncaste", "country": "United Kingdom"}, {"facility": "Research Site", "city": "Dumbarton", "country": "United Kingdom", "geoPoint": {"lat": 55.94433, "lon": -4.57061}}, {"facility": "Research Site", "city": "Dumfries", "country": "United Kingdom", "geoPoint": {"lat": 55.06959, "lon": -3.61139}}, {"facility": "Research Site", "city": "East Kilbride", "country": "United Kingdom", "geoPoint": {"lat": 55.76412, "lon": -4.17669}}, {"facility": "Research Site", "city": "Ecclwsfield", "country": "United Kingdom"}, {"facility": "Research Site", "city": "Ely", "country": "United Kingdom", "geoPoint": {"lat": 52.39964, "lon": 0.26196}}, {"facility": "Research Site", "city": "Fowey", "country": "United Kingdom", "geoPoint": {"lat": 50.33634, "lon": -4.6386}}, {"facility": "Research Site", "city": "Frome", "country": "United Kingdom", "geoPoint": {"lat": 51.22834, "lon": -2.32211}}, {"facility": "Research Site", "city": "Glasgow", "country": "United Kingdom", "geoPoint": {"lat": 55.86515, "lon": -4.25763}}, {"facility": "Research Site", "city": "Greenock", "country": "United Kingdom", "geoPoint": {"lat": 55.94838, "lon": -4.76121}}, {"facility": "Research Site", "city": "Hamilton", "country": "United Kingdom", "geoPoint": {"lat": 55.76667, "lon": -4.03333}}, {"facility": "Research Site", "city": "Headcorn", "country": "United Kingdom", "geoPoint": {"lat": 51.16966, "lon": 0.62433}}, {"facility": "Research Site", "city": "High Valleyfield", "country": "United Kingdom", "geoPoint": {"lat": 56.06357, "lon": -3.59913}}, {"facility": "Research Site", "city": "Huntington", "country": "United Kingdom"}, {"facility": "Research Site", "city": "Kirkintilloch", "country": "United Kingdom", "geoPoint": {"lat": 55.93933, "lon": -4.15262}}, {"facility": "Research Site", "city": "Larne", "country": "United Kingdom", "geoPoint": {"lat": 54.85, "lon": -5.81667}}, {"facility": "Research Site", "city": "Leicester", "country": "United Kingdom", "geoPoint": {"lat": 52.6386, "lon": -1.13169}}, {"facility": "Research Site", "city": "Limavady", "country": "United Kingdom", "geoPoint": {"lat": 55.05045, "lon": -6.95074}}, {"facility": "Research Site", "city": "Lockerbie", "country": "United Kingdom", "geoPoint": {"lat": 55.12302, "lon": -3.35635}}, {"facility": "Research Site", "city": "London", "country": "United Kingdom", "geoPoint": {"lat": 51.50853, "lon": -0.12574}}, {"facility": "Research Site", "city": "Maidenhead", "country": "United Kingdom", "geoPoint": {"lat": 51.52279, "lon": -0.71986}}, {"facility": "Research Site", "city": "Manhester", "country": "United Kingdom"}, {"facility": "Research Site", "city": "Motherwell", "country": "United Kingdom", "geoPoint": {"lat": 55.78924, "lon": -3.99187}}, {"facility": "Research Site", "city": "New Stevenson", "country": "United Kingdom"}, {"facility": "Research Site", "city": "Newcastle", "country": "United Kingdom", "geoPoint": {"lat": 54.97328, "lon": -1.61396}}, {"facility": "Research Site", "city": "Newtonstewart", "country": "United Kingdom"}, {"facility": "Research Site", "city": "Newtownabbey", "country": "United Kingdom", "geoPoint": {"lat": 54.65983, "lon": -5.90858}}, {"facility": "Research Site", "city": "Northampton", "country": "United Kingdom", "geoPoint": {"lat": 52.25, "lon": -0.88333}}, {"facility": "Research Site", "city": "Norwich", "country": "United Kingdom", "geoPoint": {"lat": 52.62783, "lon": 1.29834}}, {"facility": "Research Site", "city": "Nottingham", "country": "United Kingdom", "geoPoint": {"lat": 52.9536, "lon": -1.15047}}, {"facility": "Research Site", "city": "Nr Penzance", "country": "United Kingdom"}, {"facility": "Research Site", "city": "Paignton", "country": "United Kingdom", "geoPoint": {"lat": 50.43565, "lon": -3.56789}}, {"facility": "Research Site", "city": "Paisley", "country": "United Kingdom", "geoPoint": {"lat": 55.83173, "lon": -4.43254}}, {"facility": "Research Site", "city": "Penzance", "country": "United Kingdom", "geoPoint": {"lat": 50.11861, "lon": -5.53715}}, {"facility": "Research Site", "city": "Peterborough", "country": "United Kingdom", "geoPoint": {"lat": 52.57364, "lon": -0.24777}}, {"facility": "Research Site", "city": "Plymouth", "country": "United Kingdom", "geoPoint": {"lat": 50.37153, "lon": -4.14305}}, {"facility": "Research Site", "city": "Port Glasgow", "country": "United Kingdom", "geoPoint": {"lat": 55.93464, "lon": -4.6895}}, {"facility": "Research Site", "city": "Praze-on-Beeble", "country": "United Kingdom"}, {"facility": "Research Site", "city": "Reading", "country": "United Kingdom", "geoPoint": {"lat": 51.45625, "lon": -0.97113}}, {"facility": "Research Site", "city": "Reddich", "country": "United Kingdom"}, {"facility": "Research Site", "city": "Renfrew", "country": "United Kingdom", "geoPoint": {"lat": 55.87197, "lon": -4.39253}}, {"facility": "Research Site", "city": "Saltash", "country": "United Kingdom", "geoPoint": {"lat": 50.40959, "lon": -4.22514}}, {"facility": "Research Site", "city": "Sandy", "country": "United Kingdom", "geoPoint": {"lat": 52.12927, "lon": -0.28925}}, {"facility": "Research Site", "city": "Sheffield", "country": "United Kingdom", "geoPoint": {"lat": 53.38297, "lon": -1.4659}}, {"facility": "Research Site", "city": "Shepshed", "country": "United Kingdom", "geoPoint": {"lat": 52.7657, "lon": -1.29021}}, {"facility": "Research Site", "city": "Slough", "country": "United Kingdom", "geoPoint": {"lat": 51.50949, "lon": -0.59541}}, {"facility": "Research Site", "city": "Spalding", "country": "United Kingdom", "geoPoint": {"lat": 52.78709, "lon": -0.15141}}, {"facility": "Research Site", "city": "Spennymoor", "country": "United Kingdom", "geoPoint": {"lat": 54.6988, "lon": -1.60229}}, {"facility": "Research Site", "city": "Strathaven", "country": "United Kingdom", "geoPoint": {"lat": 55.6771, "lon": -4.0668}}, {"facility": "Research Site", "city": "Strathblane", "country": "United Kingdom", "geoPoint": {"lat": 55.98596, "lon": -4.30658}}, {"facility": "Research Site", "city": "Sunbury on Thames", "country": "United Kingdom", "geoPoint": {"lat": 51.40424, "lon": -0.41817}}, {"facility": "Research Site", "city": "Swindon", "country": "United Kingdom", "geoPoint": {"lat": 51.55797, "lon": -1.78116}}, {"facility": "Research Site", "city": "Thornhill", "country": "United Kingdom", "geoPoint": {"lat": 55.23333, "lon": -3.76667}}, {"facility": "Research Site", "city": "Thornton Heath", "country": "United Kingdom", "geoPoint": {"lat": 51.39884, "lon": -0.09872}}, {"facility": "Research Site", "city": "Tichfield", "country": "United Kingdom"}, {"facility": "Research Site", "city": "Torpoint", "country": "United Kingdom", "geoPoint": {"lat": 50.37505, "lon": -4.19566}}, {"facility": "Research Site", "city": "Trowbridge", "country": "United Kingdom", "geoPoint": {"lat": 51.31889, "lon": -2.20861}}, {"facility": "Research Site", "city": "Walsall", "country": "United Kingdom", "geoPoint": {"lat": 52.58528, "lon": -1.98396}}, {"facility": "Research Site", "city": "Welingborough", "country": "United Kingdom"}, {"facility": "Research Site", "city": "Wells next the sea", "country": "United Kingdom", "geoPoint": {"lat": 52.95164, "lon": 0.8511}}, {"facility": "Research Site", "city": "Weston-Super-Mare", "country": "United Kingdom", "geoPoint": {"lat": 51.34603, "lon": -2.97665}}, {"facility": "Research Site", "city": "Whitstable", "country": "United Kingdom", "geoPoint": {"lat": 51.3607, "lon": 1.0257}}, {"facility": "Research Site", "city": "Wishaw", "country": "United Kingdom", "geoPoint": {"lat": 55.76667, "lon": -3.91667}}, {"facility": "Research Site", "city": "Yaxley", "country": "United Kingdom", "geoPoint": {"lat": 52.51768, "lon": -0.25852}}]}, "referencesModule": {"references": [{"pmid": "21586508", "type": "DERIVED", "citation": "Aubier M, Haughney J, Selroos O, van Schayck OC, Ekstrom T, Ostinelli J, Buhl R. Is the patient's baseline inhaled steroid dose a factor for choosing the budesonide/formoterol maintenance and reliever therapy regimen? Ther Adv Respir Dis. 2011 Oct;5(5):289-98. doi: 10.1177/1753465811407236. Epub 2011 May 17. Erratum In: Ther Adv Respir Dis. 2012 Aug;6(4):247."}, {"pmid": "21435854", "type": "DERIVED", "citation": "Haughney J, Aubier M, Jorgensen L, Ostinelli J, Selroos O, van Schayck CP, Buhl R. Comparing asthma treatment in elderly versus younger patients. Respir Med. 2011 Jun;105(6):838-45. doi: 10.1016/j.rmed.2011.02.011. Epub 2011 Mar 23."}, {"pmid": "20595145", "type": "DERIVED", "citation": "Aubier M, Buhl R, Ekstrom T, Ostinelli J, van Schayck CP, Selroos O, Haughney J. Comparison of two twice-daily doses of budesonide/formoterol maintenance and reliever therapy. Eur Respir J. 2010 Sep;36(3):524-30. doi: 10.1183/09031936.00022010. Epub 2010 Jul 1."}]}}, "resultsSection": {"participantFlowModule": {"recruitmentDetails": "This was a 6-month, randomised, open label, parallel-group, active controlled, multinational study, in participants with uncontrolled/partly controlled asthma, who were symptomatic despite daily use of inhaled glucocorticosteroid (IGCS) with or without Long-Acting \u03b22 agonist (LABA).", "groups": [{"id": "FG000", "title": "Symbicort\u00ae SMART\u00ae) 1*2", "description": "1 inhalation of Symbicort 160\u00b5g/4.5\u00b5g twice daily plus as-needed."}, {"id": "FG001", "title": "Symbicort\u00ae SMART\u00ae) 2*2", "description": "2 inhalations of Symbicort 160\u00b5g/4.5\u00b5g twice daily plus as-needed."}], "periods": [{"title": "Overall Study", "milestones": [{"type": "STARTED", "achievements": [{"groupId": "FG000", "comment": "4203 participants randomised. Out of these, 195 had no efficacy data after randomisation.", "numSubjects": "4008"}, {"groupId": "FG001", "comment": "4221 participants randomised. Out of these, 176 had no efficacy data after randomisation.", "numSubjects": "4045"}]}, {"type": "COMPLETED", "achievements": [{"groupId": "FG000", "numSubjects": "3699"}, {"groupId": "FG001", "numSubjects": "3705"}]}, {"type": "NOT COMPLETED", "achievements": [{"groupId": "FG000", "numSubjects": "309"}, {"groupId": "FG001", "numSubjects": "340"}]}], "dropWithdraws": [{"type": "Adverse Event", "reasons": [{"groupId": "FG000", "numSubjects": "70"}, {"groupId": "FG001", "numSubjects": "93"}]}, {"type": "Withdrawal by Subject", "reasons": [{"groupId": "FG000", "numSubjects": "81"}, {"groupId": "FG001", "numSubjects": "79"}]}, {"type": "Lost to Follow-up", "reasons": [{"groupId": "FG000", "numSubjects": "46"}, {"groupId": "FG001", "numSubjects": "55"}]}, {"type": "Incorrect Enrolment", "reasons": [{"groupId": "FG000", "numSubjects": "64"}, {"groupId": "FG001", "numSubjects": "66"}]}, {"type": "Severe Non-Compliance to Protocol", "reasons": [{"groupId": "FG000", "numSubjects": "25"}, {"groupId": "FG001", "numSubjects": "21"}]}, {"type": "Safety Reason", "reasons": [{"groupId": "FG000", "numSubjects": "1"}, {"groupId": "FG001", "numSubjects": "3"}]}, {"type": "Mis-Randomization of subject", "reasons": [{"groupId": "FG000", "numSubjects": "0"}, {"groupId": "FG001", "numSubjects": "1"}]}, {"type": "Other", "reasons": [{"groupId": "FG000", "numSubjects": "22"}, {"groupId": "FG001", "numSubjects": "22"}]}]}]}, "baselineCharacteristicsModule": {"groups": [{"id": "BG000", "title": "Symbicort\u00ae SMART\u00ae) 1*2", "description": "1 inhalation of Symbicort 160\u00b5g/4.5\u00b5g twice daily plus as-needed."}, {"id": "BG001", "title": "Symbicort\u00ae SMART\u00ae) 2*2", "description": "2 inhalations of Symbicort 160\u00b5g/4.5\u00b5g twice daily plus as-needed."}, {"id": "BG002", "title": "Total", "description": "Total of all reporting groups"}], "denoms": [{"units": "Participants", "counts": [{"groupId": "BG000", "value": "4008"}, {"groupId": "BG001", "value": "4045"}, {"groupId": "BG002", "value": "8053"}]}], "measures": [{"title": "Age Continuous", "paramType": "MEAN", "dispersionType": "FULL_RANGE", "unitOfMeasure": "Years", "classes": [{"categories": [{"measurements": [{"groupId": "BG000", "value": "47.8", "lowerLimit": "18", "upperLimit": "96"}, {"groupId": "BG001", "value": "47.9", "lowerLimit": "18", "upperLimit": "90"}, {"groupId": "BG002", "value": "47.8", "lowerLimit": "18", "upperLimit": "96"}]}]}]}, {"title": "Sex: Female, Male", "paramType": "COUNT_OF_PARTICIPANTS", "unitOfMeasure": "Participants", "classes": [{"categories": [{"title": "Female", "measurements": [{"groupId": "BG000", "value": "2483"}, {"groupId": "BG001", "value": "2512"}, {"groupId": "BG002", "value": "4995"}]}, {"title": "Male", "measurements": [{"groupId": "BG000", "value": "1525"}, {"groupId": "BG001", "value": "1533"}, {"groupId": "BG002", "value": "3058"}]}]}]}, {"title": "Treatment with Long-Acting \u03b22 agonist (LABA) at baseline.", "paramType": "NUMBER", "unitOfMeasure": "Participants", "classes": [{"title": "Number of participants using LABA at baseline.", "categories": [{"measurements": [{"groupId": "BG000", "value": "3108"}, {"groupId": "BG001", "value": "3118"}, {"groupId": "BG002", "value": "6226"}]}]}, {"title": "Number of participants without LABA at baseline.", "categories": [{"measurements": [{"groupId": "BG000", "value": "900"}, {"groupId": "BG001", "value": "927"}, {"groupId": "BG002", "value": "1827"}]}]}]}, {"title": "Asthma control questionnaire (ACQ5) score at study entry", "description": "ACQ5 was used. The lower value the better with a full range from 0=no impairment, 6= maximum impairment. Awakenings, morning symptoms, limitations, shortness of breath and wheeze.", "paramType": "MEAN", "dispersionType": "STANDARD_DEVIATION", "unitOfMeasure": "Units on a scale", "classes": [{"title": "ACQ5 score at study entry", "categories": [{"measurements": [{"groupId": "BG000", "value": "1.85", "spread": "0.98"}, {"groupId": "BG001", "value": "1.86", "spread": "1.01"}, {"groupId": "BG002", "value": "1.85", "spread": "0.99"}]}]}]}, {"title": "Exacerbations past 12 months before study start.", "paramType": "MEAN", "dispersionType": "STANDARD_DEVIATION", "unitOfMeasure": "Number of exacerbations per participant", "classes": [{"categories": [{"measurements": [{"groupId": "BG000", "value": "1.47", "spread": "2.42"}, {"groupId": "BG001", "value": "1.42", "spread": "2.42"}, {"groupId": "BG002", "value": "1.45", "spread": "2.42"}]}]}]}, {"title": "Inhaled glucocorticosteroids (IGCS) dose at study entry.", "paramType": "MEAN", "dispersionType": "STANDARD_DEVIATION", "unitOfMeasure": "\u03bcg/day", "classes": [{"title": "IGCS dose at study entry", "categories": [{"measurements": [{"groupId": "BG000", "value": "1046", "spread": "595"}, {"groupId": "BG001", "value": "1037", "spread": "575"}, {"groupId": "BG002", "value": "1042", "spread": "585"}]}]}]}, {"title": "Participants with a well controlled asthma week at study entry.", "paramType": "MEAN", "dispersionType": "FULL_RANGE", "unitOfMeasure": "Percentage of participants", "classes": [{"categories": [{"measurements": [{"groupId": "BG000", "value": "11.97", "lowerLimit": "0", "upperLimit": "100"}, {"groupId": "BG001", "value": "11.77", "lowerLimit": "0", "upperLimit": "100"}, {"groupId": "BG002", "value": "11.87", "lowerLimit": "0", "upperLimit": "100"}]}]}]}, {"title": "Pulmonary function test at baseline.", "description": "Peak Expiratory Flow (PEF) was recorded at baseline, the assessment was performed at least 15 minutes after 2 inhalations of Symbicort 160/4.5\u00b5g. pn=predicted normal. Symbicort SMART 1\\*2 arm: n=4001 and Symbicort SMART 2\\*2 arm: n=4003.", "paramType": "MEAN", "dispersionType": "FULL_RANGE", "unitOfMeasure": "Percent of predicted normal value of PEF", "classes": [{"title": "Percent Included", "categories": [{"measurements": [{"groupId": "BG000", "value": "90.8", "lowerLimit": "0", "upperLimit": "100"}, {"groupId": "BG001", "value": "90.1", "lowerLimit": "0", "upperLimit": "100"}, {"groupId": "BG002", "value": "90.4", "lowerLimit": "0", "upperLimit": "100"}]}]}]}]}, "outcomeMeasuresModule": {"outcomeMeasures": [{"type": "PRIMARY", "title": "Number of Severe Asthma Exacerbations Per Participant.", "description": "Time to first severe asthma exacerbation, translated to mean number of severe asthma exacerbations per participant. A severe asthma exacerbation is defined as deterioration in asthma requiring oral/systemic glucocorticosteroids for at least 3 days and/or hospitalisation/emergency room visit with oral/systemic glucocorticosteroid treatment.", "reportingStatus": "POSTED", "paramType": "MEAN", "dispersionType": "Full Range", "unitOfMeasure": "Severe exacerbations per participant", "timeFrame": "6 months", "groups": [{"id": "OG000", "title": "Symbicort\u00ae SMART\u00ae) 1*2", "description": "1 inhalation of Symbicort 160\u00b5g/4.5\u00b5g twice daily plus as-needed."}, {"id": "OG001", "title": "Symbicort\u00ae SMART\u00ae) 2*2", "description": "2 inhalations of Symbicort 160\u00b5g/4.5\u00b5g twice daily plus as-needed."}], "denoms": [{"units": "Participants", "counts": [{"groupId": "OG000", "value": "4008"}, {"groupId": "OG001", "value": "4045"}]}], "classes": [{"categories": [{"measurements": [{"groupId": "OG000", "value": "0.097", "spread": "0", "lowerLimit": "0", "upperLimit": "4"}, {"groupId": "OG001", "value": "0.080", "spread": "0", "lowerLimit": "0", "upperLimit": "5"}]}]}]}, {"type": "SECONDARY", "title": "Fraction of Participants With Severe Asthma Exacerbation", "description": "The total number of severe asthma exacerbations was calculated for each participant. A severe asthma exacerbation is defined as deterioration in asthma requiring oral/systemic glucocorticosteroids for at least 3 days and/or hospitalisation/emergency room visit with oral/systemic glucocorticosteroid treatment.", "reportingStatus": "POSTED", "paramType": "MEAN", "dispersionType": "95% Confidence Interval", "unitOfMeasure": "Fraction of participants with event", "timeFrame": "6 months.", "groups": [{"id": "OG000", "title": "Symbicort\u00ae SMART\u00ae) 1*2", "description": "1 inhalation of Symbicort 160\u00b5g/4.5\u00b5g twice daily plus as-needed."}, {"id": "OG001", "title": "Symbicort\u00ae SMART\u00ae) 2*2", "description": "2 inhalations of Symbicort 160\u00b5g/4.5\u00b5g twice daily plus as-needed."}], "denoms": [{"units": "Participants", "counts": [{"groupId": "OG000", "value": "4008"}, {"groupId": "OG001", "value": "4045"}]}], "classes": [{"categories": [{"measurements": [{"groupId": "OG000", "value": "0.09686", "spread": "0.08528", "lowerLimit": "0.08528", "upperLimit": "0.11"}, {"groupId": "OG001", "value": "0.07955", "spread": "0.06927", "lowerLimit": "0.06927", "upperLimit": "0.09135"}]}]}]}, {"type": "SECONDARY", "title": "Total Number of Severe Asthma Exacerbations That Led to Hospitalisation and/or Emergency Room Treatment.", "description": "A severe asthma exacerbation is defined as deterioration in asthma requiring oral/systemic glucocorticosteroids for at least 3 days and/or hospitalisation/emergency room visit with oral/systemic glucocorticosteroid treatment. Number of events per participant", "reportingStatus": "POSTED", "paramType": "MEAN", "dispersionType": "Full Range", "unitOfMeasure": "Number of events per participant", "timeFrame": "6 months.", "groups": [{"id": "OG000", "title": "Symbicort\u00ae SMART\u00ae) 1*2", "description": "1 inhalation of Symbicort 160\u00b5g/4.5\u00b5g twice daily plus as-needed."}, {"id": "OG001", "title": "Symbicort\u00ae SMART\u00ae) 2*2", "description": "2 inhalations of Symbicort 160\u00b5g/4.5\u00b5g twice daily plus as-needed."}], "denoms": [{"units": "Participants", "counts": [{"groupId": "OG000", "value": "4008"}, {"groupId": "OG001", "value": "4045"}]}], "classes": [{"categories": [{"measurements": [{"groupId": "OG000", "value": "0.0120", "spread": "0", "lowerLimit": "0", "upperLimit": "3"}, {"groupId": "OG001", "value": "0.0091", "spread": "0", "lowerLimit": "0", "upperLimit": "2"}]}]}]}, {"type": "SECONDARY", "title": "Total Number of Days Per Participant With Oral/Systemic Glucocorticosteroids During Severe Asthma Exacerbation", "description": "Total number of days with oral/systemic glucocorticosteroids during severe exacerbation calculated for each participant. A severe asthma exacerbation is defined as deterioration in asthma requiring oral/systemic glucocorticosteroids for at least 3 days and/or hospitalisation/emergency room visit with oral/systemic glucocorticosteroid treatment.", "reportingStatus": "POSTED", "paramType": "MEAN", "dispersionType": "Standard Deviation", "unitOfMeasure": "Days per participant", "timeFrame": "6 months.", "groups": [{"id": "OG000", "title": "Symbicort\u00ae SMART\u00ae) 1*2", "description": "1 inhalation of Symbicort 160\u00b5g/4.5\u00b5g twice daily plus as-needed."}, {"id": "OG001", "title": "Symbicort\u00ae SMART\u00ae) 2*2", "description": "2 inhalations of Symbicort 160\u00b5g/4.5\u00b5g twice daily plus as-needed."}], "denoms": [{"units": "Participants", "counts": [{"groupId": "OG000", "value": "4008"}, {"groupId": "OG001", "value": "4045"}]}], "classes": [{"categories": [{"measurements": [{"groupId": "OG000", "value": "9.6", "spread": "8.1"}, {"groupId": "OG001", "value": "9.1", "spread": "5.5"}]}]}]}, {"type": "SECONDARY", "title": "Mean Daily Number of Inhalations of As-needed Medication.", "description": "The number of as-needed inhalations was measured 2 times during 2 weeks before 13 weeks and 26 weeks of treatment.", "populationDescription": "Inhalations of as-needed medication recorded by 3880 participants in the Symbicort SMART 1\\*2 Reporting Group and recorded by 3881 participants in the Symbicort SMART 2\\*2 Reporting Group", "reportingStatus": "POSTED", "paramType": "MEAN", "dispersionType": "Full Range", "unitOfMeasure": "Inhalations per day per participant", "timeFrame": "4 weeks", "groups": [{"id": "OG000", "title": "Symbicort\u00ae SMART\u00ae) 1*2", "description": "1 inhalation of Symbicort 160\u00b5g/4.5\u00b5g twice daily plus as-needed."}, {"id": "OG001", "title": "Symbicort\u00ae SMART\u00ae) 2*2", "description": "2 inhalations of Symbicort 160\u00b5g/4.5\u00b5g twice daily plus as-needed."}], "denoms": [{"units": "Participants", "counts": [{"groupId": "OG000", "value": "3880"}, {"groupId": "OG001", "value": "3881"}]}], "classes": [{"categories": [{"measurements": [{"groupId": "OG000", "value": "0.897", "spread": "0", "lowerLimit": "0", "upperLimit": "9.14"}, {"groupId": "OG001", "value": "0.625", "spread": "0", "lowerLimit": "0", "upperLimit": "9.07"}]}]}]}, {"type": "SECONDARY", "title": "Percent of Participants With a Well Controlled Asthma Week.", "description": "The mean percent of participants fulfilling the criteria for a well controlled asthma week in each treatment. A well controlled asthma week is defined as a week with no exacerbations and no night-time awakenings due to asthma and a maximum of 2 days with symptoms and as-needed inhalation use.", "populationDescription": "Data for this measure recorded by 3714 participants in the Symbicort SMART 1\\*2 Reporting Group and recorded by 3718 participants in the Symbicort SMART 2\\*2 Reporting Group.", "reportingStatus": "POSTED", "paramType": "MEAN", "dispersionType": "Full Range", "unitOfMeasure": "Percentage of participants", "timeFrame": "6 months.", "groups": [{"id": "OG000", "title": "Symbicort\u00ae SMART\u00ae) 1*2", "description": "1 inhalation of Symbicort 160\u00b5g/4.5\u00b5g twice daily plus as-needed."}, {"id": "OG001", "title": "Symbicort\u00ae SMART\u00ae) 2*2", "description": "2 inhalations of Symbicort 160\u00b5g/4.5\u00b5g twice daily plus as-needed."}], "denoms": [{"units": "Participants", "counts": [{"groupId": "OG000", "value": "3714"}, {"groupId": "OG001", "value": "3718"}]}], "classes": [{"categories": [{"measurements": [{"groupId": "OG000", "value": "43.69", "spread": "0", "lowerLimit": "0", "upperLimit": "100"}, {"groupId": "OG001", "value": "54.26", "spread": "0", "lowerLimit": "0", "upperLimit": "100"}]}]}]}, {"type": "SECONDARY", "title": "Mean Overall Asthma Control Questionnaire (ACQ) Score", "description": "The ACQ5 was used. The lower value the better with a full range from 0=no impairment, 6= maximum impairment. Awakenings, morning symptoms, limitations, shortness of breath and wheeze.", "populationDescription": "Data for this measure recorded by 3709 participants in the Symbicort SMART 1\\*2 Reporting Group and recorded by 3735 participants in the Symbicort SMART 2\\*2 Reporting Group.", "reportingStatus": "POSTED", "paramType": "MEAN", "dispersionType": "Full Range", "unitOfMeasure": "Scores in a scale", "timeFrame": "6 months.", "groups": [{"id": "OG000", "title": "Symbicort\u00ae SMART\u00ae) 1*2", "description": "1 inhalation of Symbicort 160\u00b5g/4.5\u00b5g twice daily plus as-needed."}, {"id": "OG001", "title": "Symbicort\u00ae SMART\u00ae) 2*2", "description": "2 inhalations of Symbicort 160\u00b5g/4.5\u00b5g twice daily plus as-needed."}], "denoms": [{"units": "Participants", "counts": [{"groupId": "OG000", "value": "3709"}, {"groupId": "OG001", "value": "3735"}]}], "classes": [{"categories": [{"measurements": [{"groupId": "OG000", "value": "1.18", "spread": "0", "lowerLimit": "0", "upperLimit": "5.7"}, {"groupId": "OG001", "value": "1.089", "spread": "0", "lowerLimit": "0", "upperLimit": "5.0"}]}]}]}, {"type": "SECONDARY", "title": "The Mean Total Daily Dose of Steroids From Symbicort.", "description": "The mean total daily dose of steroids from Symbicort was calculated as the sum of the maintenance dose and the as-needed dose.", "populationDescription": ": Data for this measure recorded by 3874 participants in the Symbicort SMART 1\\*2 Reporting Group and recorded by 3873 participants in the Symbicort SMART 2\\*2 Reporting Group.", "reportingStatus": "POSTED", "paramType": "MEAN", "dispersionType": "Standard Deviation", "unitOfMeasure": "\u03bcg budesonide per day", "timeFrame": "4 weeks", "groups": [{"id": "OG000", "title": "Symbicort\u00ae SMART\u00ae) 1*2", "description": "1 inhalation of Symbicort 160\u00b5g/4.5\u00b5g twice daily plus as-needed."}, {"id": "OG001", "title": "Symbicort\u00ae SMART\u00ae) 2*2", "description": "2 inhalations of Symbicort 160\u00b5g/4.5\u00b5g twice daily plus as-needed."}], "denoms": [{"units": "Participants", "counts": [{"groupId": "OG000", "value": "3874"}, {"groupId": "OG001", "value": "3873"}]}], "classes": [{"categories": [{"measurements": [{"groupId": "OG000", "value": "462.96", "spread": "179.10"}, {"groupId": "OG001", "value": "736.58", "spread": "152.70"}]}]}]}, {"type": "SECONDARY", "title": "Mean Cost Per Participant Per Country", "description": "Mean cost is calculated for each country using participants from the whole study and country specific costs. Mean value for the whole study can not be calculated.", "reportingStatus": "NOT_POSTED", "paramType": "MEAN", "dispersionType": "Full Range", "unitOfMeasure": "Euro", "timeFrame": "6 months"}]}, "adverseEventsModule": {"frequencyThreshold": "1", "eventGroups": [{"id": "EG000", "title": "Symbicort\u00ae SMART\u00ae) 1*2", "description": "1 inhalation of Symbicort 160\u00b5g/4.5\u00b5g twice daily plus as-needed.", "seriousNumAffected": 77, "seriousNumAtRisk": 4008, "otherNumAffected": 0, "otherNumAtRisk": 4008}, {"id": "EG001", "title": "Symbicort\u00ae SMART\u00ae) 2*2", "description": "2 inhalations of Symbicort 160\u00b5g/4.5\u00b5g twice daily plus as-needed.", "seriousNumAffected": 88, "seriousNumAtRisk": 4045, "otherNumAffected": 0, "otherNumAtRisk": 4045}], "seriousEvents": [{"term": "Anaemia", "organSystem": "Blood and lymphatic system disorders", "sourceVocabulary": "MedDRA 11.1", "assessmentType": "SYSTEMATIC_ASSESSMENT", "stats": [{"groupId": "EG000", "numAffected": 1, "numAtRisk": 4008}, {"groupId": "EG001", "numAffected": 1, "numAtRisk": 4045}]}, {"term": "Angina Pectoris", "organSystem": "Cardiac disorders", "sourceVocabulary": "MedDRA 11.1", "assessmentType": "SYSTEMATIC_ASSESSMENT", "stats": [{"groupId": "EG000", "numAffected": 1, "numAtRisk": 4008}, {"groupId": "EG001", "numAffected": 1, "numAtRisk": 4045}]}, {"term": "Atrial Fibrillation", "organSystem": "Cardiac disorders", "sourceVocabulary": "MedDRA 11.1", "assessmentType": "SYSTEMATIC_ASSESSMENT", "stats": [{"groupId": "EG000", "numAffected": 2, "numAtRisk": 4008}, {"groupId": "EG001", "numAffected": 1, "numAtRisk": 4045}]}, {"term": "Atrioventricular Block", "organSystem": "Cardiac disorders", "sourceVocabulary": "MedDRA 11.1", "assessmentType": "SYSTEMATIC_ASSESSMENT", "stats": [{"groupId": "EG000", "numAffected": 1, "numAtRisk": 4008}, {"groupId": "EG001", "numAffected": 0, "numAtRisk": 4045}]}, {"term": "Coronary Artery Disease", "organSystem": "Cardiac disorders", "sourceVocabulary": "MedDRA 11.1", "assessmentType": "SYSTEMATIC_ASSESSMENT", "stats": [{"groupId": "EG000", "numAffected": 1, "numAtRisk": 4008}, {"groupId": "EG001", "numAffected": 0, "numAtRisk": 4045}]}, {"term": "Myocardial Infarction", "organSystem": "Cardiac disorders", "sourceVocabulary": "MedDRA 11.1", "assessmentType": "SYSTEMATIC_ASSESSMENT", "stats": [{"groupId": "EG000", "numAffected": 1, "numAtRisk": 4008}, {"groupId": "EG001", "numAffected": 1, "numAtRisk": 4045}]}, {"term": "Tachyarrhythmia", "organSystem": "Cardiac disorders", "sourceVocabulary": "MedDRA 11.1", "assessmentType": "SYSTEMATIC_ASSESSMENT", "stats": [{"groupId": "EG000", "numAffected": 1, "numAtRisk": 4008}, {"groupId": "EG001", "numAffected": 0, "numAtRisk": 4045}]}, {"term": "Tachycardia", "organSystem": "Cardiac disorders", "sourceVocabulary": "MedDRA 11.1", "assessmentType": "SYSTEMATIC_ASSESSMENT", "stats": [{"groupId": "EG000", "numAffected": 0, "numAtRisk": 4008}, {"groupId": "EG001", "numAffected": 1, "numAtRisk": 4045}]}, {"term": "Exomphalos", "organSystem": "Congenital, familial and genetic disorders", "sourceVocabulary": "MedDRA 11.1", "assessmentType": "SYSTEMATIC_ASSESSMENT", "stats": [{"groupId": "EG000", "numAffected": 1, "numAtRisk": 4008}, {"groupId": "EG001", "numAffected": 0, "numAtRisk": 4045}]}, {"term": "Vertigo", "organSystem": "Ear and labyrinth disorders", "sourceVocabulary": "MedDRA 11.1", "assessmentType": "SYSTEMATIC_ASSESSMENT", "stats": [{"groupId": "EG000", "numAffected": 1, "numAtRisk": 4008}, {"groupId": "EG001", "numAffected": 0, "numAtRisk": 4045}]}, {"term": "Cataract", "organSystem": "Eye disorders", "sourceVocabulary": "MedDRA 11.1", "assessmentType": "SYSTEMATIC_ASSESSMENT", "stats": [{"groupId": "EG000", "numAffected": 0, "numAtRisk": 4008}, {"groupId": "EG001", "numAffected": 2, "numAtRisk": 4045}]}, {"term": "Abdominal Pain", "organSystem": "Gastrointestinal disorders", "sourceVocabulary": "MedDRA 11.1", "assessmentType": "SYSTEMATIC_ASSESSMENT", "stats": [{"groupId": "EG000", "numAffected": 1, "numAtRisk": 4008}, {"groupId": "EG001", "numAffected": 0, "numAtRisk": 4045}]}, {"term": "Abdominal Pain Lower", "organSystem": "Gastrointestinal disorders", "sourceVocabulary": "MedDRA 11.1", "assessmentType": "SYSTEMATIC_ASSESSMENT", "stats": [{"groupId": "EG000", "numAffected": 1, "numAtRisk": 4008}, {"groupId": "EG001", "numAffected": 0, "numAtRisk": 4045}]}, {"term": "Colitis", "organSystem": "Gastrointestinal disorders", "sourceVocabulary": "MedDRA 11.1", "assessmentType": "SYSTEMATIC_ASSESSMENT", "stats": [{"groupId": "EG000", "numAffected": 2, "numAtRisk": 4008}, {"groupId": "EG001", "numAffected": 0, "numAtRisk": 4045}]}, {"term": "Constipation", "organSystem": "Gastrointestinal disorders", "sourceVocabulary": "MedDRA 11.1", "assessmentType": "SYSTEMATIC_ASSESSMENT", "stats": [{"groupId": "EG000", "numAffected": 1, "numAtRisk": 4008}, {"groupId": "EG001", "numAffected": 0, "numAtRisk": 4045}]}, {"term": "Crohn's Disease", "organSystem": "Gastrointestinal disorders", "sourceVocabulary": "MedDRA 11.1", "assessmentType": "SYSTEMATIC_ASSESSMENT", "stats": [{"groupId": "EG000", "numAffected": 1, "numAtRisk": 4008}, {"groupId": "EG001", "numAffected": 0, "numAtRisk": 4045}]}, {"term": "Diarrhoea", "organSystem": "Gastrointestinal disorders", "sourceVocabulary": "MedDRA 11.1", "assessmentType": "SYSTEMATIC_ASSESSMENT", "stats": [{"groupId": "EG000", "numAffected": 2, "numAtRisk": 4008}, {"groupId": "EG001", "numAffected": 0, "numAtRisk": 4045}]}, {"term": "Diverticulum Intestinal", "organSystem": "Gastrointestinal disorders", "sourceVocabulary": "MedDRA 11.1", "assessmentType": "SYSTEMATIC_ASSESSMENT", "stats": [{"groupId": "EG000", "numAffected": 0, "numAtRisk": 4008}, {"groupId": "EG001", "numAffected": 1, "numAtRisk": 4045}]}, {"term": "Gastrointestinal Disorder", "organSystem": "Gastrointestinal disorders", "sourceVocabulary": "MedDRA 11.1", "assessmentType": "SYSTEMATIC_ASSESSMENT", "stats": [{"groupId": "EG000", "numAffected": 1, "numAtRisk": 4008}, {"groupId": "EG001", "numAffected": 0, "numAtRisk": 4045}]}, {"term": "Inguinal Hernia", "organSystem": "Gastrointestinal disorders", "sourceVocabulary": "MedDRA 11.1", "assessmentType": "SYSTEMATIC_ASSESSMENT", "stats": [{"groupId": "EG000", "numAffected": 1, "numAtRisk": 4008}, {"groupId": "EG001", "numAffected": 1, "numAtRisk": 4045}]}, {"term": "Pancreatitis", "organSystem": "Gastrointestinal disorders", "sourceVocabulary": "MedDRA 11.1", "assessmentType": "SYSTEMATIC_ASSESSMENT", "stats": [{"groupId": "EG000", "numAffected": 1, "numAtRisk": 4008}, {"groupId": "EG001", "numAffected": 0, "numAtRisk": 4045}]}, {"term": "Pancreatitis Acute", "organSystem": "Gastrointestinal disorders", "sourceVocabulary": "MedDRA 11.1", "assessmentType": "SYSTEMATIC_ASSESSMENT", "stats": [{"groupId": "EG000", "numAffected": 1, "numAtRisk": 4008}, {"groupId": "EG001", "numAffected": 0, "numAtRisk": 4045}]}, {"term": "Peritonitis", "organSystem": "Gastrointestinal disorders", "sourceVocabulary": "MedDRA 11.1", "assessmentType": "SYSTEMATIC_ASSESSMENT", "stats": [{"groupId": "EG000", "numAffected": 1, "numAtRisk": 4008}, {"groupId": "EG001", "numAffected": 0, "numAtRisk": 4045}]}, {"term": "Reflux Oesophagitis", "organSystem": "Gastrointestinal disorders", "sourceVocabulary": "MedDRA 11.1", "assessmentType": "SYSTEMATIC_ASSESSMENT", "stats": [{"groupId": "EG000", "numAffected": 1, "numAtRisk": 4008}, {"groupId": "EG001", "numAffected": 0, "numAtRisk": 4045}]}, {"term": "Salivary Gland Enlargement", "organSystem": "Gastrointestinal disorders", "sourceVocabulary": "MedDRA 11.1", "assessmentType": "SYSTEMATIC_ASSESSMENT", "stats": [{"groupId": "EG000", "numAffected": 0, "numAtRisk": 4008}, {"groupId": "EG001", "numAffected": 1, "numAtRisk": 4045}]}, {"term": "Umbilical Hernia", "organSystem": "Gastrointestinal disorders", "sourceVocabulary": "MedDRA 11.1", "assessmentType": "SYSTEMATIC_ASSESSMENT", "stats": [{"groupId": "EG000", "numAffected": 1, "numAtRisk": 4008}, {"groupId": "EG001", "numAffected": 1, "numAtRisk": 4045}]}, {"term": "Vomiting", "organSystem": "Gastrointestinal disorders", "sourceVocabulary": "MedDRA 11.1", "assessmentType": "SYSTEMATIC_ASSESSMENT", "stats": [{"groupId": "EG000", "numAffected": 1, "numAtRisk": 4008}, {"groupId": "EG001", "numAffected": 0, "numAtRisk": 4045}]}, {"term": "Chest Pain", "organSystem": "General disorders", "sourceVocabulary": "MedDRA 11.1", "assessmentType": "SYSTEMATIC_ASSESSMENT", "stats": [{"groupId": "EG000", "numAffected": 2, "numAtRisk": 4008}, {"groupId": "EG001", "numAffected": 1, "numAtRisk": 4045}]}, {"term": "Cyst", "organSystem": "General disorders", "sourceVocabulary": "MedDRA 11.1", "assessmentType": "SYSTEMATIC_ASSESSMENT", "stats": [{"groupId": "EG000", "numAffected": 0, "numAtRisk": 4008}, {"groupId": "EG001", "numAffected": 1, "numAtRisk": 4045}]}, {"term": "Death", "organSystem": "General disorders", "sourceVocabulary": "MedDRA 11.1", "assessmentType": "SYSTEMATIC_ASSESSMENT", "stats": [{"groupId": "EG000", "numAffected": 1, "numAtRisk": 4008}, {"groupId": "EG001", "numAffected": 1, "numAtRisk": 4045}]}, {"term": "Non-Cardiac Chest Pain", "organSystem": "General disorders", "sourceVocabulary": "MedDRA 11.1", "assessmentType": "SYSTEMATIC_ASSESSMENT", "stats": [{"groupId": "EG000", "numAffected": 1, "numAtRisk": 4008}, {"groupId": "EG001", "numAffected": 0, "numAtRisk": 4045}]}, {"term": "Pain", "organSystem": "General disorders", "sourceVocabulary": "MedDRA 11.1", "assessmentType": "SYSTEMATIC_ASSESSMENT", "stats": [{"groupId": "EG000", "numAffected": 1, "numAtRisk": 4008}, {"groupId": "EG001", "numAffected": 0, "numAtRisk": 4045}]}, {"term": "Cholecystitis", "organSystem": "Hepatobiliary disorders", "sourceVocabulary": "MedDRA 11.1", "assessmentType": "SYSTEMATIC_ASSESSMENT", "stats": [{"groupId": "EG000", "numAffected": 0, "numAtRisk": 4008}, {"groupId": "EG001", "numAffected": 1, "numAtRisk": 4045}]}, {"term": "Cholecystitis Acute", "organSystem": "Hepatobiliary disorders", "sourceVocabulary": "MedDRA 11.1", "assessmentType": "SYSTEMATIC_ASSESSMENT", "stats": [{"groupId": "EG000", "numAffected": 0, "numAtRisk": 4008}, {"groupId": "EG001", "numAffected": 1, "numAtRisk": 4045}]}, {"term": "Cholelithiasis", "organSystem": "Hepatobiliary disorders", "sourceVocabulary": "MedDRA 11.1", "assessmentType": "SYSTEMATIC_ASSESSMENT", "stats": [{"groupId": "EG000", "numAffected": 0, "numAtRisk": 4008}, {"groupId": "EG001", "numAffected": 4, "numAtRisk": 4045}]}, {"term": "Food Allergy", "organSystem": "Immune system disorders", "sourceVocabulary": "MedDRA 11.1", "assessmentType": "SYSTEMATIC_ASSESSMENT", "stats": [{"groupId": "EG000", "numAffected": 0, "numAtRisk": 4008}, {"groupId": "EG001", "numAffected": 1, "numAtRisk": 4045}]}, {"term": "Hypersensitivity", "organSystem": "Immune system disorders", "sourceVocabulary": "MedDRA 11.1", "assessmentType": "SYSTEMATIC_ASSESSMENT", "stats": [{"groupId": "EG000", "numAffected": 0, "numAtRisk": 4008}, {"groupId": "EG001", "numAffected": 1, "numAtRisk": 4045}]}, {"term": "Sarcoidosis", "organSystem": "Immune system disorders", "sourceVocabulary": "MedDRA 11.1", "assessmentType": "SYSTEMATIC_ASSESSMENT", "stats": [{"groupId": "EG000", "numAffected": 0, "numAtRisk": 4008}, {"groupId": "EG001", "numAffected": 1, "numAtRisk": 4045}]}, {"term": "Appendicitis", "organSystem": "Infections and infestations", "sourceVocabulary": "MedDRA 11.1", "assessmentType": "SYSTEMATIC_ASSESSMENT", "stats": [{"groupId": "EG000", "numAffected": 1, "numAtRisk": 4008}, {"groupId": "EG001", "numAffected": 1, "numAtRisk": 4045}]}, {"term": "Bronchiectasis", "organSystem": "Infections and infestations", "sourceVocabulary": "MedDRA 11.1", "assessmentType": "SYSTEMATIC_ASSESSMENT", "stats": [{"groupId": "EG000", "numAffected": 1, "numAtRisk": 4008}, {"groupId": "EG001", "numAffected": 0, "numAtRisk": 4045}]}, {"term": "Bronchitis", "organSystem": "Infections and infestations", "sourceVocabulary": "MedDRA 11.1", "assessmentType": "SYSTEMATIC_ASSESSMENT", "stats": [{"groupId": "EG000", "numAffected": 0, "numAtRisk": 4008}, {"groupId": "EG001", "numAffected": 2, "numAtRisk": 4045}]}, {"term": "Campylobacter Gastroenteritis", "organSystem": "Infections and infestations", "sourceVocabulary": "MedDRA 11.1", "assessmentType": "SYSTEMATIC_ASSESSMENT", "stats": [{"groupId": "EG000", "numAffected": 1, "numAtRisk": 4008}, {"groupId": "EG001", "numAffected": 0, "numAtRisk": 4045}]}, {"term": "Chronic Sinusitis", "organSystem": "Infections and infestations", "sourceVocabulary": "MedDRA 11.1", "assessmentType": "SYSTEMATIC_ASSESSMENT", "stats": [{"groupId": "EG000", "numAffected": 0, "numAtRisk": 4008}, {"groupId": "EG001", "numAffected": 1, "numAtRisk": 4045}]}, {"term": "Epstein-Barr Virus Infection", "organSystem": "Infections and infestations", "sourceVocabulary": "MedDRA 11.1", "assessmentType": "SYSTEMATIC_ASSESSMENT", "stats": [{"groupId": "EG000", "numAffected": 0, "numAtRisk": 4008}, {"groupId": "EG001", "numAffected": 1, "numAtRisk": 4045}]}, {"term": "Erysipelas", "organSystem": "Infections and infestations", "sourceVocabulary": "MedDRA 11.1", "assessmentType": "SYSTEMATIC_ASSESSMENT", "stats": [{"groupId": "EG000", "numAffected": 1, "numAtRisk": 4008}, {"groupId": "EG001", "numAffected": 1, "numAtRisk": 4045}]}, {"term": "Gastroenteritis", "organSystem": "Infections and infestations", "sourceVocabulary": "MedDRA 11.1", "assessmentType": "SYSTEMATIC_ASSESSMENT", "stats": [{"groupId": "EG000", "numAffected": 1, "numAtRisk": 4008}, {"groupId": "EG001", "numAffected": 1, "numAtRisk": 4045}]}, {"term": "Influenza", "organSystem": "Infections and infestations", "sourceVocabulary": "MedDRA 11.1", "assessmentType": "SYSTEMATIC_ASSESSMENT", "stats": [{"groupId": "EG000", "numAffected": 1, "numAtRisk": 4008}, {"groupId": "EG001", "numAffected": 0, "numAtRisk": 4045}]}, {"term": "Lower Respiratory Tract Infection", "organSystem": "Infections and infestations", "sourceVocabulary": "MedDRA 11.1", "assessmentType": "SYSTEMATIC_ASSESSMENT", "stats": [{"groupId": "EG000", "numAffected": 1, "numAtRisk": 4008}, {"groupId": "EG001", "numAffected": 1, "numAtRisk": 4045}]}, {"term": "Lung Infection", "organSystem": "Infections and infestations", "sourceVocabulary": "MedDRA 11.1", "assessmentType": "SYSTEMATIC_ASSESSMENT", "stats": [{"groupId": "EG000", "numAffected": 0, "numAtRisk": 4008}, {"groupId": "EG001", "numAffected": 1, "numAtRisk": 4045}]}, {"term": "Meningitis Viral", "organSystem": "Infections and infestations", "sourceVocabulary": "MedDRA 11.1", "assessmentType": "SYSTEMATIC_ASSESSMENT", "stats": [{"groupId": "EG000", "numAffected": 0, "numAtRisk": 4008}, {"groupId": "EG001", "numAffected": 1, "numAtRisk": 4045}]}, {"term": "Pilonidal Cyst", "organSystem": "Infections and infestations", "sourceVocabulary": "MedDRA 11.1", "assessmentType": "SYSTEMATIC_ASSESSMENT", "stats": [{"groupId": "EG000", "numAffected": 0, "numAtRisk": 4008}, {"groupId": "EG001", "numAffected": 1, "numAtRisk": 4045}]}, {"term": "Pneumonia", "organSystem": "Infections and infestations", "sourceVocabulary": "MedDRA 11.1", "assessmentType": "SYSTEMATIC_ASSESSMENT", "stats": [{"groupId": "EG000", "numAffected": 3, "numAtRisk": 4008}, {"groupId": "EG001", "numAffected": 3, "numAtRisk": 4045}]}, {"term": "Respiratory Tract Infection", "organSystem": "Infections and infestations", "sourceVocabulary": "MedDRA 11.1", "assessmentType": "SYSTEMATIC_ASSESSMENT", "stats": [{"groupId": "EG000", "numAffected": 1, "numAtRisk": 4008}, {"groupId": "EG001", "numAffected": 0, "numAtRisk": 4045}]}, {"term": "Sinusitis", "organSystem": "Infections and infestations", "sourceVocabulary": "MedDRA 11.1", "assessmentType": "SYSTEMATIC_ASSESSMENT", "stats": [{"groupId": "EG000", "numAffected": 0, "numAtRisk": 4008}, {"groupId": "EG001", "numAffected": 1, "numAtRisk": 4045}]}, {"term": "Tonsillitis", "organSystem": "Infections and infestations", "sourceVocabulary": "MedDRA 11.1", "assessmentType": "SYSTEMATIC_ASSESSMENT", "stats": [{"groupId": "EG000", "numAffected": 0, "numAtRisk": 4008}, {"groupId": "EG001", "numAffected": 1, "numAtRisk": 4045}]}, {"term": "Tracheobronchitis", "organSystem": "Infections and infestations", "sourceVocabulary": "MedDRA 11.1", "assessmentType": "SYSTEMATIC_ASSESSMENT", "stats": [{"groupId": "EG000", "numAffected": 1, "numAtRisk": 4008}, {"groupId": "EG001", "numAffected": 0, "numAtRisk": 4045}]}, {"term": "Animal Bite", "organSystem": "Injury, poisoning and procedural complications", "sourceVocabulary": "MedDRA 11.1", "assessmentType": "SYSTEMATIC_ASSESSMENT", "stats": [{"groupId": "EG000", "numAffected": 0, "numAtRisk": 4008}, {"groupId": "EG001", "numAffected": 1, "numAtRisk": 4045}]}, {"term": "Ankle Fracture", "organSystem": "Injury, poisoning and procedural complications", "sourceVocabulary": "MedDRA 11.1", "assessmentType": "SYSTEMATIC_ASSESSMENT", "stats": [{"groupId": "EG000", "numAffected": 1, "numAtRisk": 4008}, {"groupId": "EG001", "numAffected": 0, "numAtRisk": 4045}]}, {"term": "Fall", "organSystem": "Injury, poisoning and procedural complications", "sourceVocabulary": "MedDRA 11.1", "assessmentType": "SYSTEMATIC_ASSESSMENT", "stats": [{"groupId": "EG000", "numAffected": 1, "numAtRisk": 4008}, {"groupId": "EG001", "numAffected": 1, "numAtRisk": 4045}]}, {"term": "Femur Fracture", "organSystem": "Injury, poisoning and procedural complications", "sourceVocabulary": "MedDRA 11.1", "assessmentType": "SYSTEMATIC_ASSESSMENT", "stats": [{"groupId": "EG000", "numAffected": 1, "numAtRisk": 4008}, {"groupId": "EG001", "numAffected": 0, "numAtRisk": 4045}]}, {"term": "Fibula Fracture", "organSystem": "Injury, poisoning and procedural complications", "sourceVocabulary": "MedDRA 11.1", "assessmentType": "SYSTEMATIC_ASSESSMENT", "stats": [{"groupId": "EG000", "numAffected": 1, "numAtRisk": 4008}, {"groupId": "EG001", "numAffected": 0, "numAtRisk": 4045}]}, {"term": "Joint Dislocation", "organSystem": "Injury, poisoning and procedural complications", "sourceVocabulary": "MedDRA 11.1", "assessmentType": "SYSTEMATIC_ASSESSMENT", "stats": [{"groupId": "EG000", "numAffected": 1, "numAtRisk": 4008}, {"groupId": "EG001", "numAffected": 1, "numAtRisk": 4045}]}, {"term": "Joint Injury", "organSystem": "Injury, poisoning and procedural complications", "sourceVocabulary": "MedDRA 11.1", "assessmentType": "SYSTEMATIC_ASSESSMENT", "stats": [{"groupId": "EG000", "numAffected": 0, "numAtRisk": 4008}, {"groupId": "EG001", "numAffected": 1, "numAtRisk": 4045}]}, {"term": "Ligament Rupture", "organSystem": "Injury, poisoning and procedural complications", "sourceVocabulary": "MedDRA 11.1", "assessmentType": "SYSTEMATIC_ASSESSMENT", "stats": [{"groupId": "EG000", "numAffected": 1, "numAtRisk": 4008}, {"groupId": "EG001", "numAffected": 0, "numAtRisk": 4045}]}, {"term": "Lower Limb Fracture", "organSystem": "Injury, poisoning and procedural complications", "sourceVocabulary": "MedDRA 11.1", "assessmentType": "SYSTEMATIC_ASSESSMENT", "stats": [{"groupId": "EG000", "numAffected": 0, "numAtRisk": 4008}, {"groupId": "EG001", "numAffected": 2, "numAtRisk": 4045}]}, {"term": "Meniscus Lesion", "organSystem": "Injury, poisoning and procedural complications", "sourceVocabulary": "MedDRA 11.1", "assessmentType": "SYSTEMATIC_ASSESSMENT", "stats": [{"groupId": "EG000", "numAffected": 1, "numAtRisk": 4008}, {"groupId": "EG001", "numAffected": 0, "numAtRisk": 4045}]}, {"term": "Multiple Drug Overdose", "organSystem": "Injury, poisoning and procedural complications", "sourceVocabulary": "MedDRA 11.1", "assessmentType": "SYSTEMATIC_ASSESSMENT", "stats": [{"groupId": "EG000", "numAffected": 0, "numAtRisk": 4008}, {"groupId": "EG001", "numAffected": 1, "numAtRisk": 4045}]}, {"term": "Overdose", "organSystem": "Injury, poisoning and procedural complications", "sourceVocabulary": "MedDRA 11.1", "assessmentType": "SYSTEMATIC_ASSESSMENT", "stats": [{"groupId": "EG000", "numAffected": 0, "numAtRisk": 4008}, {"groupId": "EG001", "numAffected": 1, "numAtRisk": 4045}]}, {"term": "Rib Fracture", "organSystem": "Injury, poisoning and procedural complications", "sourceVocabulary": "MedDRA 11.1", "assessmentType": "SYSTEMATIC_ASSESSMENT", "stats": [{"groupId": "EG000", "numAffected": 0, "numAtRisk": 4008}, {"groupId": "EG001", "numAffected": 1, "numAtRisk": 4045}]}, {"term": "Tibia Fracture", "organSystem": "Injury, poisoning and procedural complications", "sourceVocabulary": "MedDRA 11.1", "assessmentType": "SYSTEMATIC_ASSESSMENT", "stats": [{"groupId": "EG000", "numAffected": 1, "numAtRisk": 4008}, {"groupId": "EG001", "numAffected": 0, "numAtRisk": 4045}]}, {"term": "Traumatic Fracture", "organSystem": "Injury, poisoning and procedural complications", "sourceVocabulary": "MedDRA 11.1", "assessmentType": "SYSTEMATIC_ASSESSMENT", "stats": [{"groupId": "EG000", "numAffected": 0, "numAtRisk": 4008}, {"groupId": "EG001", "numAffected": 1, "numAtRisk": 4045}]}, {"term": "Upper Limb Fracture", "organSystem": "Injury, poisoning and procedural complications", "sourceVocabulary": "MedDRA 11.1", "assessmentType": "SYSTEMATIC_ASSESSMENT", "stats": [{"groupId": "EG000", "numAffected": 1, "numAtRisk": 4008}, {"groupId": "EG001", "numAffected": 1, "numAtRisk": 4045}]}, {"term": "Dehydration", "organSystem": "Metabolism and nutrition disorders", "sourceVocabulary": "MedDRA 11.1", "assessmentType": "SYSTEMATIC_ASSESSMENT", "stats": [{"groupId": "EG000", "numAffected": 0, "numAtRisk": 4008}, {"groupId": "EG001", "numAffected": 1, "numAtRisk": 4045}]}, {"term": "Hypokalaemia", "organSystem": "Metabolism and nutrition disorders", "sourceVocabulary": "MedDRA 11.1", "assessmentType": "SYSTEMATIC_ASSESSMENT", "stats": [{"groupId": "EG000", "numAffected": 0, "numAtRisk": 4008}, {"groupId": "EG001", "numAffected": 1, "numAtRisk": 4045}]}, {"term": "Type 2 Diabetes Mellitus", "organSystem": "Metabolism and nutrition disorders", "sourceVocabulary": "MedDRA 11.1", "assessmentType": "SYSTEMATIC_ASSESSMENT", "stats": [{"groupId": "EG000", "numAffected": 0, "numAtRisk": 4008}, {"groupId": "EG001", "numAffected": 1, "numAtRisk": 4045}]}, {"term": "Arthralgia", "organSystem": "Musculoskeletal and connective tissue disorders", "sourceVocabulary": "MedDRA 11.1", "assessmentType": "SYSTEMATIC_ASSESSMENT", "stats": [{"groupId": "EG000", "numAffected": 0, "numAtRisk": 4008}, {"groupId": "EG001", "numAffected": 2, "numAtRisk": 4045}]}, {"term": "Fibromyalgia", "organSystem": "Musculoskeletal and connective tissue disorders", "sourceVocabulary": "MedDRA 11.1", "assessmentType": "SYSTEMATIC_ASSESSMENT", "stats": [{"groupId": "EG000", "numAffected": 0, "numAtRisk": 4008}, {"groupId": "EG001", "numAffected": 1, "numAtRisk": 4045}]}, {"term": "Intervertebral Disc Protrusion", "organSystem": "Musculoskeletal and connective tissue disorders", "sourceVocabulary": "MedDRA 11.1", "assessmentType": "SYSTEMATIC_ASSESSMENT", "stats": [{"groupId": "EG000", "numAffected": 1, "numAtRisk": 4008}, {"groupId": "EG001", "numAffected": 2, "numAtRisk": 4045}]}, {"term": "Muscle Mass", "organSystem": "Musculoskeletal and connective tissue disorders", "sourceVocabulary": "MedDRA 11.1", "assessmentType": "SYSTEMATIC_ASSESSMENT", "stats": [{"groupId": "EG000", "numAffected": 1, "numAtRisk": 4008}, {"groupId": "EG001", "numAffected": 0, "numAtRisk": 4045}]}, {"term": "Muscle Spasms", "organSystem": "Musculoskeletal and connective tissue disorders", "sourceVocabulary": "MedDRA 11.1", "assessmentType": "SYSTEMATIC_ASSESSMENT", "stats": [{"groupId": "EG000", "numAffected": 0, "numAtRisk": 4008}, {"groupId": "EG001", "numAffected": 1, "numAtRisk": 4045}]}, {"term": "Muscular Weakness", "organSystem": "Musculoskeletal and connective tissue disorders", "sourceVocabulary": "MedDRA 11.1", "assessmentType": "SYSTEMATIC_ASSESSMENT", "stats": [{"groupId": "EG000", "numAffected": 1, "numAtRisk": 4008}, {"groupId": "EG001", "numAffected": 0, "numAtRisk": 4045}]}, {"term": "Osteoarthritis", "organSystem": "Musculoskeletal and connective tissue disorders", "sourceVocabulary": "MedDRA 11.1", "assessmentType": "SYSTEMATIC_ASSESSMENT", "stats": [{"groupId": "EG000", "numAffected": 3, "numAtRisk": 4008}, {"groupId": "EG001", "numAffected": 3, "numAtRisk": 4045}]}, {"term": "Spinal Disorder", "organSystem": "Musculoskeletal and connective tissue disorders", "sourceVocabulary": "MedDRA 11.1", "assessmentType": "SYSTEMATIC_ASSESSMENT", "stats": [{"groupId": "EG000", "numAffected": 0, "numAtRisk": 4008}, {"groupId": "EG001", "numAffected": 1, "numAtRisk": 4045}]}, {"term": "Tendonitis", "organSystem": "Musculoskeletal and connective tissue disorders", "sourceVocabulary": "MedDRA 11.1", "assessmentType": "SYSTEMATIC_ASSESSMENT", "stats": [{"groupId": "EG000", "numAffected": 1, "numAtRisk": 4008}, {"groupId": "EG001", "numAffected": 0, "numAtRisk": 4045}]}, {"term": "Basal Cell Carcinoma", "organSystem": "Neoplasms benign, malignant and unspecified (incl cysts and polyps)", "sourceVocabulary": "MedDRA 11.1", "assessmentType": "SYSTEMATIC_ASSESSMENT", "stats": [{"groupId": "EG000", "numAffected": 0, "numAtRisk": 4008}, {"groupId": "EG001", "numAffected": 1, "numAtRisk": 4045}]}, {"term": "Bladder Neoplasm", "organSystem": "Neoplasms benign, malignant and unspecified (incl cysts and polyps)", "sourceVocabulary": "MedDRA 11.1", "assessmentType": "SYSTEMATIC_ASSESSMENT", "stats": [{"groupId": "EG000", "numAffected": 1, "numAtRisk": 4008}, {"groupId": "EG001", "numAffected": 0, "numAtRisk": 4045}]}, {"term": "Breast Cancer", "organSystem": "Neoplasms benign, malignant and unspecified (incl cysts and polyps)", "sourceVocabulary": "MedDRA 11.1", "assessmentType": "SYSTEMATIC_ASSESSMENT", "stats": [{"groupId": "EG000", "numAffected": 0, "numAtRisk": 4008}, {"groupId": "EG001", "numAffected": 4, "numAtRisk": 4045}]}, {"term": "Metastases To Liver", "organSystem": "Neoplasms benign, malignant and unspecified (incl cysts and polyps)", "sourceVocabulary": "MedDRA 11.1", "assessmentType": "SYSTEMATIC_ASSESSMENT", "stats": [{"groupId": "EG000", "numAffected": 0, "numAtRisk": 4008}, {"groupId": "EG001", "numAffected": 1, "numAtRisk": 4045}]}, {"term": "Parathyroid Tumour Benign", "organSystem": "Neoplasms benign, malignant and unspecified (incl cysts and polyps)", "sourceVocabulary": "MedDRA 11.1", "assessmentType": "SYSTEMATIC_ASSESSMENT", "stats": [{"groupId": "EG000", "numAffected": 0, "numAtRisk": 4008}, {"groupId": "EG001", "numAffected": 1, "numAtRisk": 4045}]}, {"term": "Prostate Cancer", "organSystem": "Neoplasms benign, malignant and unspecified (incl cysts and polyps)", "sourceVocabulary": "MedDRA 11.1", "assessmentType": "SYSTEMATIC_ASSESSMENT", "stats": [{"groupId": "EG000", "numAffected": 0, "numAtRisk": 4008}, {"groupId": "EG001", "numAffected": 1, "numAtRisk": 4045}]}, {"term": "Uterine Leiomyoma", "organSystem": "Neoplasms benign, malignant and unspecified (incl cysts and polyps)", "sourceVocabulary": "MedDRA 11.1", "assessmentType": "SYSTEMATIC_ASSESSMENT", "stats": [{"groupId": "EG000", "numAffected": 1, "numAtRisk": 4008}, {"groupId": "EG001", "numAffected": 1, "numAtRisk": 4045}]}, {"term": "Vocal Cord Neoplasm", "organSystem": "Neoplasms benign, malignant and unspecified (incl cysts and polyps)", "sourceVocabulary": "MedDRA 11.1", "assessmentType": "SYSTEMATIC_ASSESSMENT", "stats": [{"groupId": "EG000", "numAffected": 0, "numAtRisk": 4008}, {"groupId": "EG001", "numAffected": 1, "numAtRisk": 4045}]}, {"term": "Carotid Sinus Syndrome", "organSystem": "Nervous system disorders", "sourceVocabulary": "MedDRA 11.1", "assessmentType": "SYSTEMATIC_ASSESSMENT", "stats": [{"groupId": "EG000", "numAffected": 1, "numAtRisk": 4008}, {"groupId": "EG001", "numAffected": 0, "numAtRisk": 4045}]}, {"term": "Cerebrovascular Accident", "organSystem": "Nervous system disorders", "sourceVocabulary": "MedDRA 11.1", "assessmentType": "SYSTEMATIC_ASSESSMENT", "stats": [{"groupId": "EG000", "numAffected": 1, "numAtRisk": 4008}, {"groupId": "EG001", "numAffected": 2, "numAtRisk": 4045}]}, {"term": "Haemorrhage Intracranial", "organSystem": "Nervous system disorders", "sourceVocabulary": "MedDRA 11.1", "assessmentType": "SYSTEMATIC_ASSESSMENT", "stats": [{"groupId": "EG000", "numAffected": 1, "numAtRisk": 4008}, {"groupId": "EG001", "numAffected": 0, "numAtRisk": 4045}]}, {"term": "Haemorrhagic Stroke", "organSystem": "Nervous system disorders", "sourceVocabulary": "MedDRA 11.1", "assessmentType": "SYSTEMATIC_ASSESSMENT", "stats": [{"groupId": "EG000", "numAffected": 1, "numAtRisk": 4008}, {"groupId": "EG001", "numAffected": 0, "numAtRisk": 4045}]}, {"term": "Ischaemic Cerebral Infarction", "organSystem": "Nervous system disorders", "sourceVocabulary": "MedDRA 11.1", "assessmentType": "SYSTEMATIC_ASSESSMENT", "stats": [{"groupId": "EG000", "numAffected": 1, "numAtRisk": 4008}, {"groupId": "EG001", "numAffected": 0, "numAtRisk": 4045}]}, {"term": "Loss Of Consciousness", "organSystem": "Nervous system disorders", "sourceVocabulary": "MedDRA 11.1", "assessmentType": "SYSTEMATIC_ASSESSMENT", "stats": [{"groupId": "EG000", "numAffected": 1, "numAtRisk": 4008}, {"groupId": "EG001", "numAffected": 0, "numAtRisk": 4045}]}, {"term": "Migraine", "organSystem": "Nervous system disorders", "sourceVocabulary": "MedDRA 11.1", "assessmentType": "SYSTEMATIC_ASSESSMENT", "stats": [{"groupId": "EG000", "numAffected": 1, "numAtRisk": 4008}, {"groupId": "EG001", "numAffected": 0, "numAtRisk": 4045}]}, {"term": "Syncope", "organSystem": "Nervous system disorders", "sourceVocabulary": "MedDRA 11.1", "assessmentType": "SYSTEMATIC_ASSESSMENT", "stats": [{"groupId": "EG000", "numAffected": 0, "numAtRisk": 4008}, {"groupId": "EG001", "numAffected": 1, "numAtRisk": 4045}]}, {"term": "Abortion Spontaneous", "organSystem": "Pregnancy, puerperium and perinatal conditions", "sourceVocabulary": "MedDRA 11.1", "assessmentType": "SYSTEMATIC_ASSESSMENT", "stats": [{"groupId": "EG000", "numAffected": 1, "numAtRisk": 4008}, {"groupId": "EG001", "numAffected": 0, "numAtRisk": 4045}]}, {"term": "Endometriosis", "organSystem": "Reproductive system and breast disorders", "sourceVocabulary": "MedDRA 11.1", "assessmentType": "SYSTEMATIC_ASSESSMENT", "stats": [{"groupId": "EG000", "numAffected": 0, "numAtRisk": 4008}, {"groupId": "EG001", "numAffected": 1, "numAtRisk": 4045}]}, {"term": "Menorrhagia", "organSystem": "Reproductive system and breast disorders", "sourceVocabulary": "MedDRA 11.1", "assessmentType": "SYSTEMATIC_ASSESSMENT", "stats": [{"groupId": "EG000", "numAffected": 1, "numAtRisk": 4008}, {"groupId": "EG001", "numAffected": 0, "numAtRisk": 4045}]}, {"term": "Vaginal Haemorrhage", "organSystem": "Reproductive system and breast disorders", "sourceVocabulary": "MedDRA 11.1", "assessmentType": "SYSTEMATIC_ASSESSMENT", "stats": [{"groupId": "EG000", "numAffected": 1, "numAtRisk": 4008}, {"groupId": "EG001", "numAffected": 0, "numAtRisk": 4045}]}, {"term": "Asthma", "organSystem": "Respiratory, thoracic and mediastinal disorders", "sourceVocabulary": "MedDRA 11.1", "assessmentType": "SYSTEMATIC_ASSESSMENT", "stats": [{"groupId": "EG000", "numAffected": 13, "numAtRisk": 4008}, {"groupId": "EG001", "numAffected": 9, "numAtRisk": 4045}]}, {"term": "Asthmatic Crisis", "organSystem": "Respiratory, thoracic and mediastinal disorders", "sourceVocabulary": "MedDRA 11.1", "assessmentType": "SYSTEMATIC_ASSESSMENT", "stats": [{"groupId": "EG000", "numAffected": 0, "numAtRisk": 4008}, {"groupId": "EG001", "numAffected": 1, "numAtRisk": 4045}]}, {"term": "Chronic Obstructive Pulmonary Disease", "organSystem": "Respiratory, thoracic and mediastinal disorders", "sourceVocabulary": "MedDRA 11.1", "assessmentType": "SYSTEMATIC_ASSESSMENT", "stats": [{"groupId": "EG000", "numAffected": 0, "numAtRisk": 4008}, {"groupId": "EG001", "numAffected": 1, "numAtRisk": 4045}]}, {"term": "Cough", "organSystem": "Respiratory, thoracic and mediastinal disorders", "sourceVocabulary": "MedDRA 11.1", "assessmentType": "SYSTEMATIC_ASSESSMENT", "stats": [{"groupId": "EG000", "numAffected": 0, "numAtRisk": 4008}, {"groupId": "EG001", "numAffected": 1, "numAtRisk": 4045}]}, {"term": "Dyspnoea", "organSystem": "Respiratory, thoracic and mediastinal disorders", "sourceVocabulary": "MedDRA 11.1", "assessmentType": "SYSTEMATIC_ASSESSMENT", "stats": [{"groupId": "EG000", "numAffected": 1, "numAtRisk": 4008}, {"groupId": "EG001", "numAffected": 2, "numAtRisk": 4045}]}, {"term": "Epistaxis", "organSystem": "Respiratory, thoracic and mediastinal disorders", "sourceVocabulary": "MedDRA 11.1", "assessmentType": "SYSTEMATIC_ASSESSMENT", "stats": [{"groupId": "EG000", "numAffected": 0, "numAtRisk": 4008}, {"groupId": "EG001", "numAffected": 1, "numAtRisk": 4045}]}, {"term": "Pharyngeal Disorder", "organSystem": "Respiratory, thoracic and mediastinal disorders", "sourceVocabulary": "MedDRA 11.1", "assessmentType": "SYSTEMATIC_ASSESSMENT", "stats": [{"groupId": "EG000", "numAffected": 0, "numAtRisk": 4008}, {"groupId": "EG001", "numAffected": 1, "numAtRisk": 4045}]}, {"term": "Pneumothorax", "organSystem": "Respiratory, thoracic and mediastinal disorders", "sourceVocabulary": "MedDRA 11.1", "assessmentType": "SYSTEMATIC_ASSESSMENT", "stats": [{"groupId": "EG000", "numAffected": 1, "numAtRisk": 4008}, {"groupId": "EG001", "numAffected": 0, "numAtRisk": 4045}]}, {"term": "Pulmonary Embolism", "organSystem": "Respiratory, thoracic and mediastinal disorders", "sourceVocabulary": "MedDRA 11.1", "assessmentType": "SYSTEMATIC_ASSESSMENT", "stats": [{"groupId": "EG000", "numAffected": 0, "numAtRisk": 4008}, {"groupId": "EG001", "numAffected": 2, "numAtRisk": 4045}]}, {"term": "Sleep Apnoea Syndrome", "organSystem": "Respiratory, thoracic and mediastinal disorders", "sourceVocabulary": "MedDRA 11.1", "assessmentType": "SYSTEMATIC_ASSESSMENT", "stats": [{"groupId": "EG000", "numAffected": 1, "numAtRisk": 4008}, {"groupId": "EG001", "numAffected": 1, "numAtRisk": 4045}]}, {"term": "Deep Vein Thrombosis", "organSystem": "Vascular disorders", "sourceVocabulary": "MedDRA 11.1", "assessmentType": "SYSTEMATIC_ASSESSMENT", "stats": [{"groupId": "EG000", "numAffected": 1, "numAtRisk": 4008}, {"groupId": "EG001", "numAffected": 0, "numAtRisk": 4045}]}]}, "moreInfoModule": {"certainAgreement": {"piSponsorEmployee": false, "restrictionType": "OTHER", "restrictiveAgreement": true}, "pointOfContact": {"title": "Gerard Lynch", "organization": "AstraZeneca", "email": "aztrial_results_posting@astrazeneca.com"}}}, "derivedSection": {"miscInfoModule": {"versionHolder": "2024-06-24"}, "conditionBrowseModule": {"meshes": [{"id": "D000001249", "term": "Asthma"}], "ancestors": [{"id": "D000001982", "term": "Bronchial Diseases"}, {"id": "D000012140", "term": "Respiratory Tract Diseases"}, {"id": "D000008173", "term": "Lung Diseases, Obstructive"}, {"id": "D000008171", "term": "Lung Diseases"}, {"id": "D000012130", "term": "Respiratory Hypersensitivity"}, {"id": "D000006969", "term": "Hypersensitivity, Immediate"}, {"id": "D000006967", "term": "Hypersensitivity"}, {"id": "D000007154", "term": "Immune System Diseases"}], "browseLeaves": [{"id": "M4556", "name": "Asthma", "asFound": "Asthma", "relevance": "HIGH"}, {"id": "M5258", "name": "Bronchial Diseases", "relevance": "LOW"}, {"id": "M14977", "name": "Respiratory Tract Diseases", "relevance": "LOW"}, {"id": "M11168", "name": "Lung Diseases", "relevance": "LOW"}, {"id": "M11170", "name": "Lung Diseases, Obstructive", "relevance": "LOW"}, {"id": "M10018", "name": "Hypersensitivity", "relevance": "LOW"}, {"id": "M14967", "name": "Respiratory Hypersensitivity", "relevance": "LOW"}, {"id": "M10020", "name": "Hypersensitivity, Immediate", "relevance": "LOW"}, {"id": "M10200", "name": "Immune System Diseases", "relevance": "LOW"}], "browseBranches": [{"abbrev": "BC08", "name": "Respiratory Tract (Lung and Bronchial) Diseases"}, {"abbrev": "BC20", "name": "Immune System Diseases"}, {"abbrev": "All", "name": "All Conditions"}]}, "interventionBrowseModule": {"meshes": [{"id": "D000019819", "term": "Budesonide"}, {"id": "D000068759", "term": "Formoterol Fumarate"}], "ancestors": [{"id": "D000000893", "term": "Anti-Inflammatory Agents"}, {"id": "D000001993", "term": "Bronchodilator Agents"}, {"id": "D000001337", "term": "Autonomic Agents"}, {"id": "D000018373", "term": "Peripheral Nervous System Agents"}, {"id": "D000045505", "term": "Physiological Effects of Drugs"}, {"id": "D000018927", "term": "Anti-Asthmatic Agents"}, {"id": "D000019141", "term": "Respiratory System Agents"}, {"id": "D000005938", "term": "Glucocorticoids"}, {"id": "D000006728", "term": "Hormones"}, {"id": "D000006730", "term": "Hormones, Hormone Substitutes, and Hormone Antagonists"}, {"id": "D000058666", "term": "Adrenergic beta-2 Receptor Agonists"}, {"id": "D000000318", "term": "Adrenergic beta-Agonists"}, {"id": "D000000322", "term": "Adrenergic Agonists"}, {"id": "D000018663", "term": "Adrenergic Agents"}, {"id": "D000018377", "term": "Neurotransmitter Agents"}, {"id": "D000045504", "term": "Molecular Mechanisms of Pharmacological Action"}], "browseLeaves": [{"id": "M21711", "name": "Budesonide", "asFound": "Of 1", "relevance": "HIGH"}, {"id": "M304", "name": "Formoterol Fumarate", "asFound": "Nicotine", "relevance": "HIGH"}, {"id": "M4217", "name": "Anti-Inflammatory Agents", "relevance": "LOW"}, {"id": "M5269", "name": "Bronchodilator Agents", "relevance": "LOW"}, {"id": "M20963", "name": "Anti-Asthmatic Agents", "relevance": "LOW"}, {"id": "M21137", "name": "Respiratory System Agents", "relevance": "LOW"}, {"id": "M9047", "name": "Glucocorticoids", "relevance": "LOW"}, {"id": "M9789", "name": "Hormones", "relevance": "LOW"}, {"id": "M9788", "name": "Hormone Antagonists", "relevance": "LOW"}, {"id": "M20746", "name": "Adrenergic Agents", "relevance": "LOW"}, {"id": "M3670", "name": "Adrenergic beta-Agonists", "relevance": "LOW"}, {"id": "M3673", "name": "Adrenergic Agonists", "relevance": "LOW"}, {"id": "M20504", "name": "Neurotransmitter Agents", "relevance": "LOW"}], "browseBranches": [{"abbrev": "Infl", "name": "Anti-Inflammatory Agents"}, {"abbrev": "Resp", "name": "Respiratory System Agents"}, {"abbrev": "All", "name": "All Drugs and Chemicals"}]}}, "hasResults": true}