{"protocolSection": {"identificationModule": {"nctId": "NCT03504020", "orgStudyIdInfo": {"id": "ECG Belt for CRT Response"}, "organization": {"fullName": "Medtronic Cardiac Rhythm and Heart Failure", "class": "INDUSTRY"}, "briefTitle": "ECG Belt for CRT Response", "officialTitle": "ECG Belt for CRT Response"}, "statusModule": {"statusVerifiedDate": "2023-01", "overallStatus": "COMPLETED", "expandedAccessInfo": {"hasExpandedAccess": false}, "startDateStruct": {"date": "2018-07-13", "type": "ACTUAL"}, "primaryCompletionDateStruct": {"date": "2022-01-07", "type": "ACTUAL"}, "completionDateStruct": {"date": "2022-04-20", "type": "ACTUAL"}, "studyFirstSubmitDate": "2018-04-12", "studyFirstSubmitQcDate": "2018-04-12", "studyFirstPostDateStruct": {"date": "2018-04-20", "type": "ACTUAL"}, "resultsFirstSubmitDate": "2022-12-22", "resultsFirstSubmitQcDate": "2023-01-31", "resultsFirstPostDateStruct": {"date": "2023-02-03", "type": "ACTUAL"}, "lastUpdateSubmitDate": "2023-01-31", "lastUpdatePostDateStruct": {"date": "2023-02-03", "type": "ACTUAL"}}, "sponsorCollaboratorsModule": {"responsibleParty": {"type": "SPONSOR"}, "leadSponsor": {"name": "Medtronic Cardiac Rhythm and Heart Failure", "class": "INDUSTRY"}}, "oversightModule": {"oversightHasDmc": true, "isFdaRegulatedDrug": false, "isFdaRegulatedDevice": true, "isUnapprovedDevice": true, "isUsExport": true}, "descriptionModule": {"briefSummary": "The purpose of this clinical study is to compare ECG Belt Research System managed cardiac resynchronization therapy (CRT) patients and a control CRT group with respect to left ventricular (LV) remodeling.", "detailedDescription": "The ECG Belt study is a prospective, interventional, randomized, multi-center, investigational, pre-market research study. The ECG Belt Research System will be used at implant and follow-up to help implanters choose a suitable LV pacing site within the recommended locations for LV lead implantation and optimize pacing vector/timing parameters."}, "conditionsModule": {"conditions": ["Heart Failure"]}, "designModule": {"studyType": "INTERVENTIONAL", "phases": ["NA"], "designInfo": {"allocation": "RANDOMIZED", "interventionModel": "PARALLEL", "primaryPurpose": "TREATMENT", "maskingInfo": {"masking": "SINGLE", "whoMasked": ["OUTCOMES_ASSESSOR"]}}, "enrollmentInfo": {"count": 498, "type": "ACTUAL"}}, "armsInterventionsModule": {"armGroups": [{"label": "ECG Belt", "type": "EXPERIMENTAL", "description": "The ECG Belt arm will utilize the ECG Belt Research System at implant and all follow up visits.", "interventionNames": ["Device: ECG Belt Research System"]}, {"label": "Control Arm", "type": "NO_INTERVENTION", "description": "Standard CRT through 6 months follow-up."}], "interventions": [{"type": "DEVICE", "name": "ECG Belt Research System", "description": "The ECG Belt Research System is used to identify the best vector and programming parameters.", "armGroupLabels": ["ECG Belt"]}]}, "outcomesModule": {"primaryOutcomes": [{"measure": "Change in Left Ventricular End Systolic Volume (LVESV) From Baseline to 6 Months Post-implant.", "description": "Relative (%) change in LVESV from the baseline measurement to the 6 month measurement.", "timeFrame": "baseline to 6 months"}]}, "eligibilityModule": {"eligibilityCriteria": "Inclusion Criteria:\n\n* Indicated for CRT, with QRS duration \u2265130 ms, and planned to be implanted with a market-released Medtronic CRT device with AdaptivCRT and a Medtronic quadripolar LV lead.\n* Meets at least one of the following criteria: QRS duration \\< 150 ms, Prior documented Myocardial Infarction, Non-LBBB\n* LVEDD \u2265 55 mm, as determined by site\n\nExclusion Criteria:\n\n* Permanent/persistent AF or presenting with AF\n* Pre-existing or previous LV lead or other confounding devices e.g. Left Ventricular Assist Device, Vagal Nerve Stimulator\n* Currently implanted with IPG or ICD with \\> 10% RV pacing\n* Permanent complete AV block\n* Enrolled in a concurrent study that may confound the results of this study. Pre-approval from the study manager is required for enrollment of a patient that is in a concurrent study.\n* Less than 1 year life expectancy\n* Vulnerable adults\n* Younger than 18 years of age", "healthyVolunteers": false, "sex": "ALL", "minimumAge": "18 Years", "stdAges": ["ADULT", "OLDER_ADULT"]}, "contactsLocationsModule": {"overallOfficials": [{"name": "ECG Belt for CRT Response Clinical Research Specialist", "affiliation": "Medtronic", "role": "STUDY_CHAIR"}], "locations": [{"facility": "Hartford Hospital", "city": "Hartford", "state": "Connecticut", "zip": "06102", "country": "United States", "geoPoint": {"lat": 41.76371, "lon": -72.68509}}, {"facility": "Yale School of Medicine", "city": "New Haven", "state": "Connecticut", "zip": "06510", "country": "United States", "geoPoint": {"lat": 41.30815, "lon": -72.92816}}, {"facility": "MedStar Washington Hospital Center", "city": "Washington", "state": "District of Columbia", "zip": "20010", "country": "United States", "geoPoint": {"lat": 38.89511, "lon": -77.03637}}, {"facility": "University of Florida Health Shands Hospital", "city": "Gainesville", "state": "Florida", "zip": "32608", "country": "United States", "geoPoint": {"lat": 29.65163, "lon": -82.32483}}, {"facility": "Florida Hospital Cardiovascular Research Institute", "city": "Orlando", "state": "Florida", "zip": "32803-1248", "country": "United States", "geoPoint": {"lat": 28.53834, "lon": -81.37924}}, {"facility": "BayCare Health System", "city": "Tampa", "state": "Florida", "zip": "33614-7101", "country": "United States", "geoPoint": {"lat": 27.94752, "lon": -82.45843}}, {"facility": "NorthShore University Health System", "city": "Evanston", "state": "Illinois", "zip": "60201-1718", "country": "United States", "geoPoint": {"lat": 42.04114, "lon": -87.69006}}, {"facility": "Iowa Heart Center", "city": "West Des Moines", "state": "Iowa", "zip": "50266", "country": "United States", "geoPoint": {"lat": 41.57721, "lon": -93.71133}}, {"facility": "Heartland Cardiology", "city": "Wichita", "state": "Kansas", "zip": "67205-1138", "country": "United States", "geoPoint": {"lat": 37.69224, "lon": -97.33754}}, {"facility": "Cardiovascular Institute of the South", "city": "Houma", "state": "Louisiana", "zip": "70360", "country": "United States", "geoPoint": {"lat": 29.59577, "lon": -90.71953}}, {"facility": "Advanced Cardiovascular Specialists", "city": "Shreveport", "state": "Louisiana", "zip": "71105", "country": "United States", "geoPoint": {"lat": 32.52515, "lon": -93.75018}}, {"facility": "Mayo Clinic", "city": "Rochester", "state": "Minnesota", "zip": "55905", "country": "United States", "geoPoint": {"lat": 44.02163, "lon": -92.4699}}, {"facility": "Saint Lukes Hospital of Kansas City", "city": "Kansas City", "state": "Missouri", "zip": "64111", "country": "United States", "geoPoint": {"lat": 39.09973, "lon": -94.57857}}, {"facility": "Washington University School of Medicine", "city": "Saint Louis", "state": "Missouri", "zip": "63110", "country": "United States", "geoPoint": {"lat": 38.62727, "lon": -90.19789}}, {"facility": "Bryan Heart", "city": "Lincoln", "state": "Nebraska", "zip": "68506", "country": "United States", "geoPoint": {"lat": 40.8, "lon": -96.66696}}, {"facility": "Morristown Memorial Hospital", "city": "Morristown", "state": "New Jersey", "zip": "07960-6136", "country": "United States", "geoPoint": {"lat": 40.79677, "lon": -74.48154}}, {"facility": "Atrium Health's Carolina Medical Center", "city": "Charlotte", "state": "North Carolina", "zip": "28203-5867", "country": "United States", "geoPoint": {"lat": 35.22709, "lon": -80.84313}}, {"facility": "Duke University Medical Center", "city": "Durham", "state": "North Carolina", "zip": "27710", "country": "United States", "geoPoint": {"lat": 35.99403, "lon": -78.89862}}, {"facility": "North Carolina Heart and Vascular", "city": "Raleigh", "state": "North Carolina", "zip": "27607-7521", "country": "United States", "geoPoint": {"lat": 35.7721, "lon": -78.63861}}, {"facility": "Cleveland Clinic", "city": "Cleveland", "state": "Ohio", "zip": "44195", "country": "United States", "geoPoint": {"lat": 41.4995, "lon": -81.69541}}, {"facility": "Mount Carmel East", "city": "Columbus", "state": "Ohio", "zip": "43213", "country": "United States", "geoPoint": {"lat": 39.96118, "lon": -82.99879}}, {"facility": "OhioHealth Research and Innovation Institute (OHRI)", "city": "Columbus", "state": "Ohio", "zip": "43214", "country": "United States", "geoPoint": {"lat": 39.96118, "lon": -82.99879}}, {"facility": "Oklahoma Heart Hospital", "city": "Oklahoma City", "state": "Oklahoma", "zip": "73120", "country": "United States", "geoPoint": {"lat": 35.46756, "lon": -97.51643}}, {"facility": "Lehigh Valley Hospital- Cedar Crest", "city": "Allentown", "state": "Pennsylvania", "zip": "18103", "country": "United States", "geoPoint": {"lat": 40.60843, "lon": -75.49018}}, {"facility": "Hospital of the University of Pennsylvania", "city": "Philadelphia", "state": "Pennsylvania", "zip": "19104", "country": "United States", "geoPoint": {"lat": 39.95233, "lon": -75.16379}}, {"facility": "University of Pittsburgh Medical Center UPMC Presbyterian", "city": "Pittsburgh", "state": "Pennsylvania", "zip": "15213-2536", "country": "United States", "geoPoint": {"lat": 40.44062, "lon": -79.99589}}, {"facility": "Geisinger Wyoming Valley Medical Center", "city": "Wilkes-Barre", "state": "Pennsylvania", "zip": "18711", "country": "United States", "geoPoint": {"lat": 41.24591, "lon": -75.88131}}, {"facility": "Medical University of South Carolina", "city": "Charleston", "state": "South Carolina", "zip": "29425-0001", "country": "United States", "geoPoint": {"lat": 32.77657, "lon": -79.93092}}, {"facility": "Wellmont CVA Heart Institute", "city": "Kingsport", "state": "Tennessee", "zip": "37660-7332", "country": "United States", "geoPoint": {"lat": 36.54843, "lon": -82.56182}}, {"facility": "Vanderbilt University medical Center", "city": "Nashville", "state": "Tennessee", "zip": "37232-8802", "country": "United States", "geoPoint": {"lat": 36.16589, "lon": -86.78444}}, {"facility": "Texas Cardiac Arrhythmia Research Foundation", "city": "Austin", "state": "Texas", "zip": "78705", "country": "United States", "geoPoint": {"lat": 30.26715, "lon": -97.74306}}, {"facility": "Texas Health Research & Education Institute", "city": "Fort Worth", "state": "Texas", "zip": "76104", "country": "United States", "geoPoint": {"lat": 32.72541, "lon": -97.32085}}, {"facility": "The University of Vermont Medical Center", "city": "Burlington", "state": "Vermont", "zip": "05401-1473", "country": "United States", "geoPoint": {"lat": 44.47588, "lon": -73.21207}}, {"facility": "Aurora St. Lukes", "city": "Milwaukee", "state": "Wisconsin", "zip": "53215", "country": "United States", "geoPoint": {"lat": 43.0389, "lon": -87.90647}}, {"facility": "Onze-Lieve-Vrouwziekenhuis-campus aalst", "city": "Aalst", "zip": "9300", "country": "Belgium", "geoPoint": {"lat": 50.93604, "lon": 4.0355}}, {"facility": "Cliniques Universitaires Saint-Luc", "city": "Brussels", "zip": "1200", "country": "Belgium", "geoPoint": {"lat": 50.85045, "lon": 4.34878}}, {"facility": "University of Ottawa Heart Institute", "city": "Ottawa", "state": "Ontario", "zip": "K1Y 4W7", "country": "Canada", "geoPoint": {"lat": 45.41117, "lon": -75.69812}}, {"facility": "Montreal Heart Institute", "city": "Montr\u00e9al", "state": "Quebec", "zip": "H1T 1C8", "country": "Canada", "geoPoint": {"lat": 45.50884, "lon": -73.58781}}, {"facility": "Rigshospitalet", "city": "Kobenhavn", "zip": "2100", "country": "Denmark", "geoPoint": {"lat": 55.67594, "lon": 12.56553}}, {"facility": "Policlinico Sant' Orsola - Malpighi", "city": "Bologna", "zip": "40138", "country": "Italy", "geoPoint": {"lat": 44.49381, "lon": 11.33875}}, {"facility": "Istituto Auxologico Italiano - Istituto Scientifico Ospedale San Luca", "city": "Milano", "zip": "20149", "country": "Italy", "geoPoint": {"lat": 45.46427, "lon": 9.18951}}, {"facility": "Maastricht Universitair Medisch Centrum (MUMC)", "city": "Maastricht", "zip": "6229 HX", "country": "Netherlands", "geoPoint": {"lat": 50.84833, "lon": 5.68889}}, {"facility": "Centre Hospitalier Universitaire Vaudois", "city": "Lausanne", "zip": "1011", "country": "Switzerland", "geoPoint": {"lat": 46.516, "lon": 6.63282}}]}, "referencesModule": {"references": [{"pmid": "32537740", "type": "RESULT", "citation": "Rickard J, Jackson K, Biffi M, Vernooy K, Bank A, Cerkvenik J, Ghosh S, Gold MR. The ECG Belt for CRT response trial: Design and clinical protocol. Pacing Clin Electrophysiol. 2020 Oct;43(10):1063-1071. doi: 10.1111/pace.13985. Epub 2020 Sep 1."}, {"pmid": "36442824", "type": "RESULT", "citation": "Rickard J, Jackson K, Gold M, Biffi M, Ziacchi M, Silverstein J, Ramza B, Metzl M, Grubman E, Abben R, Varma N, Tabbal G, Jensen C, Wouters G, Ghosh S, Vernooy K; ECG Belt for CRT Response Study Group. Electrocardiogram Belt guidance for left ventricular lead placement and biventricular pacing optimization. Heart Rhythm. 2023 Apr;20(4):537-544. doi: 10.1016/j.hrthm.2022.11.015. Epub 2022 Nov 25."}]}, "ipdSharingStatementModule": {"ipdSharing": "NO"}}, "resultsSection": {"participantFlowModule": {"preAssignmentDetails": "* 498 pts enrolled, 55 exits prior to randomization\n* 443 pts randomized, 35 pts not implanted", "groups": [{"id": "FG000", "title": "ECG Belt", "description": "The ECG Belt arm will utilize the ECG Belt Research System at implant and all follow up visits.\n\n\\>\n\n\\> ECG Belt Research System: The ECG Belt Research System is used to identify the best vector and programming parameters."}, {"id": "FG001", "title": "Control Arm", "description": "Standard CRT through 6 months follow-up."}], "periods": [{"title": "Overall Study", "milestones": [{"type": "STARTED", "achievements": [{"groupId": "FG000", "numSubjects": "200"}, {"groupId": "FG001", "numSubjects": "208"}]}, {"type": "COMPLETED", "achievements": [{"groupId": "FG000", "numSubjects": "161"}, {"groupId": "FG001", "numSubjects": "172"}]}, {"type": "NOT COMPLETED", "achievements": [{"groupId": "FG000", "numSubjects": "39"}, {"groupId": "FG001", "numSubjects": "36"}]}]}]}, "baselineCharacteristicsModule": {"groups": [{"id": "BG000", "title": "ECG Belt", "description": "The ECG Belt arm will utilize the ECG Belt Research System at implant and all follow up visits.\\>\n\n\\> ECG Belt Research System: The ECG Belt Research System is used to identify the best vector and programming parameters."}, {"id": "BG001", "title": "Control Arm", "description": "Standard CRT through 6 months follow-up."}, {"id": "BG002", "title": "Total", "description": "Total of all reporting groups"}], "denoms": [{"units": "Participants", "counts": [{"groupId": "BG000", "value": "200"}, {"groupId": "BG001", "value": "208"}, {"groupId": "BG002", "value": "408"}]}], "measures": [{"title": "Age, Continuous", "paramType": "MEAN", "dispersionType": "STANDARD_DEVIATION", "unitOfMeasure": "years", "classes": [{"denoms": [{"units": "Participants", "counts": [{"groupId": "BG000", "value": "200"}, {"groupId": "BG001", "value": "208"}, {"groupId": "BG002", "value": "408"}]}], "categories": [{"measurements": [{"groupId": "BG000", "value": "69.7", "spread": "10.4"}, {"groupId": "BG001", "value": "67.8", "spread": "10.1"}, {"groupId": "BG002", "value": "68.8", "spread": "10.3"}]}]}]}, {"title": "Sex: Female, Male", "paramType": "COUNT_OF_PARTICIPANTS", "unitOfMeasure": "Participants", "classes": [{"denoms": [{"units": "Participants", "counts": [{"groupId": "BG000", "value": "200"}, {"groupId": "BG001", "value": "208"}, {"groupId": "BG002", "value": "408"}]}], "categories": [{"title": "Female", "measurements": [{"groupId": "BG000", "value": "44"}, {"groupId": "BG001", "value": "41"}, {"groupId": "BG002", "value": "85"}]}, {"title": "Male", "measurements": [{"groupId": "BG000", "value": "156"}, {"groupId": "BG001", "value": "167"}, {"groupId": "BG002", "value": "323"}]}]}]}, {"title": "Race and Ethnicity Not Collected", "populationDescription": "Race and Ethnicity were not collected from any participant.", "paramType": "COUNT_OF_PARTICIPANTS", "unitOfMeasure": "Participants", "classes": [{"denoms": [{"units": "Participants", "counts": [{"groupId": "BG000", "value": "0"}, {"groupId": "BG001", "value": "0"}, {"groupId": "BG002", "value": "0"}]}], "categories": [{"measurements": [{"groupId": "BG002", "value": "0"}]}]}]}]}, "outcomeMeasuresModule": {"outcomeMeasures": [{"type": "PRIMARY", "title": "Change in Left Ventricular End Systolic Volume (LVESV) From Baseline to 6 Months Post-implant.", "description": "Relative (%) change in LVESV from the baseline measurement to the 6 month measurement.", "populationDescription": "Patients were only included in the analysis if they completed the Baseline and 6-month visit. For some patients, if the 6-month visit was not available, but the 9-month visit was, then the 9-month visit was used.", "reportingStatus": "POSTED", "paramType": "MEAN", "dispersionType": "Standard Deviation", "unitOfMeasure": "Percent Change", "timeFrame": "baseline to 6 months", "groups": [{"id": "OG000", "title": "ECG Belt", "description": "The ECG Belt arm will utilize the ECG Belt Research System at implant and all follow up visits.\n\n\\>\n\n\\> ECG Belt Research System: The ECG Belt Research System is used to identify the best vector and programming parameters."}, {"id": "OG001", "title": "Control Arm", "description": "Standard CRT through 6 months follow-up."}], "denoms": [{"units": "Participants", "counts": [{"groupId": "OG000", "value": "163"}, {"groupId": "OG001", "value": "175"}]}], "classes": [{"categories": [{"measurements": [{"groupId": "OG000", "value": "-11.7", "spread": "29.0"}, {"groupId": "OG001", "value": "-14.7", "spread": "29.6"}]}]}]}]}, "adverseEventsModule": {"frequencyThreshold": "5", "timeFrame": "Enrollment- 9 months", "eventGroups": [{"id": "EG000", "title": "ECG Belt", "description": "The ECG Belt arm will utilize the ECG Belt Research System at implant and all follow up visits.\n\nECG Belt Research System: The ECG Belt Research System is used to identify the best vector and programming parameters.", "deathsNumAffected": 12, "deathsNumAtRisk": 200, "seriousNumAffected": 68, "seriousNumAtRisk": 200, "otherNumAffected": 0, "otherNumAtRisk": 200}, {"id": "EG001", "title": "Control Arm", "description": "Standard CRT through 9 months follow-up.", "deathsNumAffected": 6, "deathsNumAtRisk": 208, "seriousNumAffected": 52, "seriousNumAtRisk": 208, "otherNumAffected": 0, "otherNumAtRisk": 208}], "seriousEvents": [{"term": "Anaemia", "organSystem": "Blood and lymphatic system disorders", "sourceVocabulary": "MedDRA 25", "assessmentType": "SYSTEMATIC_ASSESSMENT", "stats": [{"groupId": "EG000", "numEvents": 4, "numAffected": 3, "numAtRisk": 200}, {"groupId": "EG001", "numEvents": 0, "numAffected": 0, "numAtRisk": 208}]}, {"term": "Blood Loss Anaemia", "organSystem": "Blood and lymphatic system disorders", "sourceVocabulary": "MedDRA 25", "assessmentType": "SYSTEMATIC_ASSESSMENT", "stats": [{"groupId": "EG000", "numEvents": 2, "numAffected": 2, "numAtRisk": 200}, {"groupId": "EG001", "numEvents": 0, "numAffected": 0, "numAtRisk": 208}]}, {"term": "Nephrogenic Anaemia", "organSystem": "Blood and lymphatic system disorders", "sourceVocabulary": "MedDRA 25", "assessmentType": "SYSTEMATIC_ASSESSMENT", "stats": [{"groupId": "EG000", "numEvents": 1, "numAffected": 1, "numAtRisk": 200}, {"groupId": "EG001", "numEvents": 0, "numAffected": 0, "numAtRisk": 208}]}, {"term": "Accelerated Idioventricular Rhythm", "organSystem": "Cardiac disorders", "sourceVocabulary": "MedDRA 25", "assessmentType": "SYSTEMATIC_ASSESSMENT", "stats": [{"groupId": "EG000", "numEvents": 1, "numAffected": 1, "numAtRisk": 200}, {"groupId": "EG001", "numEvents": 0, "numAffected": 0, "numAtRisk": 208}]}, {"term": "Acute Coronary Syndrome", "organSystem": "Cardiac disorders", "sourceVocabulary": "MedDRA 25", "assessmentType": "SYSTEMATIC_ASSESSMENT", "stats": [{"groupId": "EG000", "numEvents": 0, "numAffected": 0, "numAtRisk": 200}, {"groupId": "EG001", "numEvents": 2, "numAffected": 1, "numAtRisk": 208}]}, {"term": "Acute Left Ventricular Failure", "organSystem": "Cardiac disorders", "sourceVocabulary": "MedDRA 25", "assessmentType": "SYSTEMATIC_ASSESSMENT", "stats": [{"groupId": "EG000", "numEvents": 4, "numAffected": 2, "numAtRisk": 200}, {"groupId": "EG001", "numEvents": 5, "numAffected": 5, "numAtRisk": 208}]}, {"term": "Acute Myocardial Infarction", "organSystem": "Cardiac disorders", "sourceVocabulary": "MedDRA 25", "assessmentType": "SYSTEMATIC_ASSESSMENT", "stats": [{"groupId": "EG000", "numEvents": 0, "numAffected": 0, "numAtRisk": 200}, {"groupId": "EG001", "numEvents": 1, "numAffected": 1, "numAtRisk": 208}]}, {"term": "Angina Pectoris", "organSystem": "Cardiac disorders", "sourceVocabulary": "MedDRA 25", "assessmentType": "SYSTEMATIC_ASSESSMENT", "stats": [{"groupId": "EG000", "numEvents": 0, "numAffected": 0, "numAtRisk": 200}, {"groupId": "EG001", "numEvents": 2, "numAffected": 2, "numAtRisk": 208}]}, {"term": "Arrhythmic Storm", "organSystem": "Cardiac disorders", "sourceVocabulary": "MedDRA 25", "assessmentType": "SYSTEMATIC_ASSESSMENT", "stats": [{"groupId": "EG000", "numEvents": 3, "numAffected": 3, "numAtRisk": 200}, {"groupId": "EG001", "numEvents": 1, "numAffected": 1, "numAtRisk": 208}]}, {"term": "Atrial Fibrillation", "organSystem": "Cardiac disorders", "sourceVocabulary": "MedDRA 25", "assessmentType": "SYSTEMATIC_ASSESSMENT", "stats": [{"groupId": "EG000", "numEvents": 6, "numAffected": 6, "numAtRisk": 200}, {"groupId": "EG001", "numEvents": 3, "numAffected": 3, "numAtRisk": 208}]}, {"term": "Atrial Flutter", "organSystem": "Cardiac disorders", "sourceVocabulary": "MedDRA 25", "assessmentType": "SYSTEMATIC_ASSESSMENT", "stats": [{"groupId": "EG000", "numEvents": 1, "numAffected": 1, "numAtRisk": 200}, {"groupId": "EG001", "numEvents": 1, "numAffected": 1, "numAtRisk": 208}]}, {"term": "Atrial Thrombosis", "organSystem": "Cardiac disorders", "sourceVocabulary": "MedDRA 25", "assessmentType": "SYSTEMATIC_ASSESSMENT", "stats": [{"groupId": "EG000", "numEvents": 0, "numAffected": 0, "numAtRisk": 200}, {"groupId": "EG001", "numEvents": 1, "numAffected": 1, "numAtRisk": 208}]}, {"term": "Cardiac Arrest", "organSystem": "Cardiac disorders", "sourceVocabulary": "MedDRA 25", "assessmentType": "SYSTEMATIC_ASSESSMENT", "stats": [{"groupId": "EG000", "numEvents": 2, "numAffected": 2, "numAtRisk": 200}, {"groupId": "EG001", "numEvents": 1, "numAffected": 1, "numAtRisk": 208}]}, {"term": "Cardiac Failure", "organSystem": "Cardiac disorders", "sourceVocabulary": "MedDRA 25", "assessmentType": "SYSTEMATIC_ASSESSMENT", "stats": [{"groupId": "EG000", "numEvents": 11, "numAffected": 10, "numAtRisk": 200}, {"groupId": "EG001", "numEvents": 17, "numAffected": 7, "numAtRisk": 208}]}, {"term": "Cardiac Failure Acute", "organSystem": "Cardiac disorders", "sourceVocabulary": "MedDRA 25", "assessmentType": "SYSTEMATIC_ASSESSMENT", "stats": [{"groupId": "EG000", "numEvents": 10, "numAffected": 9, "numAtRisk": 200}, {"groupId": "EG001", "numEvents": 3, "numAffected": 2, "numAtRisk": 208}]}, {"term": "Cardiac Failure Chronic", "organSystem": "Cardiac disorders", "sourceVocabulary": "MedDRA 25", "assessmentType": "SYSTEMATIC_ASSESSMENT", "stats": [{"groupId": "EG000", "numEvents": 0, "numAffected": 0, "numAtRisk": 200}, {"groupId": "EG001", "numEvents": 1, "numAffected": 1, "numAtRisk": 208}]}, {"term": "Cardiac Failure Congestive", "organSystem": "Cardiac disorders", "sourceVocabulary": "MedDRA 25", "assessmentType": "SYSTEMATIC_ASSESSMENT", "stats": [{"groupId": "EG000", "numEvents": 10, "numAffected": 8, "numAtRisk": 200}, {"groupId": "EG001", "numEvents": 4, "numAffected": 4, "numAtRisk": 208}]}, {"term": "Cardiac Tamponade", "organSystem": "Cardiac disorders", "sourceVocabulary": "MedDRA 25", "assessmentType": "SYSTEMATIC_ASSESSMENT", "stats": [{"groupId": "EG000", "numEvents": 1, "numAffected": 1, "numAtRisk": 200}, {"groupId": "EG001", "numEvents": 0, "numAffected": 0, "numAtRisk": 208}]}, {"term": "Cardiac Ventricular Thrombosis", "organSystem": "Cardiac disorders", "sourceVocabulary": "MedDRA 25", "assessmentType": "SYSTEMATIC_ASSESSMENT", "stats": [{"groupId": "EG000", "numEvents": 2, "numAffected": 2, "numAtRisk": 200}, {"groupId": "EG001", "numEvents": 0, "numAffected": 0, "numAtRisk": 208}]}, {"term": "Cardiogenic Shock", "organSystem": "Cardiac disorders", "sourceVocabulary": "MedDRA 25", "assessmentType": "SYSTEMATIC_ASSESSMENT", "stats": [{"groupId": "EG000", "numEvents": 3, "numAffected": 2, "numAtRisk": 200}, {"groupId": "EG001", "numEvents": 1, "numAffected": 1, "numAtRisk": 208}]}, {"term": "Chronic Left Ventricular Failure", "organSystem": "Cardiac disorders", "sourceVocabulary": "MedDRA 25", "assessmentType": "SYSTEMATIC_ASSESSMENT", "stats": [{"groupId": "EG000", "numEvents": 1, "numAffected": 1, "numAtRisk": 200}, {"groupId": "EG001", "numEvents": 0, "numAffected": 0, "numAtRisk": 208}]}, {"term": "Ischaemic Cardiomyopathy", "organSystem": "Cardiac disorders", "sourceVocabulary": "MedDRA 25", "assessmentType": "SYSTEMATIC_ASSESSMENT", "stats": [{"groupId": "EG000", "numEvents": 1, "numAffected": 1, "numAtRisk": 200}, {"groupId": "EG001", "numEvents": 0, "numAffected": 0, "numAtRisk": 208}]}, {"term": "Mitral Valve Incompetence", "organSystem": "Cardiac disorders", "sourceVocabulary": "MedDRA 25", "assessmentType": "SYSTEMATIC_ASSESSMENT", "stats": [{"groupId": "EG000", "numEvents": 2, "numAffected": 2, "numAtRisk": 200}, {"groupId": "EG001", "numEvents": 1, "numAffected": 1, "numAtRisk": 208}]}, {"term": "Myocardial Infarction", "organSystem": "Cardiac disorders", "sourceVocabulary": "MedDRA 25", "assessmentType": "SYSTEMATIC_ASSESSMENT", "stats": [{"groupId": "EG000", "numEvents": 1, "numAffected": 1, "numAtRisk": 200}, {"groupId": "EG001", "numEvents": 0, "numAffected": 0, "numAtRisk": 208}]}, {"term": "Myocardial Ischaemia", "organSystem": "Cardiac disorders", "sourceVocabulary": "MedDRA 25", "assessmentType": "SYSTEMATIC_ASSESSMENT", "stats": [{"groupId": "EG000", "numEvents": 1, "numAffected": 1, "numAtRisk": 200}, {"groupId": "EG001", "numEvents": 0, "numAffected": 0, "numAtRisk": 208}]}, {"term": "Pericardial Effusion", "organSystem": "Cardiac disorders", "sourceVocabulary": "MedDRA 25", "assessmentType": "SYSTEMATIC_ASSESSMENT", "stats": [{"groupId": "EG000", "numEvents": 3, "numAffected": 2, "numAtRisk": 200}, {"groupId": "EG001", "numEvents": 1, "numAffected": 1, "numAtRisk": 208}]}, {"term": "Pericarditis", "organSystem": "Cardiac disorders", "sourceVocabulary": "MedDRA 25", "assessmentType": "SYSTEMATIC_ASSESSMENT", "stats": [{"groupId": "EG000", "numEvents": 0, "numAffected": 0, "numAtRisk": 200}, {"groupId": "EG001", "numEvents": 1, "numAffected": 1, "numAtRisk": 208}]}, {"term": "Pulseless Electrical Activity", "organSystem": "Cardiac disorders", "sourceVocabulary": "MedDRA 25", "assessmentType": "SYSTEMATIC_ASSESSMENT", "stats": [{"groupId": "EG000", "numEvents": 1, "numAffected": 1, "numAtRisk": 200}, {"groupId": "EG001", "numEvents": 0, "numAffected": 0, "numAtRisk": 208}]}, {"term": "Supraventricular Tachycardia", "organSystem": "Cardiac disorders", "sourceVocabulary": "MedDRA 25", "assessmentType": "SYSTEMATIC_ASSESSMENT", "stats": [{"groupId": "EG000", "numEvents": 0, "numAffected": 0, "numAtRisk": 200}, {"groupId": "EG001", "numEvents": 2, "numAffected": 2, "numAtRisk": 208}]}, {"term": "Ventricular Arrhythmia", "organSystem": "Cardiac disorders", "sourceVocabulary": "MedDRA 25", "assessmentType": "SYSTEMATIC_ASSESSMENT", "stats": [{"groupId": "EG000", "numEvents": 1, "numAffected": 1, "numAtRisk": 200}, {"groupId": "EG001", "numEvents": 0, "numAffected": 0, "numAtRisk": 208}]}, {"term": "Ventricular Fibrillation", "organSystem": "Cardiac disorders", "sourceVocabulary": "MedDRA 25", "assessmentType": "SYSTEMATIC_ASSESSMENT", "stats": [{"groupId": "EG000", "numEvents": 1, "numAffected": 1, "numAtRisk": 200}, {"groupId": "EG001", "numEvents": 2, "numAffected": 2, "numAtRisk": 208}]}, {"term": "Ventricular Tachycardia", "organSystem": "Cardiac disorders", "sourceVocabulary": "MedDRA 25", "assessmentType": "SYSTEMATIC_ASSESSMENT", "stats": [{"groupId": "EG000", "numEvents": 6, "numAffected": 5, "numAtRisk": 200}, {"groupId": "EG001", "numEvents": 2, "numAffected": 2, "numAtRisk": 208}]}, {"term": "Hypothyroidism", "organSystem": "Endocrine disorders", "sourceVocabulary": "MedDRA 25", "assessmentType": "SYSTEMATIC_ASSESSMENT", "stats": [{"groupId": "EG000", "numEvents": 1, "numAffected": 1, "numAtRisk": 200}, {"groupId": "EG001", "numEvents": 0, "numAffected": 0, "numAtRisk": 208}]}, {"term": "Cataract", "organSystem": "Eye disorders", "sourceVocabulary": "MedDRA 25", "assessmentType": "SYSTEMATIC_ASSESSMENT", "stats": [{"groupId": "EG000", "numEvents": 1, "numAffected": 1, "numAtRisk": 200}, {"groupId": "EG001", "numEvents": 0, "numAffected": 0, "numAtRisk": 208}]}, {"term": "Retinal Detachment", "organSystem": "Eye disorders", "sourceVocabulary": "MedDRA 25", "assessmentType": "SYSTEMATIC_ASSESSMENT", "stats": [{"groupId": "EG000", "numEvents": 0, "numAffected": 0, "numAtRisk": 200}, {"groupId": "EG001", "numEvents": 1, "numAffected": 1, "numAtRisk": 208}]}, {"term": "Ascites", "organSystem": "Gastrointestinal disorders", "sourceVocabulary": "MedDRA 25", "assessmentType": "SYSTEMATIC_ASSESSMENT", "stats": [{"groupId": "EG000", "numEvents": 0, "numAffected": 0, "numAtRisk": 200}, {"groupId": "EG001", "numEvents": 1, "numAffected": 1, "numAtRisk": 208}]}, {"term": "Dysphagia", "organSystem": "Gastrointestinal disorders", "sourceVocabulary": "MedDRA 25", "assessmentType": "SYSTEMATIC_ASSESSMENT", "stats": [{"groupId": "EG000", "numEvents": 1, "numAffected": 1, "numAtRisk": 200}, {"groupId": "EG001", "numEvents": 0, "numAffected": 0, "numAtRisk": 208}]}, {"term": "Gastrointestinal Haemorrhage", "organSystem": "Gastrointestinal disorders", "sourceVocabulary": "MedDRA 25", "assessmentType": "SYSTEMATIC_ASSESSMENT", "stats": [{"groupId": "EG000", "numEvents": 0, "numAffected": 0, "numAtRisk": 200}, {"groupId": "EG001", "numEvents": 1, "numAffected": 1, "numAtRisk": 208}]}, {"term": "Pancreatitis Acute", "organSystem": "Gastrointestinal disorders", "sourceVocabulary": "MedDRA 25", "assessmentType": "SYSTEMATIC_ASSESSMENT", "stats": [{"groupId": "EG000", "numEvents": 0, "numAffected": 0, "numAtRisk": 200}, {"groupId": "EG001", "numEvents": 2, "numAffected": 2, "numAtRisk": 208}]}, {"term": "Asthenia", "organSystem": "General disorders", "sourceVocabulary": "MedDRA 25", "assessmentType": "SYSTEMATIC_ASSESSMENT", "stats": [{"groupId": "EG000", "numEvents": 2, "numAffected": 2, "numAtRisk": 200}, {"groupId": "EG001", "numEvents": 0, "numAffected": 0, "numAtRisk": 208}]}, {"term": "Inflammation", "organSystem": "General disorders", "sourceVocabulary": "MedDRA 25", "assessmentType": "SYSTEMATIC_ASSESSMENT", "stats": [{"groupId": "EG000", "numEvents": 1, "numAffected": 1, "numAtRisk": 200}, {"groupId": "EG001", "numEvents": 0, "numAffected": 0, "numAtRisk": 208}]}, {"term": "Multiple Organ Dysfunction Syndrome", "organSystem": "General disorders", "sourceVocabulary": "MedDRA 25", "assessmentType": "SYSTEMATIC_ASSESSMENT", "stats": [{"groupId": "EG000", "numEvents": 0, "numAffected": 0, "numAtRisk": 200}, {"groupId": "EG001", "numEvents": 1, "numAffected": 1, "numAtRisk": 208}]}, {"term": "Unevaluable Event", "organSystem": "General disorders", "sourceVocabulary": "MedDRA 25", "assessmentType": "SYSTEMATIC_ASSESSMENT", "stats": [{"groupId": "EG000", "numEvents": 0, "numAffected": 0, "numAtRisk": 200}, {"groupId": "EG001", "numEvents": 1, "numAffected": 1, "numAtRisk": 208}]}, {"term": "Transplant Rejection", "organSystem": "Immune system disorders", "sourceVocabulary": "MedDRA 25", "assessmentType": "SYSTEMATIC_ASSESSMENT", "stats": [{"groupId": "EG000", "numEvents": 0, "numAffected": 0, "numAtRisk": 200}, {"groupId": "EG001", "numEvents": 1, "numAffected": 1, "numAtRisk": 208}]}, {"term": "Bacteraemia", "organSystem": "Infections and infestations", "sourceVocabulary": "MedDRA 25", "assessmentType": "SYSTEMATIC_ASSESSMENT", "stats": [{"groupId": "EG000", "numEvents": 1, "numAffected": 1, "numAtRisk": 200}, {"groupId": "EG001", "numEvents": 0, "numAffected": 0, "numAtRisk": 208}]}, {"term": "Bronchiolitis", "organSystem": "Infections and infestations", "sourceVocabulary": "MedDRA 25", "assessmentType": "SYSTEMATIC_ASSESSMENT", "stats": [{"groupId": "EG000", "numEvents": 0, "numAffected": 0, "numAtRisk": 200}, {"groupId": "EG001", "numEvents": 1, "numAffected": 1, "numAtRisk": 208}]}, {"term": "Cellulitis", "organSystem": "Infections and infestations", "sourceVocabulary": "MedDRA 25", "assessmentType": "SYSTEMATIC_ASSESSMENT", "stats": [{"groupId": "EG000", "numEvents": 0, "numAffected": 0, "numAtRisk": 200}, {"groupId": "EG001", "numEvents": 1, "numAffected": 1, "numAtRisk": 208}]}, {"term": "Covid-19", "organSystem": "Infections and infestations", "sourceVocabulary": "MedDRA 25", "assessmentType": "SYSTEMATIC_ASSESSMENT", "stats": [{"groupId": "EG000", "numEvents": 1, "numAffected": 1, "numAtRisk": 200}, {"groupId": "EG001", "numEvents": 0, "numAffected": 0, "numAtRisk": 208}]}, {"term": "Endocarditis", "organSystem": "Infections and infestations", "sourceVocabulary": "MedDRA 25", "assessmentType": "SYSTEMATIC_ASSESSMENT", "stats": [{"groupId": "EG000", "numEvents": 1, "numAffected": 1, "numAtRisk": 200}, {"groupId": "EG001", "numEvents": 0, "numAffected": 0, "numAtRisk": 208}]}, {"term": "Endocarditis Enterococcal", "organSystem": "Infections and infestations", "sourceVocabulary": "MedDRA 25", "assessmentType": "SYSTEMATIC_ASSESSMENT", "stats": [{"groupId": "EG000", "numEvents": 1, "numAffected": 1, "numAtRisk": 200}, {"groupId": "EG001", "numEvents": 0, "numAffected": 0, "numAtRisk": 208}]}, {"term": "Enterococcal Bacteraemia", "organSystem": "Infections and infestations", "sourceVocabulary": "MedDRA 25", "assessmentType": "SYSTEMATIC_ASSESSMENT", "stats": [{"groupId": "EG000", "numEvents": 1, "numAffected": 1, "numAtRisk": 200}, {"groupId": "EG001", "numEvents": 0, "numAffected": 0, "numAtRisk": 208}]}, {"term": "Escherichia Infection", "organSystem": "Infections and infestations", "sourceVocabulary": "MedDRA 25", "assessmentType": "SYSTEMATIC_ASSESSMENT", "stats": [{"groupId": "EG000", "numEvents": 1, "numAffected": 1, "numAtRisk": 200}, {"groupId": "EG001", "numEvents": 0, "numAffected": 0, "numAtRisk": 208}]}, {"term": "Implant Site Infection", "organSystem": "Infections and infestations", "sourceVocabulary": "MedDRA 25", "assessmentType": "SYSTEMATIC_ASSESSMENT", "stats": [{"groupId": "EG000", "numEvents": 1, "numAffected": 1, "numAtRisk": 200}, {"groupId": "EG001", "numEvents": 0, "numAffected": 0, "numAtRisk": 208}]}, {"term": "Parotitis", "organSystem": "Infections and infestations", "sourceVocabulary": "MedDRA 25", "assessmentType": "SYSTEMATIC_ASSESSMENT", "stats": [{"groupId": "EG000", "numEvents": 1, "numAffected": 1, "numAtRisk": 200}, {"groupId": "EG001", "numEvents": 0, "numAffected": 0, "numAtRisk": 208}]}, {"term": "Pneumonia", "organSystem": "Infections and infestations", "sourceVocabulary": "MedDRA 25", "assessmentType": "SYSTEMATIC_ASSESSMENT", "stats": [{"groupId": "EG000", "numEvents": 3, "numAffected": 2, "numAtRisk": 200}, {"groupId": "EG001", "numEvents": 2, "numAffected": 2, "numAtRisk": 208}]}, {"term": "Pneumonia Escherichia", "organSystem": "Infections and infestations", "sourceVocabulary": "MedDRA 25", "assessmentType": "SYSTEMATIC_ASSESSMENT", "stats": [{"groupId": "EG000", "numEvents": 0, "numAffected": 0, "numAtRisk": 200}, {"groupId": "EG001", "numEvents": 1, "numAffected": 1, "numAtRisk": 208}]}, {"term": "Sepsis", "organSystem": "Infections and infestations", "sourceVocabulary": "MedDRA 25", "assessmentType": "SYSTEMATIC_ASSESSMENT", "stats": [{"groupId": "EG000", "numEvents": 3, "numAffected": 3, "numAtRisk": 200}, {"groupId": "EG001", "numEvents": 1, "numAffected": 1, "numAtRisk": 208}]}, {"term": "Septic Shock", "organSystem": "Infections and infestations", "sourceVocabulary": "MedDRA 25", "assessmentType": "SYSTEMATIC_ASSESSMENT", "stats": [{"groupId": "EG000", "numEvents": 1, "numAffected": 1, "numAtRisk": 200}, {"groupId": "EG001", "numEvents": 4, "numAffected": 2, "numAtRisk": 208}]}, {"term": "Urinary Tract Infection", "organSystem": "Infections and infestations", "sourceVocabulary": "MedDRA 25", "assessmentType": "SYSTEMATIC_ASSESSMENT", "stats": [{"groupId": "EG000", "numEvents": 1, "numAffected": 1, "numAtRisk": 200}, {"groupId": "EG001", "numEvents": 1, "numAffected": 1, "numAtRisk": 208}]}, {"term": "Head Injury", "organSystem": "Injury, poisoning and procedural complications", "sourceVocabulary": "MedDRA 25", "assessmentType": "SYSTEMATIC_ASSESSMENT", "stats": [{"groupId": "EG000", "numEvents": 0, "numAffected": 0, "numAtRisk": 200}, {"groupId": "EG001", "numEvents": 1, "numAffected": 1, "numAtRisk": 208}]}, {"term": "Ligament Sprain", "organSystem": "Injury, poisoning and procedural complications", "sourceVocabulary": "MedDRA 25", "assessmentType": "SYSTEMATIC_ASSESSMENT", "stats": [{"groupId": "EG000", "numEvents": 1, "numAffected": 1, "numAtRisk": 200}, {"groupId": "EG001", "numEvents": 0, "numAffected": 0, "numAtRisk": 208}]}, {"term": "Lumbar Vertebral Fracture", "organSystem": "Injury, poisoning and procedural complications", "sourceVocabulary": "MedDRA 25", "assessmentType": "SYSTEMATIC_ASSESSMENT", "stats": [{"groupId": "EG000", "numEvents": 0, "numAffected": 0, "numAtRisk": 200}, {"groupId": "EG001", "numEvents": 1, "numAffected": 1, "numAtRisk": 208}]}, {"term": "Seroma", "organSystem": "Injury, poisoning and procedural complications", "sourceVocabulary": "MedDRA 25", "assessmentType": "SYSTEMATIC_ASSESSMENT", "stats": [{"groupId": "EG000", "numEvents": 1, "numAffected": 1, "numAtRisk": 200}, {"groupId": "EG001", "numEvents": 0, "numAffected": 0, "numAtRisk": 208}]}, {"term": "Skin Laceration", "organSystem": "Injury, poisoning and procedural complications", "sourceVocabulary": "MedDRA 25", "assessmentType": "SYSTEMATIC_ASSESSMENT", "stats": [{"groupId": "EG000", "numEvents": 0, "numAffected": 0, "numAtRisk": 200}, {"groupId": "EG001", "numEvents": 1, "numAffected": 1, "numAtRisk": 208}]}, {"term": "Tibia Fracture", "organSystem": "Injury, poisoning and procedural complications", "sourceVocabulary": "MedDRA 25", "assessmentType": "SYSTEMATIC_ASSESSMENT", "stats": [{"groupId": "EG000", "numEvents": 0, "numAffected": 0, "numAtRisk": 200}, {"groupId": "EG001", "numEvents": 1, "numAffected": 1, "numAtRisk": 208}]}, {"term": "Liver Function Test Increased", "organSystem": "Investigations", "sourceVocabulary": "MedDRA 25", "assessmentType": "SYSTEMATIC_ASSESSMENT", "stats": [{"groupId": "EG000", "numEvents": 1, "numAffected": 1, "numAtRisk": 200}, {"groupId": "EG001", "numEvents": 0, "numAffected": 0, "numAtRisk": 208}]}, {"term": "Calciphylaxis", "organSystem": "Metabolism and nutrition disorders", "sourceVocabulary": "MedDRA 25", "assessmentType": "SYSTEMATIC_ASSESSMENT", "stats": [{"groupId": "EG000", "numEvents": 1, "numAffected": 1, "numAtRisk": 200}, {"groupId": "EG001", "numEvents": 0, "numAffected": 0, "numAtRisk": 208}]}, {"term": "Failure To Thrive", "organSystem": "Metabolism and nutrition disorders", "sourceVocabulary": "MedDRA 25", "assessmentType": "SYSTEMATIC_ASSESSMENT", "stats": [{"groupId": "EG000", "numEvents": 1, "numAffected": 1, "numAtRisk": 200}, {"groupId": "EG001", "numEvents": 0, "numAffected": 0, "numAtRisk": 208}]}, {"term": "Gout", "organSystem": "Metabolism and nutrition disorders", "sourceVocabulary": "MedDRA 25", "assessmentType": "SYSTEMATIC_ASSESSMENT", "stats": [{"groupId": "EG000", "numEvents": 1, "numAffected": 1, "numAtRisk": 200}, {"groupId": "EG001", "numEvents": 0, "numAffected": 0, "numAtRisk": 208}]}, {"term": "Hyperglycaemic Hyperosmolar Nonketotic Syndrome", "organSystem": "Metabolism and nutrition disorders", "sourceVocabulary": "MedDRA 25", "assessmentType": "SYSTEMATIC_ASSESSMENT", "stats": [{"groupId": "EG000", "numEvents": 0, "numAffected": 0, "numAtRisk": 200}, {"groupId": "EG001", "numEvents": 1, "numAffected": 1, "numAtRisk": 208}]}, {"term": "Hyperkalaemia", "organSystem": "Metabolism and nutrition disorders", "sourceVocabulary": "MedDRA 25", "assessmentType": "SYSTEMATIC_ASSESSMENT", "stats": [{"groupId": "EG000", "numEvents": 2, "numAffected": 2, "numAtRisk": 200}, {"groupId": "EG001", "numEvents": 2, "numAffected": 1, "numAtRisk": 208}]}, {"term": "Hyponatraemia", "organSystem": "Metabolism and nutrition disorders", "sourceVocabulary": "MedDRA 25", "assessmentType": "SYSTEMATIC_ASSESSMENT", "stats": [{"groupId": "EG000", "numEvents": 1, "numAffected": 1, "numAtRisk": 200}, {"groupId": "EG001", "numEvents": 0, "numAffected": 0, "numAtRisk": 208}]}, {"term": "Back Pain", "organSystem": "Musculoskeletal and connective tissue disorders", "sourceVocabulary": "MedDRA 25", "assessmentType": "SYSTEMATIC_ASSESSMENT", "stats": [{"groupId": "EG000", "numEvents": 0, "numAffected": 0, "numAtRisk": 200}, {"groupId": "EG001", "numEvents": 1, "numAffected": 1, "numAtRisk": 208}]}, {"term": "Chest Wall Haematoma", "organSystem": "Musculoskeletal and connective tissue disorders", "sourceVocabulary": "MedDRA 25", "assessmentType": "SYSTEMATIC_ASSESSMENT", "stats": [{"groupId": "EG000", "numEvents": 0, "numAffected": 0, "numAtRisk": 200}, {"groupId": "EG001", "numEvents": 1, "numAffected": 1, "numAtRisk": 208}]}, {"term": "Intervertebral Disc Degeneration", "organSystem": "Musculoskeletal and connective tissue disorders", "sourceVocabulary": "MedDRA 25", "assessmentType": "SYSTEMATIC_ASSESSMENT", "stats": [{"groupId": "EG000", "numEvents": 1, "numAffected": 1, "numAtRisk": 200}, {"groupId": "EG001", "numEvents": 0, "numAffected": 0, "numAtRisk": 208}]}, {"term": "Musculoskeletal Pain", "organSystem": "Musculoskeletal and connective tissue disorders", "sourceVocabulary": "MedDRA 25", "assessmentType": "SYSTEMATIC_ASSESSMENT", "stats": [{"groupId": "EG000", "numEvents": 1, "numAffected": 1, "numAtRisk": 200}, {"groupId": "EG001", "numEvents": 0, "numAffected": 0, "numAtRisk": 208}]}, {"term": "Neuropathic Arthropathy", "organSystem": "Musculoskeletal and connective tissue disorders", "sourceVocabulary": "MedDRA 25", "assessmentType": "SYSTEMATIC_ASSESSMENT", "stats": [{"groupId": "EG000", "numEvents": 0, "numAffected": 0, "numAtRisk": 200}, {"groupId": "EG001", "numEvents": 1, "numAffected": 1, "numAtRisk": 208}]}, {"term": "Haemangioma", "organSystem": "Neoplasms benign, malignant and unspecified (incl cysts and polyps)", "sourceVocabulary": "MedDRA 25", "assessmentType": "SYSTEMATIC_ASSESSMENT", "stats": [{"groupId": "EG000", "numEvents": 1, "numAffected": 1, "numAtRisk": 200}, {"groupId": "EG001", "numEvents": 0, "numAffected": 0, "numAtRisk": 208}]}, {"term": "Metastases To Central Nervous System", "organSystem": "Neoplasms benign, malignant and unspecified (incl cysts and polyps)", "sourceVocabulary": "MedDRA 25", "assessmentType": "SYSTEMATIC_ASSESSMENT", "stats": [{"groupId": "EG000", "numEvents": 0, "numAffected": 0, "numAtRisk": 200}, {"groupId": "EG001", "numEvents": 1, "numAffected": 1, "numAtRisk": 208}]}, {"term": "Metastases To Peritoneum", "organSystem": "Neoplasms benign, malignant and unspecified (incl cysts and polyps)", "sourceVocabulary": "MedDRA 25", "assessmentType": "SYSTEMATIC_ASSESSMENT", "stats": [{"groupId": "EG000", "numEvents": 1, "numAffected": 1, "numAtRisk": 200}, {"groupId": "EG001", "numEvents": 0, "numAffected": 0, "numAtRisk": 208}]}, {"term": "Cauda Equina Syndrome", "organSystem": "Nervous system disorders", "sourceVocabulary": "MedDRA 25", "assessmentType": "SYSTEMATIC_ASSESSMENT", "stats": [{"groupId": "EG000", "numEvents": 0, "numAffected": 0, "numAtRisk": 200}, {"groupId": "EG001", "numEvents": 1, "numAffected": 1, "numAtRisk": 208}]}, {"term": "Cerebrovascular Accident", "organSystem": "Nervous system disorders", "sourceVocabulary": "MedDRA 25", "assessmentType": "SYSTEMATIC_ASSESSMENT", "stats": [{"groupId": "EG000", "numEvents": 2, "numAffected": 2, "numAtRisk": 200}, {"groupId": "EG001", "numEvents": 1, "numAffected": 1, "numAtRisk": 208}]}, {"term": "Metabolic Encephalopathy", "organSystem": "Nervous system disorders", "sourceVocabulary": "MedDRA 25", "assessmentType": "SYSTEMATIC_ASSESSMENT", "stats": [{"groupId": "EG000", "numEvents": 1, "numAffected": 1, "numAtRisk": 200}, {"groupId": "EG001", "numEvents": 0, "numAffected": 0, "numAtRisk": 208}]}, {"term": "Presyncope", "organSystem": "Nervous system disorders", "sourceVocabulary": "MedDRA 25", "assessmentType": "SYSTEMATIC_ASSESSMENT", "stats": [{"groupId": "EG000", "numEvents": 1, "numAffected": 1, "numAtRisk": 200}, {"groupId": "EG001", "numEvents": 0, "numAffected": 0, "numAtRisk": 208}]}, {"term": "Syncope", "organSystem": "Nervous system disorders", "sourceVocabulary": "MedDRA 25", "assessmentType": "SYSTEMATIC_ASSESSMENT", "stats": [{"groupId": "EG000", "numEvents": 0, "numAffected": 0, "numAtRisk": 200}, {"groupId": "EG001", "numEvents": 2, "numAffected": 2, "numAtRisk": 208}]}, {"term": "Device Lead Damage", "organSystem": "Product Issues", "sourceVocabulary": "MedDRA 25", "assessmentType": "SYSTEMATIC_ASSESSMENT", "stats": [{"groupId": "EG000", "numEvents": 1, "numAffected": 1, "numAtRisk": 200}, {"groupId": "EG001", "numEvents": 0, "numAffected": 0, "numAtRisk": 208}]}, {"term": "Lead Dislodgement", "organSystem": "Product Issues", "sourceVocabulary": "MedDRA 25", "assessmentType": "SYSTEMATIC_ASSESSMENT", "stats": [{"groupId": "EG000", "numEvents": 4, "numAffected": 4, "numAtRisk": 200}, {"groupId": "EG001", "numEvents": 6, "numAffected": 6, "numAtRisk": 208}]}, {"term": "Acute Kidney Injury", "organSystem": "Renal and urinary disorders", "sourceVocabulary": "MedDRA 25", "assessmentType": "SYSTEMATIC_ASSESSMENT", "stats": [{"groupId": "EG000", "numEvents": 2, "numAffected": 2, "numAtRisk": 200}, {"groupId": "EG001", "numEvents": 1, "numAffected": 1, "numAtRisk": 208}]}, {"term": "Chronic Kidney Disease", "organSystem": "Renal and urinary disorders", "sourceVocabulary": "MedDRA 25", "assessmentType": "SYSTEMATIC_ASSESSMENT", "stats": [{"groupId": "EG000", "numEvents": 1, "numAffected": 1, "numAtRisk": 200}, {"groupId": "EG001", "numEvents": 1, "numAffected": 1, "numAtRisk": 208}]}, {"term": "End Stage Renal Disease", "organSystem": "Renal and urinary disorders", "sourceVocabulary": "MedDRA 25", "assessmentType": "SYSTEMATIC_ASSESSMENT", "stats": [{"groupId": "EG000", "numEvents": 3, "numAffected": 2, "numAtRisk": 200}, {"groupId": "EG001", "numEvents": 1, "numAffected": 1, "numAtRisk": 208}]}, {"term": "Renal Impairment", "organSystem": "Renal and urinary disorders", "sourceVocabulary": "MedDRA 25", "assessmentType": "SYSTEMATIC_ASSESSMENT", "stats": [{"groupId": "EG000", "numEvents": 1, "numAffected": 1, "numAtRisk": 200}, {"groupId": "EG001", "numEvents": 0, "numAffected": 0, "numAtRisk": 208}]}, {"term": "Acute Pulmonary Oedema", "organSystem": "Respiratory, thoracic and mediastinal disorders", "sourceVocabulary": "MedDRA 25", "assessmentType": "SYSTEMATIC_ASSESSMENT", "stats": [{"groupId": "EG000", "numEvents": 1, "numAffected": 1, "numAtRisk": 200}, {"groupId": "EG001", "numEvents": 0, "numAffected": 0, "numAtRisk": 208}]}, {"term": "Acute Respiratory Failure", "organSystem": "Respiratory, thoracic and mediastinal disorders", "sourceVocabulary": "MedDRA 25", "assessmentType": "SYSTEMATIC_ASSESSMENT", "stats": [{"groupId": "EG000", "numEvents": 3, "numAffected": 3, "numAtRisk": 200}, {"groupId": "EG001", "numEvents": 1, "numAffected": 1, "numAtRisk": 208}]}, {"term": "Bronchiectasis", "organSystem": "Respiratory, thoracic and mediastinal disorders", "sourceVocabulary": "MedDRA 25", "assessmentType": "SYSTEMATIC_ASSESSMENT", "stats": [{"groupId": "EG000", "numEvents": 0, "numAffected": 0, "numAtRisk": 200}, {"groupId": "EG001", "numEvents": 1, "numAffected": 1, "numAtRisk": 208}]}, {"term": "Dyspnoea", "organSystem": "Respiratory, thoracic and mediastinal disorders", "sourceVocabulary": "MedDRA 25", "assessmentType": "SYSTEMATIC_ASSESSMENT", "stats": [{"groupId": "EG000", "numEvents": 1, "numAffected": 1, "numAtRisk": 200}, {"groupId": "EG001", "numEvents": 0, "numAffected": 0, "numAtRisk": 208}]}, {"term": "Hypoxia", "organSystem": "Respiratory, thoracic and mediastinal disorders", "sourceVocabulary": "MedDRA 25", "assessmentType": "SYSTEMATIC_ASSESSMENT", "stats": [{"groupId": "EG000", "numEvents": 1, "numAffected": 1, "numAtRisk": 200}, {"groupId": "EG001", "numEvents": 0, "numAffected": 0, "numAtRisk": 208}]}, {"term": "Pleural Effusion", "organSystem": "Respiratory, thoracic and mediastinal disorders", "sourceVocabulary": "MedDRA 25", "assessmentType": "SYSTEMATIC_ASSESSMENT", "stats": [{"groupId": "EG000", "numEvents": 1, "numAffected": 1, "numAtRisk": 200}, {"groupId": "EG001", "numEvents": 1, "numAffected": 1, "numAtRisk": 208}]}, {"term": "Pneumothorax", "organSystem": "Respiratory, thoracic and mediastinal disorders", "sourceVocabulary": "MedDRA 25", "assessmentType": "SYSTEMATIC_ASSESSMENT", "stats": [{"groupId": "EG000", "numEvents": 2, "numAffected": 2, "numAtRisk": 200}, {"groupId": "EG001", "numEvents": 1, "numAffected": 1, "numAtRisk": 208}]}, {"term": "Pulmonary Embolism", "organSystem": "Respiratory, thoracic and mediastinal disorders", "sourceVocabulary": "MedDRA 25", "assessmentType": "SYSTEMATIC_ASSESSMENT", "stats": [{"groupId": "EG000", "numEvents": 1, "numAffected": 1, "numAtRisk": 200}, {"groupId": "EG001", "numEvents": 0, "numAffected": 0, "numAtRisk": 208}]}, {"term": "Respiratory Failure", "organSystem": "Respiratory, thoracic and mediastinal disorders", "sourceVocabulary": "MedDRA 25", "assessmentType": "SYSTEMATIC_ASSESSMENT", "stats": [{"groupId": "EG000", "numEvents": 2, "numAffected": 2, "numAtRisk": 200}, {"groupId": "EG001", "numEvents": 2, "numAffected": 2, "numAtRisk": 208}]}, {"term": "Rash", "organSystem": "Skin and subcutaneous tissue disorders", "sourceVocabulary": "MedDRA 25", "assessmentType": "SYSTEMATIC_ASSESSMENT", "stats": [{"groupId": "EG000", "numEvents": 1, "numAffected": 1, "numAtRisk": 200}, {"groupId": "EG001", "numEvents": 0, "numAffected": 0, "numAtRisk": 208}]}, {"term": "Aortic Aneurysm", "organSystem": "Vascular disorders", "sourceVocabulary": "MedDRA 25", "assessmentType": "SYSTEMATIC_ASSESSMENT", "stats": [{"groupId": "EG000", "numEvents": 1, "numAffected": 1, "numAtRisk": 200}, {"groupId": "EG001", "numEvents": 0, "numAffected": 0, "numAtRisk": 208}]}, {"term": "Deep Vein Thrombosis", "organSystem": "Vascular disorders", "sourceVocabulary": "MedDRA 25", "assessmentType": "SYSTEMATIC_ASSESSMENT", "stats": [{"groupId": "EG000", "numEvents": 1, "numAffected": 1, "numAtRisk": 200}, {"groupId": "EG001", "numEvents": 1, "numAffected": 1, "numAtRisk": 208}]}, {"term": "Intermittent Claudication", "organSystem": "Vascular disorders", "sourceVocabulary": "MedDRA 25", "assessmentType": "SYSTEMATIC_ASSESSMENT", "stats": [{"groupId": "EG000", "numEvents": 1, "numAffected": 1, "numAtRisk": 200}, {"groupId": "EG001", "numEvents": 0, "numAffected": 0, "numAtRisk": 208}]}, {"term": "Peripheral Arterial Occlusive Disease", "organSystem": "Vascular disorders", "sourceVocabulary": "MedDRA 25", "assessmentType": "SYSTEMATIC_ASSESSMENT", "stats": [{"groupId": "EG000", "numEvents": 1, "numAffected": 1, "numAtRisk": 200}, {"groupId": "EG001", "numEvents": 0, "numAffected": 0, "numAtRisk": 208}]}, {"term": "Peripheral Vascular Disorder", "organSystem": "Vascular disorders", "sourceVocabulary": "MedDRA 25", "assessmentType": "SYSTEMATIC_ASSESSMENT", "stats": [{"groupId": "EG000", "numEvents": 2, "numAffected": 1, "numAtRisk": 200}, {"groupId": "EG001", "numEvents": 0, "numAffected": 0, "numAtRisk": 208}]}, {"term": "Shock Haemorrhagic", "organSystem": "Vascular disorders", "sourceVocabulary": "MedDRA 25", "assessmentType": "SYSTEMATIC_ASSESSMENT", "stats": [{"groupId": "EG000", "numEvents": 1, "numAffected": 1, "numAtRisk": 200}, {"groupId": "EG001", "numEvents": 0, "numAffected": 0, "numAtRisk": 208}]}]}, "moreInfoModule": {"certainAgreement": {"piSponsorEmployee": false, "restrictionType": "OTHER", "restrictiveAgreement": true, "otherDetails": "Site will not independently publish, publicly disclose, present or discuss any results of or information pertaining to the study until a multi-center publication is released; provide however that if a multi-center publication is not released within 1 year after completion of the study at all sites involved in the study, Study Site will have the right to publish the results of, and information pertaining to , their activities conducted under their CTA, in accordance with provision of CTA."}, "pointOfContact": {"title": "CRM Clinical", "organization": "Medtronic CRM Clincial Research", "email": "medtroniccrmtrials@medtronic.com", "phone": "800-328-2518"}}}, "documentSection": {"largeDocumentModule": {"largeDocs": [{"typeAbbrev": "Prot_ICF", "hasProtocol": true, "hasSap": false, "hasIcf": true, "label": "Study Protocol and Informed Consent Form", "date": "2019-05-02", "uploadDate": "2022-11-29T13:28", "filename": "Prot_ICF_000.pdf", "size": 881576}, {"typeAbbrev": "SAP", "hasProtocol": false, "hasSap": true, "hasIcf": false, "label": "Statistical Analysis Plan", "date": "2021-12-14", "uploadDate": "2023-01-31T15:00", "filename": "SAP_002.pdf", "size": 678395}]}}, "derivedSection": {"miscInfoModule": {"versionHolder": "2024-06-24", "submissionTracking": {"firstMcpInfo": {"postDateStruct": {"date": "2023-01-19", "type": "ACTUAL"}}}}, "conditionBrowseModule": {"meshes": [{"id": "D000006333", "term": "Heart Failure"}], "ancestors": [{"id": "D000006331", "term": "Heart Diseases"}, {"id": "D000002318", "term": "Cardiovascular Diseases"}], "browseLeaves": [{"id": "M9421", "name": "Heart Failure", "asFound": "Heart Failure", "relevance": "HIGH"}, {"id": "M9419", "name": "Heart Diseases", "relevance": "LOW"}], "browseBranches": [{"abbrev": "BC14", "name": "Heart and Blood Diseases"}, {"abbrev": "All", "name": "All Conditions"}]}}, "hasResults": true}