{"protocolSection": {"identificationModule": {"nctId": "NCT02926950", "orgStudyIdInfo": {"id": "EFC14834"}, "secondaryIdInfos": [{"id": "2016-001800-49", "type": "EUDRACT_NUMBER"}, {"id": "U1111-1181-6145", "type": "OTHER", "domain": "UTN"}], "organization": {"fullName": "Lexicon Pharmaceuticals", "class": "INDUSTRY"}, "briefTitle": "Efficacy and Safety of Sotagliflozin Versus Placebo in Patients With Type 2 Diabetes Mellitus on Background of Metformin", "officialTitle": "A Randomized, Double-blind, Placebo-controlled, Parallel-group, Multicenter Study to Evaluate the Efficacy and Safety of Sotagliflozin Added to Metformin in Patients With Type 2 Diabetes Mellitus Who Have Inadequate Glycemic Control on Metformin"}, "statusModule": {"statusVerifiedDate": "2021-04", "overallStatus": "COMPLETED", "expandedAccessInfo": {"hasExpandedAccess": false}, "startDateStruct": {"date": "2016-11", "type": "ACTUAL"}, "primaryCompletionDateStruct": {"date": "2019-02-26", "type": "ACTUAL"}, "completionDateStruct": {"date": "2019-03-22", "type": "ACTUAL"}, "studyFirstSubmitDate": "2016-10-05", "studyFirstSubmitQcDate": "2016-10-05", "studyFirstPostDateStruct": {"date": "2016-10-06", "type": "ESTIMATED"}, "resultsFirstSubmitDate": "2021-04-16", "resultsFirstSubmitQcDate": "2021-04-16", "resultsFirstPostDateStruct": {"date": "2021-05-11", "type": "ACTUAL"}, "dispFirstSubmitDate": "2020-03-20", "dispFirstSubmitQcDate": "2020-03-20", "dispFirstPostDateStruct": {"date": "2020-03-24", "type": "ACTUAL"}, "lastUpdateSubmitDate": "2021-04-16", "lastUpdatePostDateStruct": {"date": "2021-05-11", "type": "ACTUAL"}}, "sponsorCollaboratorsModule": {"responsibleParty": {"type": "SPONSOR"}, "leadSponsor": {"name": "Lexicon Pharmaceuticals", "class": "INDUSTRY"}, "collaborators": [{"name": "Sanofi", "class": "INDUSTRY"}]}, "oversightModule": {"oversightHasDmc": true, "isFdaRegulatedDrug": true, "isFdaRegulatedDevice": false}, "descriptionModule": {"briefSummary": "Primary Objective:\n\nTo demonstrate the superiority of Sotagliflozin versus placebo on hemoglobin A1c (HbA1c) reduction in participants with type 2 diabetes (T2D) who have inadequate glycemic control with metformin.\n\nSecondary Objectives:\n\n* To compare Sotagliflozin versus placebo for.\n* Change from baseline in 2-hour postprandial glucose (PPG) following a mixed meal.\n* Change from baseline in fasting plasma glucose (FPG).\n* Change from Baseline in systolic blood pressure (SBP) for participants with baseline SBP \u2265130 millimeter of mercury (mmHg).\n* Change from baseline in SBP for all participants.\n* Change from baseline in body weight.\n* Proportion of participants with HbA1c \\<6.5% and \\<7.0%.\n* To evaluate the safety of Sotagliflozin versus placebo.", "detailedDescription": "The duration of the study period is up to 87 weeks, including a Screening Period consisting of a Screening phase of up to 2 weeks and a 2 week single blind Run-in phase, a 26 week double-blind Core Treatment Period, a 53-week double-blind Extension Period, a 4 week post treatment Follow-up period to collect safety information."}, "conditionsModule": {"conditions": ["Type 2 Diabetes Mellitus"]}, "designModule": {"studyType": "INTERVENTIONAL", "phases": ["PHASE3"], "designInfo": {"allocation": "RANDOMIZED", "interventionModel": "PARALLEL", "primaryPurpose": "TREATMENT", "maskingInfo": {"masking": "DOUBLE", "whoMasked": ["PARTICIPANT", "INVESTIGATOR"]}}, "enrollmentInfo": {"count": 518, "type": "ACTUAL"}}, "armsInterventionsModule": {"armGroups": [{"label": "Sotagliflozin 400 mg + Metformin", "type": "EXPERIMENTAL", "description": "Following a 2-week run-in period, sotagliflozin 400 mg was administered as 2 tablets, once daily, before the first meal of the day plus metformin as prescribed by the Principal Investigator for up to 26 weeks in the double-blind Core Treatment Period, and participants continued the same treatment in the double-blind Extension Period for up to 53 weeks.", "interventionNames": ["Drug: Sotagliflozin (SAR439954)", "Drug: Metformin"]}, {"label": "Placebo + Metformin", "type": "PLACEBO_COMPARATOR", "description": "Following a 2-week run-in period, matching placebo was administered as 2 tablets, once daily, before the first meal of the day plus metformin as prescribed by the Principal Investigator for up to 26 weeks in the double-blind Core Treatment Period, and participants continued the same treatment in the double-blind Extension Period for up to 53 weeks.", "interventionNames": ["Drug: Placebo", "Drug: Metformin"]}], "interventions": [{"type": "DRUG", "name": "Sotagliflozin (SAR439954)", "description": "Pharmaceutical form: tablet. Route of administration: oral.", "armGroupLabels": ["Sotagliflozin 400 mg + Metformin"]}, {"type": "DRUG", "name": "Placebo", "description": "Pharmaceutical form: tablet. Route of administration: oral.", "armGroupLabels": ["Placebo + Metformin"]}, {"type": "DRUG", "name": "Metformin", "description": "Pharmaceutical form: tablet. Route of administration: oral.", "armGroupLabels": ["Placebo + Metformin", "Sotagliflozin 400 mg + Metformin"]}]}, "outcomesModule": {"primaryOutcomes": [{"measure": "Change From Baseline in Hemoglobin A1c (HbA1c) at Week 26", "description": "An analysis of covariance (ANCOVA) model was used for the analysis.", "timeFrame": "Baseline and Week 26"}], "secondaryOutcomes": [{"measure": "Change From Baseline in 2-hour Postprandial Glucose (PPG) Following a Mixed Meal at Week 26", "description": "An ANCOVA model was used for the analysis.", "timeFrame": "Baseline and Week 26"}, {"measure": "Change From Baseline in Fasting Plasma Glucose (FPG) at Week 26", "description": "An ANCOVA model was used for the analysis.", "timeFrame": "Baseline and Week 26"}, {"measure": "Change From Baseline in Body Weight at Week 26", "description": "An ANCOVA model was used for the analysis.", "timeFrame": "Baseline and Week 26"}, {"measure": "Change From Baseline in Systolic Blood Pressure (SBP) at Week 12 in Participants With Baseline SBP \u2265130 mmHg", "description": "An ANCOVA model was used for the analysis.", "timeFrame": "Baseline and Week 12"}, {"measure": "Change From Baseline in SBP at Week 12 for All Participants", "description": "An ANCOVA model was used for the analysis.", "timeFrame": "Baseline and Week 12"}, {"measure": "Percentage of Participants With HbA1c <6.5% at Week 26", "timeFrame": "Week 26"}, {"measure": "Percentage of Participants With HbA1c <7.0% at Week 26", "timeFrame": "Week 26"}], "otherOutcomes": [{"measure": "Percentage of Participants With Hypoglycemic Events", "description": "Percentage of participants with hypoglycemic events are reported for the following 3 categories: Any hypoglycemia (as reported in the Electronic Case Report Form); Documented symptomatic hypoglycemia \\[typical symptoms of hypoglycemia (increased sweating, nervousness, asthenia/weakness, tremor, dizziness, increased appetite, palpitations, headache, sleep disorder, confusion, seizures, unconsciousness, and/or coma) and plasma glucose \u226470 mg/dL (3.9 mmol/L)\\]; Severe \\[an event requiring assistance of another person to actively administer carbohydrate, glucagon, intravenous glucose or other resuscitative actions\\] or documented symptomatic hypoglycemia \\[typical symptoms of hypoglycemia and plasma glucose \u226470 mg/dL\\]. Participants may be reported in more than one category.", "timeFrame": "Up to 79 weeks in the treatment period"}]}, "eligibilityModule": {"eligibilityCriteria": "Inclusion criteria :\n\n* Participants with Type 2 Diabetes currently treated with diet and exercise and on metformin at a stable dose \u22651500 milligrams per day (mg/day) for at least 12 weeks. However, participants on metformin at a dose \\<1500 mg/day at the time of enrollment (stable dose for at least 12 weeks before enrollment) may be eligible for screening if documentation of lack of tolerance of a metformin dose \u22651500 mg/day can be provided.\n* Signed written informed consent.\n\nExclusion criteria:\n\n* Age \\<18 years at Screening or \\< legal age of majority, whichever is greater.\n* Type 1 diabetes mellitus.\n* Body Mass Index (BMI) \u226420 or \\>45 kilograms per meter square (kg/m\\^2) at Screening\n* Hemoglobin A1c \\<7% or \\>10% via central laboratory test at screening.\n* Fasting plasma glucose (FPG) \\>15 millimole per liter (mmol/L) (270 milligrams per deciliter \\[mg/dL\\]) measured by the central laboratory at screening (Visit 1) and confirmed by a repeat test (\\>15 mmol/L \\[270 mg/dL\\]) before randomization.\n* Women of childbearing potential not willing to use highly effective method(s) of birth control or who are unwilling or unable to be tested for pregnancy during the study.\n* Treated with an antidiabetic pharmacological regimen other than metformin \u22651500 mg per day (or maximum tolerated dose) within the 12 weeks preceding the Screening Visit.\n* Previous use of any types of insulin for \\>1 month (at any time, aside from pregnancy for treatment of gestational diabetes).\n* History of prior gastric surgical procedure, including gastric banding, within 3 years before the Screening Visit.\n* History of diabetic ketoacidosis or nonketotic hyperosmolar coma within 12 weeks prior to the Screening Visit.\n* Mean of 3 separate blood pressure measurements \\>180 mmHg (SBP) or \\>100 mmHg (diastolic blood pressure \\[DBP\\]).\n* History of hypertensive urgency or emergency within 12 weeks prior to Screening.\n* Participants with severe anemia, severe cardiovascular (including congestive heart failure New York Heart Association \\[NYHA\\] IV), respiratory, hepatic, neurological, psychiatric, or active malignant tumor or other major systemic disease or participants with short life expectancy making implementation of the protocol or interpretation of the study results difficult.\n* Aspartate aminotransferase and/or alanine aminotransferase: \\>3 times the upper limit of the normal laboratory range.\n* Total bilirubin: \\>1.5 times the upper limit of the normal laboratory range (except in case of Gilbert's syndrome).\n* Use of systemic glucocorticoids (excluding topical or ophthalmic application or inhaled forms) for more than 10 consecutive days within 90 days prior to the Screening Visit.\n* Participants who has taken other investigational drugs or prohibited therapy for this study within 12 weeks or 5 half-lives from screening or randomization, whichever is longer.\n* Pregnant (confirmed by serum pregnancy test at Screening) or breastfeeding women.\n* Participants is unwilling or unable to perform self-monitoring of blood glucose (SMBG), complete the participants diary, or comply with study visits and other study procedures as required per protocol.\n* Contraindication to metformin as per local labelling.\n\nThe above information is not intended to contain all considerations relevant to a participant's potential participation in a clinical trial.", "healthyVolunteers": false, "sex": "ALL", "minimumAge": "18 Years", "stdAges": ["ADULT", "OLDER_ADULT"]}, "contactsLocationsModule": {"overallOfficials": [{"name": "Suman Wason, MD", "affiliation": "Lexicon Pharmaceuticals, Inc.", "role": "STUDY_DIRECTOR"}], "locations": [{"facility": "Investigational Site Number 8402003", "city": "Birmingham", "state": "Alabama", "zip": "35205", "country": "United States", "geoPoint": {"lat": 33.52066, "lon": -86.80249}}, {"facility": "Investigational Site Number 8402017", "city": "Birmingham", "state": "Alabama", "zip": "35294", "country": "United States", "geoPoint": {"lat": 33.52066, "lon": -86.80249}}, {"facility": "Investigational Site Number 8402052", "city": "Phoenix", "state": "Arizona", "zip": "85018", "country": "United States", "geoPoint": {"lat": 33.44838, "lon": -112.07404}}, {"facility": "Investigational Site Number 8402056", "city": "Canoga Park", "state": "California", "zip": "91303", "country": "United States", "geoPoint": {"lat": 34.20112, "lon": -118.59814}}, {"facility": "Investigational Site Number 8402020", "city": "Escondido", "state": "California", "zip": "92025", "country": "United States", "geoPoint": {"lat": 33.11921, "lon": -117.08642}}, {"facility": "Investigational Site Number 8402028", "city": "Gold River", "state": "California", "zip": "95670", "country": "United States", "geoPoint": {"lat": 38.62629, "lon": -121.24662}}, {"facility": "Investigational Site Number 8402067", "city": "Greenbrae", "state": "California", "zip": "94904", "country": "United States", "geoPoint": {"lat": 37.94854, "lon": -122.5247}}, {"facility": "Investigational Site Number 8402025", "city": "Huntington Park", "state": "California", "zip": "90255", "country": "United States", "geoPoint": {"lat": 33.98168, "lon": -118.22507}}, {"facility": "Investigational Site Number 8402051", "city": "La Mirada", "state": "California", "zip": "90638", "country": "United States", "geoPoint": {"lat": 33.91724, "lon": -118.01201}}, {"facility": "Investigational Site Number 8402042", "city": "Lemon Grove", "state": "California", "zip": "91945", "country": "United States", "geoPoint": {"lat": 32.74255, "lon": -117.03142}}, {"facility": "Investigational Site Number 8402011", "city": "Lincoln", "state": "California", "zip": "95648", "country": "United States", "geoPoint": {"lat": 38.89156, "lon": -121.29301}}, {"facility": "Investigational Site Number 8402014", "city": "Long Beach", "state": "California", "zip": "90807", "country": "United States", "geoPoint": {"lat": 33.76696, "lon": -118.18923}}, {"facility": "Investigational Site Number 8402066", "city": "Long Beach", "state": "California", "zip": "90807", "country": "United States", "geoPoint": {"lat": 33.76696, "lon": -118.18923}}, {"facility": "Investigational Site Number 8402029", "city": "Los Angeles", "state": "California", "zip": "90022", "country": "United States", "geoPoint": {"lat": 34.05223, "lon": -118.24368}}, {"facility": "Investigational Site Number 8402041", "city": "Los Angeles", "state": "California", "zip": "90036", "country": "United States", "geoPoint": {"lat": 34.05223, "lon": -118.24368}}, {"facility": "Investigational Site Number 8402001", "city": "Los Angeles", "state": "California", "zip": "90057", "country": "United States", "geoPoint": {"lat": 34.05223, "lon": -118.24368}}, {"facility": "Investigational Site Number 8402043", "city": "San Diego", "state": "California", "zip": "92103", "country": "United States", "geoPoint": {"lat": 32.71533, "lon": -117.15726}}, {"facility": "Investigational Site Number 8402031", "city": "San Ramon", "state": "California", "zip": "94582", "country": "United States", "geoPoint": {"lat": 37.77993, "lon": -121.97802}}, {"facility": "Investigational Site Number 8402047", "city": "Tarzana", "state": "California", "zip": "91356", "country": "United States", "geoPoint": {"lat": 34.17334, "lon": -118.55397}}, {"facility": "Investigational Site Number 8402009", "city": "Boynton Beach", "state": "Florida", "zip": "33472", "country": "United States", "geoPoint": {"lat": 26.52535, "lon": -80.06643}}, {"facility": "Investigational Site Number 8402016", "city": "Daytona Beach", "state": "Florida", "zip": "32117", "country": "United States", "geoPoint": {"lat": 29.21081, "lon": -81.02283}}, {"facility": "Investigational Site Number 8402006", "city": "Hialeah", "state": "Florida", "zip": "33012", "country": "United States", "geoPoint": {"lat": 25.8576, "lon": -80.27811}}, {"facility": "Investigational Site Number 8402035", "city": "Hialeah", "state": "Florida", "zip": "33012", "country": "United States", "geoPoint": {"lat": 25.8576, "lon": -80.27811}}, {"facility": "Investigational Site Number 8402044", "city": "Hialeah", "state": "Florida", "zip": "33012", "country": "United States", "geoPoint": {"lat": 25.8576, "lon": -80.27811}}, {"facility": "Investigational Site Number 8402045", "city": "Jacksonville", "state": "Florida", "zip": "32256", "country": "United States", "geoPoint": {"lat": 30.33218, "lon": -81.65565}}, {"facility": "Investigational Site Number 8402060", "city": "Miami Beach", "state": "Florida", "zip": "33140-3608", "country": "United States", "geoPoint": {"lat": 25.79065, "lon": -80.13005}}, {"facility": "Investigational Site Number 8402026", "city": "Miami", "state": "Florida", "zip": "33126", "country": "United States", "geoPoint": {"lat": 25.77427, "lon": -80.19366}}, {"facility": "Investigational Site Number 8402036", "city": "Miami", "state": "Florida", "zip": "33143", "country": "United States", "geoPoint": {"lat": 25.77427, "lon": -80.19366}}, {"facility": "Investigational Site Number 8402064", "city": "Miami", "state": "Florida", "zip": "33183", "country": "United States", "geoPoint": {"lat": 25.77427, "lon": -80.19366}}, {"facility": "Investigational Site Number 8402007", "city": "Miami", "state": "Florida", "zip": "33185", "country": "United States", "geoPoint": {"lat": 25.77427, "lon": -80.19366}}, {"facility": "Investigational Site Number 8402061", "city": "Miami", "state": "Florida", "zip": "33186", "country": "United States", "geoPoint": {"lat": 25.77427, "lon": -80.19366}}, {"facility": "Investigational Site Number 8402033", "city": "Opa-locka", "state": "Florida", "zip": "33054", "country": "United States", "geoPoint": {"lat": 25.90232, "lon": -80.25033}}, {"facility": "Investigational Site Number 8402039", "city": "Orlando", "state": "Florida", "zip": "32825", "country": "United States", "geoPoint": {"lat": 28.53834, "lon": -81.37924}}, {"facility": "Investigational Site Number 8402063", "city": "West Palm Beach", "state": "Florida", "zip": "33406-5854", "country": "United States", "geoPoint": {"lat": 26.71534, "lon": -80.05337}}, {"facility": "Investigational Site Number 8402038", "city": "Winter Haven", "state": "Florida", "zip": "33880", "country": "United States", "geoPoint": {"lat": 28.02224, "lon": -81.73286}}, {"facility": "Investigational Site Number 8402008", "city": "Macon", "state": "Georgia", "zip": "31210", "country": "United States", "geoPoint": {"lat": 32.84069, "lon": -83.6324}}, {"facility": "Investigational Site Number 8402054", "city": "Chicago", "state": "Illinois", "zip": "60607", "country": "United States", "geoPoint": {"lat": 41.85003, "lon": -87.65005}}, {"facility": "Investigational Site Number 8402069", "city": "Newton", "state": "Iowa", "zip": "50208", "country": "United States", "geoPoint": {"lat": 41.69971, "lon": -93.04798}}, {"facility": "Investigational Site Number 8402022", "city": "West Des Moines", "state": "Iowa", "zip": "50265", "country": "United States", "geoPoint": {"lat": 41.57721, "lon": -93.71133}}, {"facility": "Investigational Site Number 8402059", "city": "Lexington", "state": "Kentucky", "zip": "40503", "country": "United States", "geoPoint": {"lat": 37.98869, "lon": -84.47772}}, {"facility": "Investigational Site Number 8402068", "city": "Baton Rouge", "state": "Louisiana", "zip": "70808-4124", "country": "United States", "geoPoint": {"lat": 30.45075, "lon": -91.15455}}, {"facility": "Investigational Site Number 8402012", "city": "Metairie", "state": "Louisiana", "zip": "70006", "country": "United States", "geoPoint": {"lat": 29.98409, "lon": -90.15285}}, {"facility": "Investigational Site Number 8402037", "city": "New Orleans", "state": "Louisiana", "zip": "70119-6302", "country": "United States", "geoPoint": {"lat": 29.95465, "lon": -90.07507}}, {"facility": "Investigational Site Number 8402053", "city": "New Orleans", "state": "Louisiana", "zip": "70124", "country": "United States", "geoPoint": {"lat": 29.95465, "lon": -90.07507}}, {"facility": "Investigational Site Number 8402021", "city": "Rockville", "state": "Maryland", "zip": "20852", "country": "United States", "geoPoint": {"lat": 39.084, "lon": -77.15276}}, {"facility": "Investigational Site Number 8402062", "city": "Omaha", "state": "Nebraska", "zip": "68114-3755", "country": "United States", "geoPoint": {"lat": 41.25626, "lon": -95.94043}}, {"facility": "Investigational Site Number 8402005", "city": "Las Vegas", "state": "Nevada", "zip": "89148", "country": "United States", "geoPoint": {"lat": 36.17497, "lon": -115.13722}}, {"facility": "Investigational Site Number 8402018", "city": "Greensboro", "state": "North Carolina", "zip": "27401", "country": "United States", "geoPoint": {"lat": 36.07264, "lon": -79.79198}}, {"facility": "Investigational Site Number 8402002", "city": "Morehead City", "state": "North Carolina", "zip": "28557", "country": "United States", "geoPoint": {"lat": 34.72294, "lon": -76.72604}}, {"facility": "Investigational Site Number 8402019", "city": "Oklahoma City", "state": "Oklahoma", "zip": "73104", "country": "United States", "geoPoint": {"lat": 35.46756, "lon": -97.51643}}, {"facility": "Investigational Site Number 8402015", "city": "Eugene", "state": "Oregon", "zip": "97404-3233", "country": "United States", "geoPoint": {"lat": 44.05207, "lon": -123.08675}}, {"facility": "Investigational Site Number 8402058", "city": "Lansdale", "state": "Pennsylvania", "zip": "19446-1002", "country": "United States", "geoPoint": {"lat": 40.2415, "lon": -75.28379}}, {"facility": "Investigational Site Number 8402030", "city": "Dallas", "state": "Texas", "zip": "75230", "country": "United States", "geoPoint": {"lat": 32.78306, "lon": -96.80667}}, {"facility": "Investigational Site Number 8402050", "city": "DeSoto", "state": "Texas", "zip": "75115", "country": "United States", "geoPoint": {"lat": 32.58986, "lon": -96.85695}}, {"facility": "Investigational Site Number 8402010", "city": "Fort Worth", "state": "Texas", "zip": "76164", "country": "United States", "geoPoint": {"lat": 32.72541, "lon": -97.32085}}, {"facility": "Investigational Site Number 8402040", "city": "Houston", "state": "Texas", "zip": "77008", "country": "United States", "geoPoint": {"lat": 29.76328, "lon": -95.36327}}, {"facility": "Investigational Site Number 8402065", "city": "Houston", "state": "Texas", "zip": "77058", "country": "United States", "geoPoint": {"lat": 29.76328, "lon": -95.36327}}, {"facility": "Investigational Site Number 8402057", "city": "Houston", "state": "Texas", "zip": "77079", "country": "United States", "geoPoint": {"lat": 29.76328, "lon": -95.36327}}, {"facility": "Investigational Site Number 8402049", "city": "Magnolia", "state": "Texas", "zip": "77355", "country": "United States", "geoPoint": {"lat": 30.20938, "lon": -95.75078}}, {"facility": "Investigational Site Number 8402046", "city": "Odessa", "state": "Texas", "zip": "79761", "country": "United States", "geoPoint": {"lat": 31.84568, "lon": -102.36764}}, {"facility": "Investigational Site Number 8402013", "city": "San Antonio", "state": "Texas", "zip": "78218", "country": "United States", "geoPoint": {"lat": 29.42412, "lon": -98.49363}}, {"facility": "Investigational Site Number 8402004", "city": "San Antonio", "state": "Texas", "zip": "78229", "country": "United States", "geoPoint": {"lat": 29.42412, "lon": -98.49363}}, {"facility": "Investigational Site Number 8402023", "city": "Schertz", "state": "Texas", "zip": "78154", "country": "United States", "geoPoint": {"lat": 29.55217, "lon": -98.26973}}, {"facility": "Investigational Site Number 8402027", "city": "Clinton", "state": "Utah", "zip": "84015", "country": "United States", "geoPoint": {"lat": 41.13967, "lon": -112.0505}}, {"facility": "Investigational Site Number 8402032", "city": "Salt Lake City", "state": "Utah", "zip": "84107", "country": "United States", "geoPoint": {"lat": 40.76078, "lon": -111.89105}}, {"facility": "Investigational Site Number 8402024", "city": "Virginia Beach", "state": "Virginia", "zip": "23454", "country": "United States", "geoPoint": {"lat": 36.85293, "lon": -75.97799}}, {"facility": "Investigational Site Number 8402034", "city": "Seattle", "state": "Washington", "zip": "98105", "country": "United States", "geoPoint": {"lat": 47.60621, "lon": -122.33207}}, {"facility": "Investigational Site Number 1242014", "city": "Barrie", "zip": "L4M 7G1", "country": "Canada", "geoPoint": {"lat": 44.40011, "lon": -79.66634}}, {"facility": "Investigational Site Number 1242004", "city": "Brampton", "zip": "L6S 0C6", "country": "Canada", "geoPoint": {"lat": 43.68341, "lon": -79.76633}}, {"facility": "Investigational Site Number 1242005", "city": "Brampton", "zip": "L6T 0G1", "country": "Canada", "geoPoint": {"lat": 43.68341, "lon": -79.76633}}, {"facility": "Investigational Site Number 1242001", "city": "Concord", "zip": "L4K 4M2", "country": "Canada", "geoPoint": {"lat": 43.80011, "lon": -79.48291}}, {"facility": "Investigational Site Number 1242007", "city": "Etobicoke", "zip": "M9R 4E1", "country": "Canada", "geoPoint": {"lat": 43.65421, "lon": -79.56711}}, {"facility": "Investigational Site Number 1242010", "city": "Levis", "zip": "G6W 0M5", "country": "Canada", "geoPoint": {"lat": 46.80326, "lon": -71.17793}}, {"facility": "Investigational Site Number 1242012", "city": "Newmarket", "zip": "L3Y 5G8", "country": "Canada", "geoPoint": {"lat": 44.05011, "lon": -79.46631}}, {"facility": "Investigational Site Number 1242013", "city": "Oakville", "zip": "L6M 1M1", "country": "Canada", "geoPoint": {"lat": 43.45011, "lon": -79.68292}}, {"facility": "Investigational Site Number 1242006", "city": "Pointe Claire", "zip": "H9R 4S3", "country": "Canada", "geoPoint": {"lat": 45.44868, "lon": -73.81669}}, {"facility": "Investigational Site Number 1242008", "city": "Sherbrooke", "zip": "J1L 0H8", "country": "Canada", "geoPoint": {"lat": 45.40008, "lon": -71.89908}}, {"facility": "Investigational Site Number 1242015", "city": "Toronto", "zip": "M3M 3E5", "country": "Canada", "geoPoint": {"lat": 43.70011, "lon": -79.4163}}, {"facility": "Investigational Site Number 1242002", "city": "Toronto", "zip": "M4G 3E8", "country": "Canada", "geoPoint": {"lat": 43.70011, "lon": -79.4163}}, {"facility": "Investigational Site Number 1242003", "city": "Toronto", "zip": "M9W 4L6", "country": "Canada", "geoPoint": {"lat": 43.70011, "lon": -79.4163}}, {"facility": "Investigational Site Number 1242011", "city": "Vancouver", "zip": "V5X 0C4", "country": "Canada", "geoPoint": {"lat": 49.24966, "lon": -123.11934}}, {"facility": "Investigational Site Number 3482002", "city": "Budapest", "zip": "1033", "country": "Hungary", "geoPoint": {"lat": 47.49801, "lon": 19.03991}}, {"facility": "Investigational Site Number 3482003", "city": "Budapest", "zip": "1088", "country": "Hungary", "geoPoint": {"lat": 47.49801, "lon": 19.03991}}, {"facility": "Investigational Site Number 3482006", "city": "Budapest", "zip": "1213", "country": "Hungary", "geoPoint": {"lat": 47.49801, "lon": 19.03991}}, {"facility": "Investigational Site Number 3482004", "city": "Debrecen", "zip": "4025", "country": "Hungary", "geoPoint": {"lat": 47.53333, "lon": 21.63333}}, {"facility": "Investigational Site Number 3482001", "city": "Esztergom", "zip": "2500", "country": "Hungary", "geoPoint": {"lat": 47.7928, "lon": 18.74148}}, {"facility": "Investigational Site Number 3482007", "city": "Nyiregyhaza", "zip": "4400", "country": "Hungary", "geoPoint": {"lat": 47.95539, "lon": 21.71671}}, {"facility": "Investigational Site Number 7032001", "city": "Bratislava", "zip": "851 01", "country": "Slovakia", "geoPoint": {"lat": 48.14816, "lon": 17.10674}}, {"facility": "Investigational Site Number 7032005", "city": "Bratislava", "zip": "851 01", "country": "Slovakia", "geoPoint": {"lat": 48.14816, "lon": 17.10674}}, {"facility": "Investigational Site Number 7032003", "city": "Malacky", "zip": "901 01", "country": "Slovakia", "geoPoint": {"lat": 48.43604, "lon": 17.02188}}, {"facility": "Investigational Site Number 7032002", "city": "Nitra", "zip": "949 11", "country": "Slovakia", "geoPoint": {"lat": 48.30763, "lon": 18.08453}}, {"facility": "Investigational Site Number 7032004", "city": "Sturovo", "zip": "943 01", "country": "Slovakia", "geoPoint": {"lat": 47.79495, "lon": 18.7175}}, {"facility": "Investigational Site Number 7032006", "city": "Trencin", "zip": "911 01", "country": "Slovakia", "geoPoint": {"lat": 48.89452, "lon": 18.04436}}]}, "ipdSharingStatementModule": {"ipdSharing": "YES", "description": "Individual participant data (IPD) and supporting clinical documents are available for request at clinicalstudydatarequest.com. While making information available we continue to protect the privacy of the participants in our clinical trials and to remove commercially confidential information (CCI). Details on Data Sharing criteria and process for requesting access can be found at this web address: clinicalstudydatarequest.com"}}, "resultsSection": {"participantFlowModule": {"preAssignmentDetails": "Participants with a diagnosis of type 2 Diabetes Mellitus were enrolled in 1 of 2 treatment groups, Sotagliflozin 400 milligrams (mg) once daily (QD) + Metformin and Placebo + Metformin. Participants were randomly assigned to the ratio of 1:1 to these reporting groups.", "recruitmentDetails": "Participants took part in the study at 87 investigative sites in Canada, Hungary, Slovakia and the United States from 11 November 2016 to 22 March 2019.", "groups": [{"id": "FG000", "title": "Placebo + Metformin", "description": "Following a 2-week run-in period, matching placebo was administered as 2 tablets, QD, before the first meal of the day plus Metformin as prescribed by the Principal Investigator for up to 26 weeks in the double-blind Core Treatment Period, and participants continued the same treatment in the double-blind Extension Period for up to 53 weeks."}, {"id": "FG001", "title": "Sotagliflozin 400 mg + Metformin", "description": "Following a 2-week run-in period, Sotagliflozin 400 mg was administered as 2 tablets, QD, before the first meal of the day plus Metformin as prescribed by the Principal Investigator for up to 26 weeks in the double-blind Core Treatment Period, and participants continued the same treatment in the double-blind Extension Period for up to 53 weeks."}], "periods": [{"title": "Overall Study", "milestones": [{"type": "STARTED", "achievements": [{"groupId": "FG000", "numSubjects": "259"}, {"groupId": "FG001", "numSubjects": "259"}]}, {"type": "COMPLETED", "achievements": [{"groupId": "FG000", "numSubjects": "210"}, {"groupId": "FG001", "numSubjects": "211"}]}, {"type": "NOT COMPLETED", "achievements": [{"groupId": "FG000", "numSubjects": "49"}, {"groupId": "FG001", "numSubjects": "48"}]}], "dropWithdraws": [{"type": "Adverse Event", "reasons": [{"groupId": "FG000", "numSubjects": "4"}, {"groupId": "FG001", "numSubjects": "6"}]}, {"type": "At the participant's own request", "reasons": [{"groupId": "FG000", "numSubjects": "21"}, {"groupId": "FG001", "numSubjects": "25"}]}, {"type": "Reason not Specified", "reasons": [{"groupId": "FG000", "numSubjects": "17"}, {"groupId": "FG001", "numSubjects": "9"}]}, {"type": "Lost to Follow-up", "reasons": [{"groupId": "FG000", "numSubjects": "7"}, {"groupId": "FG001", "numSubjects": "8"}]}]}]}, "baselineCharacteristicsModule": {"populationDescription": "Intent-to-treat (ITT) population included all randomized participants.", "groups": [{"id": "BG000", "title": "Placebo + Metformin", "description": "Following a 2-week run-in period, matching placebo was administered as 2 tablets, QD, before the first meal of the day plus Metformin as prescribed by the Principal Investigator for up to 26 weeks in the double-blind Core Treatment Period, and participants continued the same treatment in the double-blind Extension Period for up to 53 weeks."}, {"id": "BG001", "title": "Sotagliflozin 400 mg + Metformin", "description": "Following a 2-week run-in period, Sotagliflozin 400 mg was administered as 2 tablets, QD, before the first meal of the day plus Metformin as prescribed by the Principal Investigator for up to 26 weeks in the double-blind Core Treatment Period, and participants continued the same treatment in the double-blind Extension Period for up to 53 weeks."}, {"id": "BG002", "title": "Total", "description": "Total of all reporting groups"}], "denoms": [{"units": "Participants", "counts": [{"groupId": "BG000", "value": "259"}, {"groupId": "BG001", "value": "259"}, {"groupId": "BG002", "value": "518"}]}], "measures": [{"title": "Age, Continuous", "paramType": "MEAN", "dispersionType": "STANDARD_DEVIATION", "unitOfMeasure": "years", "classes": [{"categories": [{"measurements": [{"groupId": "BG000", "value": "59.9", "spread": "9.4"}, {"groupId": "BG001", "value": "60.0", "spread": "10.1"}, {"groupId": "BG002", "value": "59.9", "spread": "9.8"}]}]}]}, {"title": "Sex: Female, Male", "paramType": "COUNT_OF_PARTICIPANTS", "unitOfMeasure": "Participants", "classes": [{"categories": [{"title": "Female", "measurements": [{"groupId": "BG000", "value": "113"}, {"groupId": "BG001", "value": "117"}, {"groupId": "BG002", "value": "230"}]}, {"title": "Male", "measurements": [{"groupId": "BG000", "value": "146"}, {"groupId": "BG001", "value": "142"}, {"groupId": "BG002", "value": "288"}]}]}]}, {"title": "Ethnicity (NIH/OMB)", "paramType": "COUNT_OF_PARTICIPANTS", "unitOfMeasure": "Participants", "classes": [{"categories": [{"title": "Hispanic or Latino", "measurements": [{"groupId": "BG000", "value": "106"}, {"groupId": "BG001", "value": "117"}, {"groupId": "BG002", "value": "223"}]}, {"title": "Not Hispanic or Latino", "measurements": [{"groupId": "BG000", "value": "153"}, {"groupId": "BG001", "value": "140"}, {"groupId": "BG002", "value": "293"}]}, {"title": "Unknown or Not Reported", "measurements": [{"groupId": "BG000", "value": "0"}, {"groupId": "BG001", "value": "2"}, {"groupId": "BG002", "value": "2"}]}]}]}, {"title": "Race (NIH/OMB)", "paramType": "COUNT_OF_PARTICIPANTS", "unitOfMeasure": "Participants", "classes": [{"categories": [{"title": "American Indian or Alaska Native", "measurements": [{"groupId": "BG000", "value": "1"}, {"groupId": "BG001", "value": "2"}, {"groupId": "BG002", "value": "3"}]}, {"title": "Asian", "measurements": [{"groupId": "BG000", "value": "19"}, {"groupId": "BG001", "value": "6"}, {"groupId": "BG002", "value": "25"}]}, {"title": "Native Hawaiian or Other Pacific Islander", "measurements": [{"groupId": "BG000", "value": "1"}, {"groupId": "BG001", "value": "0"}, {"groupId": "BG002", "value": "1"}]}, {"title": "Black or African American", "measurements": [{"groupId": "BG000", "value": "40"}, {"groupId": "BG001", "value": "28"}, {"groupId": "BG002", "value": "68"}]}, {"title": "White", "measurements": [{"groupId": "BG000", "value": "197"}, {"groupId": "BG001", "value": "223"}, {"groupId": "BG002", "value": "420"}]}, {"title": "More than one race", "measurements": [{"groupId": "BG000", "value": "0"}, {"groupId": "BG001", "value": "0"}, {"groupId": "BG002", "value": "0"}]}, {"title": "Unknown or Not Reported", "measurements": [{"groupId": "BG000", "value": "1"}, {"groupId": "BG001", "value": "0"}, {"groupId": "BG002", "value": "1"}]}]}]}, {"title": "Hemoglobin A1c (HbA1c)", "paramType": "MEAN", "dispersionType": "STANDARD_DEVIATION", "unitOfMeasure": "percentage of HbA1c", "classes": [{"categories": [{"measurements": [{"groupId": "BG000", "value": "8.19", "spread": "0.82"}, {"groupId": "BG001", "value": "8.20", "spread": "0.78"}, {"groupId": "BG002", "value": "8.20", "spread": "0.80"}]}]}]}, {"title": "Systolic Blood Pressure (SBP)", "paramType": "MEAN", "dispersionType": "STANDARD_DEVIATION", "unitOfMeasure": "millimeter of mercury (mmHg)", "classes": [{"categories": [{"measurements": [{"groupId": "BG000", "value": "133.80", "spread": "13.95"}, {"groupId": "BG001", "value": "134.06", "spread": "13.95"}, {"groupId": "BG002", "value": "133.93", "spread": "13.93"}]}]}]}]}, "outcomeMeasuresModule": {"outcomeMeasures": [{"type": "PRIMARY", "title": "Change From Baseline in Hemoglobin A1c (HbA1c) at Week 26", "description": "An analysis of covariance (ANCOVA) model was used for the analysis.", "populationDescription": "Intent-to-treat (ITT) population included all randomized participants. Missing data was imputed using the retrieved dropouts and washout imputation method.", "reportingStatus": "POSTED", "paramType": "LEAST_SQUARES_MEAN", "dispersionType": "Standard Error", "unitOfMeasure": "percentage of HbA1c", "timeFrame": "Baseline and Week 26", "groups": [{"id": "OG000", "title": "Placebo + Metformin", "description": "Following a 2-week run-in period, matching placebo was administered as 2 tablets, QD, before the first meal of the day plus Metformin as prescribed by the Principal Investigator for up to 26 weeks in the double-blind Core Treatment Period, and participants continued the same treatment in the double-blind Extension Period for up to 53 weeks."}, {"id": "OG001", "title": "Sotagliflozin 400 mg + Metformin", "description": "Following a 2-week run-in period, Sotagliflozin 400 mg was administered as 2 tablets, QD, before the first meal of the day plus Metformin as prescribed by the Principal Investigator for up to 26 weeks in the double-blind Core Treatment Period, and participants continued the same treatment in the double-blind Extension Period for up to 53 weeks."}], "denoms": [{"units": "Participants", "counts": [{"groupId": "OG000", "value": "259"}, {"groupId": "OG001", "value": "259"}]}], "classes": [{"categories": [{"measurements": [{"groupId": "OG000", "value": "-0.29", "spread": "0.079"}, {"groupId": "OG001", "value": "-0.77", "spread": "0.077"}]}]}], "analyses": [{"groupIds": ["OG000", "OG001"], "groupDescription": "The change from baseline to Week 26 is analyzed using an ANCOVA model with treatment groups, randomization strata of HbA1c (\u22648.0, \\>8.0%) at screening, randomization strata of mean SBP (\\<130, \u2265130 mmHg) at screening, and country as fixed effects, and baseline HbA1c as a covariate.", "nonInferiorityType": "SUPERIORITY", "pValue": "< 0.0001", "statisticalMethod": "ANCOVA", "paramType": "Difference in Least Squares (LS) Means", "paramValue": "-0.47", "ciPctValue": "95", "ciNumSides": "TWO_SIDED", "ciLowerLimit": "-0.64", "ciUpperLimit": "-0.309", "dispersionType": "STANDARD_ERROR_OF_MEAN", "dispersionValue": "0.084"}]}, {"type": "SECONDARY", "title": "Change From Baseline in 2-hour Postprandial Glucose (PPG) Following a Mixed Meal at Week 26", "description": "An ANCOVA model was used for the analysis.", "populationDescription": "ITT population included all randomized participants. Missing data are imputed using control-based copy reference multiple imputation method.", "reportingStatus": "POSTED", "paramType": "LEAST_SQUARES_MEAN", "dispersionType": "Standard Error", "unitOfMeasure": "millimole per liter (mmol/L)", "timeFrame": "Baseline and Week 26", "groups": [{"id": "OG000", "title": "Placebo + Metformin", "description": "Following a 2-week run-in period, matching placebo was administered as 2 tablets, QD, before the first meal of the day plus Metformin as prescribed by the Principal Investigator for up to 26 weeks in the double-blind Core Treatment Period, and participants continued the same treatment in the double-blind Extension Period for up to 53 weeks."}, {"id": "OG001", "title": "Sotagliflozin 400 mg + Metformin", "description": "Following a 2-week run-in period, Sotagliflozin 400 mg was administered as 2 tablets, QD, before the first meal of the day plus Metformin as prescribed by the Principal Investigator for up to 26 weeks in the double-blind Core Treatment Period, and participants continued the same treatment in the double-blind Extension Period for up to 53 weeks."}], "denoms": [{"units": "Participants", "counts": [{"groupId": "OG000", "value": "259"}, {"groupId": "OG001", "value": "259"}]}], "classes": [{"categories": [{"measurements": [{"groupId": "OG000", "value": "-0.930", "spread": "0.2353"}, {"groupId": "OG001", "value": "-2.502", "spread": "0.2292"}]}]}], "analyses": [{"groupIds": ["OG000", "OG001"], "groupDescription": "The change from baseline to Week 26 was analyzed using an ANCOVA model with treatment groups, randomization strata of HbA1c (\u22648.0, \\>8.0%) at screening, randomization strata of mean SBP (\\<130, \u2265130 mmHg) at screening, and country as fixed effects, and country as fixed effects, and baseline 2- hour postprandial glucose as a covariate.", "nonInferiorityType": "SUPERIORITY", "pValue": "< 0.0001", "statisticalMethod": "ANCOVA", "paramType": "Difference in LS Means", "paramValue": "-1.572", "ciPctValue": "95", "ciNumSides": "TWO_SIDED", "ciLowerLimit": "-2.0538", "ciUpperLimit": "-1.0909", "dispersionType": "STANDARD_ERROR_OF_MEAN", "dispersionValue": "0.2457"}]}, {"type": "SECONDARY", "title": "Change From Baseline in Fasting Plasma Glucose (FPG) at Week 26", "description": "An ANCOVA model was used for the analysis.", "populationDescription": "ITT population included all randomized participants. Missing data was imputed using the retrieved dropouts and washout imputation method.", "reportingStatus": "POSTED", "paramType": "LEAST_SQUARES_MEAN", "dispersionType": "Standard Error", "unitOfMeasure": "mmol/L", "timeFrame": "Baseline and Week 26", "groups": [{"id": "OG000", "title": "Placebo + Metformin", "description": "Following a 2-week run-in period, matching placebo was administered as 2 tablets, QD, before the first meal of the day plus Metformin as prescribed by the Principal Investigator for up to 26 weeks in the double-blind Core Treatment Period, and participants continued the same treatment in the double-blind Extension Period for up to 53 weeks."}, {"id": "OG001", "title": "Sotagliflozin 400 mg + Metformin", "description": "Following a 2-week run-in period, Sotagliflozin 400 mg was administered as 2 tablets, QD, before the first meal of the day plus Metformin as prescribed by the Principal Investigator for up to 26 weeks in the double-blind Core Treatment Period, and participants continued the same treatment in the double-blind Extension Period for up to 53 weeks."}], "denoms": [{"units": "Participants", "counts": [{"groupId": "OG000", "value": "259"}, {"groupId": "OG001", "value": "259"}]}], "classes": [{"categories": [{"measurements": [{"groupId": "OG000", "value": "-0.550", "spread": "0.1864"}, {"groupId": "OG001", "value": "-1.310", "spread": "0.2089"}]}]}], "analyses": [{"groupIds": ["OG000", "OG001"], "groupDescription": "The change from baseline to Week 26 is analyzed using an ANCOVA model with treatment groups, randomization strata of HbA1c (\u22648.0, \\>8.0%) at screening, randomization strata of mean SBP (\\<130, \u2265130 mmHg) at screening, and country as fixed effects, and baseline fasting plasma glucose as a covariate.", "nonInferiorityType": "SUPERIORITY", "pValue": "= 0.0007", "statisticalMethod": "ANCOVA", "paramType": "Difference in LS Means", "paramValue": "-0.76", "ciPctValue": "95", "ciNumSides": "TWO_SIDED", "ciLowerLimit": "-1.2006", "ciUpperLimit": "-0.3198", "dispersionType": "STANDARD_ERROR_OF_MEAN", "dispersionValue": "0.2247"}]}, {"type": "SECONDARY", "title": "Change From Baseline in Body Weight at Week 26", "description": "An ANCOVA model was used for the analysis.", "populationDescription": "ITT population included all randomized participants. Missing data was imputed using the retrieved dropouts and washout imputation method.", "reportingStatus": "POSTED", "paramType": "LEAST_SQUARES_MEAN", "dispersionType": "Standard Error", "unitOfMeasure": "kilogram (kg)", "timeFrame": "Baseline and Week 26", "groups": [{"id": "OG000", "title": "Placebo + Metformin", "description": "Following a 2-week run-in period, matching placebo was administered as 2 tablets, QD, before the first meal of the day plus Metformin as prescribed by the Principal Investigator for up to 26 weeks in the double-blind Core Treatment Period, and participants continued the same treatment in the double-blind Extension Period for up to 53 weeks."}, {"id": "OG001", "title": "Sotagliflozin 400 mg + Metformin", "description": "Following a 2-week run-in period, Sotagliflozin 400 mg was administered as 2 tablets, QD, before the first meal of the day plus Metformin as prescribed by the Principal Investigator for up to 26 weeks in the double-blind Core Treatment Period, and participants continued the same treatment in the double-blind Extension Period for up to 53 weeks."}], "denoms": [{"units": "Participants", "counts": [{"groupId": "OG000", "value": "259"}, {"groupId": "OG001", "value": "259"}]}], "classes": [{"categories": [{"measurements": [{"groupId": "OG000", "value": "-0.69", "spread": "0.310"}, {"groupId": "OG001", "value": "-2.56", "spread": "0.331"}]}]}], "analyses": [{"groupIds": ["OG000", "OG001"], "groupDescription": "The change from baseline to Week 26 is analyzed using an ANCOVA model with treatment groups, randomization strata of HbA1c (\u22648.0, \\>8.0%) at screening, randomization strata of mean SBP (\\<130, \u2265130 mmHg) at screening, and country as fixed effects, and country as fixed effects, and baseline weight as a covariate.", "nonInferiorityType": "SUPERIORITY", "pValue": "< 0.0001", "statisticalMethod": "ANCOVA", "paramType": "Difference in LS Means", "paramValue": "-1.87", "ciPctValue": "95", "ciNumSides": "TWO_SIDED", "ciLowerLimit": "-2.591", "ciUpperLimit": "-1.144", "dispersionType": "STANDARD_ERROR_OF_MEAN", "dispersionValue": "0.369"}]}, {"type": "SECONDARY", "title": "Change From Baseline in Systolic Blood Pressure (SBP) at Week 12 in Participants With Baseline SBP \u2265130 mmHg", "description": "An ANCOVA model was used for the analysis.", "populationDescription": "Analysis was performed on ITT population in participant with baseline SBP \u2265130 mmHg. Missing data was imputed using control-based copy reference multiple imputation method.", "reportingStatus": "POSTED", "paramType": "LEAST_SQUARES_MEAN", "dispersionType": "Standard Error", "unitOfMeasure": "millimeter of mercury (mmHg)", "timeFrame": "Baseline and Week 12", "groups": [{"id": "OG000", "title": "Placebo + Metformin", "description": "Following a 2-week run-in period, matching placebo was administered as 2 tablets, QD, before the first meal of the day plus Metformin as prescribed by the Principal Investigator for up to 26 weeks in the double-blind Core Treatment Period, and participants continued the same treatment in the double-blind Extension Period for up to 53 weeks."}, {"id": "OG001", "title": "Sotagliflozin 400 mg + Metformin", "description": "Following a 2-week run-in period, Sotagliflozin 400 mg was administered as 2 tablets, once daily, before the first meal of the day plus Metformin as prescribed by the Principal Investigator for up to 26 weeks in the double-blind Core Treatment Period, and participants continued the same treatment in the double-blind Extension Period for up to 53 weeks."}], "denoms": [{"units": "Participants", "counts": [{"groupId": "OG000", "value": "129"}, {"groupId": "OG001", "value": "137"}]}], "classes": [{"categories": [{"measurements": [{"groupId": "OG000", "value": "-6.92", "spread": "1.233"}, {"groupId": "OG001", "value": "-10.21", "spread": "1.270"}]}]}], "analyses": [{"groupIds": ["OG000", "OG001"], "groupDescription": "The change from baseline to Week 12 is analyzed using an ANCOVA model with treatment groups, randomization strata of HbA1c (\u2264 8.0, \\>8.0%) at screening, and country as fixed effects, and baseline SBP as a covariate.", "nonInferiorityType": "SUPERIORITY", "pValue": "= 0.0209", "statisticalMethod": "ANCOVA", "paramType": "Difference in LS Means", "paramValue": "-3.28", "ciPctValue": "95", "ciNumSides": "TWO_SIDED", "ciLowerLimit": "-6.07", "ciUpperLimit": "-0.497", "dispersionType": "STANDARD_ERROR_OF_MEAN", "dispersionValue": "1.422"}]}, {"type": "SECONDARY", "title": "Change From Baseline in SBP at Week 12 for All Participants", "description": "An ANCOVA model was used for the analysis.", "populationDescription": "ITT population included all randomized participants. Missing data was imputed using control-based copy reference multiple imputation method.", "reportingStatus": "POSTED", "paramType": "LEAST_SQUARES_MEAN", "dispersionType": "Standard Error", "unitOfMeasure": "mmHg", "timeFrame": "Baseline and Week 12", "groups": [{"id": "OG000", "title": "Placebo + Metformin", "description": "Following a 2-week run-in period, matching placebo was administered as 2 tablets, QD, before the first meal of the day plus Metformin as prescribed by the Principal Investigator for up to 26 weeks in the double-blind Core Treatment Period, and participants continued the same treatment in the double-blind Extension Period for up to 53 weeks."}, {"id": "OG001", "title": "Sotagliflozin 400 mg + Metformin", "description": "Following a 2-week run-in period, Sotagliflozin 400 mg was administered as 2 tablets, QD, before the first meal of the day plus Metformin as prescribed by the Principal Investigator for up to 26 weeks in the double-blind Core Treatment Period, and participants continued the same treatment in the double-blind Extension Period for up to 53 weeks."}], "denoms": [{"units": "Participants", "counts": [{"groupId": "OG000", "value": "259"}, {"groupId": "OG001", "value": "259"}]}], "classes": [{"categories": [{"measurements": [{"groupId": "OG000", "value": "-1.87", "spread": "0.949"}, {"groupId": "OG001", "value": "-5.41", "spread": "0.950"}]}]}], "analyses": [{"groupIds": ["OG000", "OG001"], "groupDescription": "The change from baseline to Week 12 is analyzed using an ANCOVA model with treatment groups, randomization strata of HbA1c (\u2264 8.0, \\>8.0%) at screening, randomization strata of mean SBP (\\<130, \u2265130 mmHg) at screening, and country as fixed effects, and baseline SBP as a covariate.", "nonInferiorityType": "SUPERIORITY", "pValue": "= 0.0004", "statisticalMethod": "ANCOVA", "paramType": "Difference in LS Means", "paramValue": "-3.54", "ciPctValue": "95", "ciNumSides": "TWO_SIDED", "ciLowerLimit": "-5.479", "ciUpperLimit": "-1.592", "dispersionType": "STANDARD_ERROR_OF_MEAN", "dispersionValue": "0.992"}]}, {"type": "SECONDARY", "title": "Percentage of Participants With HbA1c <6.5% at Week 26", "populationDescription": "ITT population included all randomized participants.", "reportingStatus": "POSTED", "paramType": "NUMBER", "unitOfMeasure": "percentage of participants", "timeFrame": "Week 26", "groups": [{"id": "OG000", "title": "Placebo + Metformin", "description": "Following a 2-week run-in period, matching placebo was administered as 2 tablets, QD, before the first meal of the day plus Metformin as prescribed by the Principal Investigator for up to 26 weeks in the double-blind Core Treatment Period, and participants continued the same treatment in the double-blind Extension Period for up to 53 weeks."}, {"id": "OG001", "title": "Sotagliflozin 400 mg + Metformin", "description": "Following a 2-week run-in period, Sotagliflozin 400 mg was administered as 2 tablets, QD, before the first meal of the day plus Metformin as prescribed by the Principal Investigator for up to 26 weeks in the double-blind Core Treatment Period, and participants continued the same treatment in the double-blind Extension Period for up to 53 weeks."}], "denoms": [{"units": "Participants", "counts": [{"groupId": "OG000", "value": "259"}, {"groupId": "OG001", "value": "259"}]}], "classes": [{"categories": [{"measurements": [{"groupId": "OG000", "value": "5.4"}, {"groupId": "OG001", "value": "10.8"}]}]}], "analyses": [{"groupIds": ["OG000", "OG001"], "groupDescription": "Percentage difference between treatment groups using the Cochran-Mantel-Haenszel test stratified by the randomization strata of HbA1c (\u22648.0, \\>8.0%) at screening, randomization strata of mean SBP (\\<130, \u2265130 mmHg) at screening. Missing data at Week 26 were assigned a status of nonresponder in the analysis.", "nonInferiorityType": "SUPERIORITY", "pValue": "= 0.0238", "statisticalMethod": "Cochran-Mantel-Haenszel", "paramType": "Percentage Difference", "paramValue": "5.4", "ciPctValue": "95", "ciNumSides": "TWO_SIDED", "ciLowerLimit": "0.75", "ciUpperLimit": "10.06"}]}, {"type": "SECONDARY", "title": "Percentage of Participants With HbA1c <7.0% at Week 26", "populationDescription": "ITT population included all randomized participants.", "reportingStatus": "POSTED", "paramType": "NUMBER", "unitOfMeasure": "percentage of participants", "timeFrame": "Week 26", "groups": [{"id": "OG000", "title": "Placebo + Metformin", "description": "Following a 2-week run-in period, matching placebo was administered as 2 tablets, QD, before the first meal of the day plus Metformin as prescribed by the Principal Investigator for up to 26 weeks in the double-blind Core Treatment Period, and participants continued the same treatment in the double-blind Extension Period for up to 53 weeks."}, {"id": "OG001", "title": "Sotagliflozin 400 mg + Metformin", "description": "Following a 2-week run-in period, Sotagliflozin 400 mg was administered as 2 tablets, QD, before the first meal of the day plus Metformin as prescribed by the Principal Investigator for up to 26 weeks in the double-blind Core Treatment Period, and participants continued the same treatment in the double-blind Extension Period for up to 53 weeks."}], "denoms": [{"units": "Participants", "counts": [{"groupId": "OG000", "value": "259"}, {"groupId": "OG001", "value": "259"}]}], "classes": [{"categories": [{"measurements": [{"groupId": "OG000", "value": "15.8"}, {"groupId": "OG001", "value": "29.7"}]}]}], "analyses": [{"groupIds": ["OG000", "OG001"], "groupDescription": "Percentage difference between treatment groups using the Cochran-Mantel-Haenszel test stratified by the randomization strata of HbA1c (\u22648.0, \\>8.0%) at screening, randomization strata of mean SBP (\\<130, \u2265130 mmHg) at screening. Missing data at Week 26 were assigned a status of nonresponder in the analysis.", "nonInferiorityType": "SUPERIORITY", "pValue": "= 0.0001", "statisticalMethod": "Cochran-Mantel-Haenszel", "paramType": "Percentage Difference", "paramValue": "13.9", "ciPctValue": "95", "ciNumSides": "TWO_SIDED", "ciLowerLimit": "6.91", "ciUpperLimit": "20.89"}]}, {"type": "OTHER_PRE_SPECIFIED", "title": "Percentage of Participants With Hypoglycemic Events", "description": "Percentage of participants with hypoglycemic events are reported for the following 3 categories: Any hypoglycemia (as reported in the Electronic Case Report Form); Documented symptomatic hypoglycemia \\[typical symptoms of hypoglycemia (increased sweating, nervousness, asthenia/weakness, tremor, dizziness, increased appetite, palpitations, headache, sleep disorder, confusion, seizures, unconsciousness, and/or coma) and plasma glucose \u226470 mg/dL (3.9 mmol/L)\\]; Severe \\[an event requiring assistance of another person to actively administer carbohydrate, glucagon, intravenous glucose or other resuscitative actions\\] or documented symptomatic hypoglycemia \\[typical symptoms of hypoglycemia and plasma glucose \u226470 mg/dL\\]. Participants may be reported in more than one category.", "populationDescription": "Safety population was defined as all randomized participants who had received at least 1 dose of the double-blind investigational medicinal product.", "reportingStatus": "POSTED", "paramType": "NUMBER", "unitOfMeasure": "percentage of participants", "timeFrame": "Up to 79 weeks in the treatment period", "groups": [{"id": "OG000", "title": "Placebo + Metformin", "description": "Following a 2-week run-in period, matching placebo was administered as 2 tablets, QD, before the first meal of the day plus Metformin as prescribed by the Principal Investigator for up to 26 weeks in the double-blind Core Treatment Period, and participants continued the same treatment in the double-blind Extension Period for up to 53 weeks."}, {"id": "OG001", "title": "Sotagliflozin 400 mg + Metformin", "description": "Following a 2-week run-in period, Sotagliflozin 400 mg was administered as 2 tablets, QD, before the first meal of the day plus Metformin as prescribed by the Principal Investigator for up to 26 weeks in the double-blind Core Treatment Period, and participants continued the same treatment in the double-blind Extension Period for up to 53 weeks."}], "denoms": [{"units": "Participants", "counts": [{"groupId": "OG000", "value": "259"}, {"groupId": "OG001", "value": "259"}]}], "classes": [{"title": "Any hypoglycemia", "categories": [{"measurements": [{"groupId": "OG000", "value": "11.6"}, {"groupId": "OG001", "value": "6.6"}]}]}, {"title": "Documented symptomatic hypoglycemia", "categories": [{"measurements": [{"groupId": "OG000", "value": "6.2"}, {"groupId": "OG001", "value": "3.1"}]}]}, {"title": "Severe or documented symptomatic hypoglycemia", "categories": [{"measurements": [{"groupId": "OG000", "value": "6.2"}, {"groupId": "OG001", "value": "3.1"}]}]}]}]}, "adverseEventsModule": {"frequencyThreshold": "5", "timeFrame": "First dose of study drug to last dose of study drug (up to 79 weeks) + 4 weeks", "description": "Safety population was defined as all randomized participants who had received at least 1 dose of the double-blind investigational medicinal product (IMP). Hypoglycemia was captured and handled separately from other adverse events and is reported in the outcome measure section.", "eventGroups": [{"id": "EG000", "title": "Placebo + Metformin", "description": "Following a 2-week run-in period, matching placebo was administered as 2 tablets, once daily, before the first meal of the day plus Metformin as prescribed by the Principal Investigator for up to 26 weeks in the double-blind Core Treatment Period, and participants continued the same treatment in the double-blind Extension Period for up to 53 weeks.", "deathsNumAffected": 1, "deathsNumAtRisk": 259, "seriousNumAffected": 23, "seriousNumAtRisk": 259, "otherNumAffected": 109, "otherNumAtRisk": 259}, {"id": "EG001", "title": "Sotagliflozin 400 mg + Metformin", "description": "Following a 2-week run-in period, Sotagliflozin 400 mg was administered as 2 tablets, once daily, before the first meal of the day plus Metformin as prescribed by the Principal Investigator for up to 26 weeks in the double-blind Core Treatment Period, and participants continued the same treatment in the double-blind Extension Period for up to 53 weeks.", "deathsNumAffected": 3, "deathsNumAtRisk": 259, "seriousNumAffected": 19, "seriousNumAtRisk": 259, "otherNumAffected": 85, "otherNumAtRisk": 259}], "seriousEvents": [{"term": "Biliary neoplasm", "organSystem": "Neoplasms benign, malignant and unspecified (incl cysts and polyps)", "sourceVocabulary": "MedDRA (22.0)", "assessmentType": "SYSTEMATIC_ASSESSMENT", "stats": [{"groupId": "EG000", "numAffected": 0, "numAtRisk": 259}, {"groupId": "EG001", "numAffected": 1, "numAtRisk": 259}]}, {"term": "Intraductal papillary mucinous neoplasm", "organSystem": "Neoplasms benign, malignant and unspecified (incl cysts and polyps)", "sourceVocabulary": "MedDRA (22.0)", "assessmentType": "SYSTEMATIC_ASSESSMENT", "stats": [{"groupId": "EG000", "numAffected": 1, "numAtRisk": 259}, {"groupId": "EG001", "numAffected": 0, "numAtRisk": 259}]}, {"term": "Invasive breast carcinoma", "organSystem": "Neoplasms benign, malignant and unspecified (incl cysts and polyps)", "sourceVocabulary": "MedDRA (22.0)", "assessmentType": "SYSTEMATIC_ASSESSMENT", "stats": [{"groupId": "EG000", "numAffected": 1, "numAtRisk": 259}, {"groupId": "EG001", "numAffected": 0, "numAtRisk": 259}]}, {"term": "Papillary thyroid cancer", "organSystem": "Neoplasms benign, malignant and unspecified (incl cysts and polyps)", "sourceVocabulary": "MedDRA (22.0)", "assessmentType": "SYSTEMATIC_ASSESSMENT", "stats": [{"groupId": "EG000", "numAffected": 0, "numAtRisk": 259}, {"groupId": "EG001", "numAffected": 1, "numAtRisk": 259}]}, {"term": "Renal oncocytoma", "organSystem": "Neoplasms benign, malignant and unspecified (incl cysts and polyps)", "sourceVocabulary": "MedDRA (22.0)", "assessmentType": "SYSTEMATIC_ASSESSMENT", "stats": [{"groupId": "EG000", "numAffected": 0, "numAtRisk": 259}, {"groupId": "EG001", "numAffected": 1, "numAtRisk": 259}]}, {"term": "Salivary gland cancer recurrent", "organSystem": "Neoplasms benign, malignant and unspecified (incl cysts and polyps)", "sourceVocabulary": "MedDRA (22.0)", "assessmentType": "SYSTEMATIC_ASSESSMENT", "stats": [{"groupId": "EG000", "numAffected": 1, "numAtRisk": 259}, {"groupId": "EG001", "numAffected": 0, "numAtRisk": 259}]}, {"term": "Squamous cell carcinoma of skin", "organSystem": "Neoplasms benign, malignant and unspecified (incl cysts and polyps)", "sourceVocabulary": "MedDRA (22.0)", "assessmentType": "SYSTEMATIC_ASSESSMENT", "stats": [{"groupId": "EG000", "numAffected": 1, "numAtRisk": 259}, {"groupId": "EG001", "numAffected": 0, "numAtRisk": 259}]}, {"term": "Transitional cell carcinoma", "organSystem": "Neoplasms benign, malignant and unspecified (incl cysts and polyps)", "sourceVocabulary": "MedDRA (22.0)", "assessmentType": "SYSTEMATIC_ASSESSMENT", "stats": [{"groupId": "EG000", "numAffected": 0, "numAtRisk": 259}, {"groupId": "EG001", "numAffected": 1, "numAtRisk": 259}]}, {"term": "Uterine leiomyoma", "organSystem": "Neoplasms benign, malignant and unspecified (incl cysts and polyps)", "sourceVocabulary": "MedDRA (22.0)", "assessmentType": "SYSTEMATIC_ASSESSMENT", "stats": [{"groupId": "EG000", "numAffected": 0, "numAtRisk": 259}, {"groupId": "EG001", "numAffected": 1, "numAtRisk": 259}]}, {"term": "Chest discomfort", "organSystem": "General disorders", "sourceVocabulary": "MedDRA (22.0)", "assessmentType": "SYSTEMATIC_ASSESSMENT", "stats": [{"groupId": "EG000", "numAffected": 1, "numAtRisk": 259}, {"groupId": "EG001", "numAffected": 0, "numAtRisk": 259}]}, {"term": "Non-cardiac chest pain", "organSystem": "General disorders", "sourceVocabulary": "MedDRA (22.0)", "assessmentType": "SYSTEMATIC_ASSESSMENT", "stats": [{"groupId": "EG000", "numAffected": 0, "numAtRisk": 259}, {"groupId": "EG001", "numAffected": 2, "numAtRisk": 259}]}, {"term": "Pyrexia", "organSystem": "General disorders", "sourceVocabulary": "MedDRA (22.0)", "assessmentType": "SYSTEMATIC_ASSESSMENT", "stats": [{"groupId": "EG000", "numAffected": 1, "numAtRisk": 259}, {"groupId": "EG001", "numAffected": 0, "numAtRisk": 259}]}, {"term": "Cervical polyp", "organSystem": "Reproductive system and breast disorders", "sourceVocabulary": "MedDRA (22.0)", "assessmentType": "SYSTEMATIC_ASSESSMENT", "stats": [{"groupId": "EG000", "numAffected": 0, "numAtRisk": 259}, {"groupId": "EG001", "numAffected": 1, "numAtRisk": 259}]}, {"term": "Colpocele", "organSystem": "Reproductive system and breast disorders", "sourceVocabulary": "MedDRA (22.0)", "assessmentType": "SYSTEMATIC_ASSESSMENT", "stats": [{"groupId": "EG000", "numAffected": 0, "numAtRisk": 259}, {"groupId": "EG001", "numAffected": 1, "numAtRisk": 259}]}, {"term": "Acetabulum fracture", "organSystem": "Injury, poisoning and procedural complications", "sourceVocabulary": "MedDRA (22.0)", "assessmentType": "SYSTEMATIC_ASSESSMENT", "stats": [{"groupId": "EG000", "numAffected": 0, "numAtRisk": 259}, {"groupId": "EG001", "numAffected": 1, "numAtRisk": 259}]}, {"term": "Road traffic accident", "organSystem": "Injury, poisoning and procedural complications", "sourceVocabulary": "MedDRA (22.0)", "assessmentType": "SYSTEMATIC_ASSESSMENT", "stats": [{"groupId": "EG000", "numAffected": 1, "numAtRisk": 259}, {"groupId": "EG001", "numAffected": 0, "numAtRisk": 259}]}, {"term": "Alanine aminotransferase increased", "organSystem": "Investigations", "sourceVocabulary": "MedDRA (22.0)", "assessmentType": "SYSTEMATIC_ASSESSMENT", "stats": [{"groupId": "EG000", "numAffected": 1, "numAtRisk": 259}, {"groupId": "EG001", "numAffected": 0, "numAtRisk": 259}]}, {"term": "Blood bilirubin increased", "organSystem": "Investigations", "sourceVocabulary": "MedDRA (22.0)", "assessmentType": "SYSTEMATIC_ASSESSMENT", "stats": [{"groupId": "EG000", "numAffected": 0, "numAtRisk": 259}, {"groupId": "EG001", "numAffected": 1, "numAtRisk": 259}]}, {"term": "Acute myocardial infarction", "organSystem": "Cardiac disorders", "sourceVocabulary": "MedDRA (22.0)", "assessmentType": "SYSTEMATIC_ASSESSMENT", "stats": [{"groupId": "EG000", "numAffected": 0, "numAtRisk": 259}, {"groupId": "EG001", "numAffected": 1, "numAtRisk": 259}]}, {"term": "Angina pectoris", "organSystem": "Cardiac disorders", "sourceVocabulary": "MedDRA (22.0)", "assessmentType": "SYSTEMATIC_ASSESSMENT", "stats": [{"groupId": "EG000", "numAffected": 0, "numAtRisk": 259}, {"groupId": "EG001", "numAffected": 2, "numAtRisk": 259}]}, {"term": "Atrial fibrillation", "organSystem": "Cardiac disorders", "sourceVocabulary": "MedDRA (22.0)", "assessmentType": "SYSTEMATIC_ASSESSMENT", "stats": [{"groupId": "EG000", "numAffected": 1, "numAtRisk": 259}, {"groupId": "EG001", "numAffected": 0, "numAtRisk": 259}]}, {"term": "Cardiopulmonary failure", "organSystem": "Cardiac disorders", "sourceVocabulary": "MedDRA (22.0)", "assessmentType": "SYSTEMATIC_ASSESSMENT", "stats": [{"groupId": "EG000", "numAffected": 0, "numAtRisk": 259}, {"groupId": "EG001", "numAffected": 1, "numAtRisk": 259}]}, {"term": "Coronary artery disease", "organSystem": "Cardiac disorders", "sourceVocabulary": "MedDRA (22.0)", "assessmentType": "SYSTEMATIC_ASSESSMENT", "stats": [{"groupId": "EG000", "numAffected": 1, "numAtRisk": 259}, {"groupId": "EG001", "numAffected": 1, "numAtRisk": 259}]}, {"term": "Myocardial infarction", "organSystem": "Cardiac disorders", "sourceVocabulary": "MedDRA (22.0)", "assessmentType": "SYSTEMATIC_ASSESSMENT", "stats": [{"groupId": "EG000", "numAffected": 2, "numAtRisk": 259}, {"groupId": "EG001", "numAffected": 0, "numAtRisk": 259}]}, {"term": "Sinus tachycardia", "organSystem": "Cardiac disorders", "sourceVocabulary": "MedDRA (22.0)", "assessmentType": "SYSTEMATIC_ASSESSMENT", "stats": [{"groupId": "EG000", "numAffected": 1, "numAtRisk": 259}, {"groupId": "EG001", "numAffected": 0, "numAtRisk": 259}]}, {"term": "Acute respiratory failure", "organSystem": "Respiratory, thoracic and mediastinal disorders", "sourceVocabulary": "MedDRA (22.0)", "assessmentType": "SYSTEMATIC_ASSESSMENT", "stats": [{"groupId": "EG000", "numAffected": 1, "numAtRisk": 259}, {"groupId": "EG001", "numAffected": 0, "numAtRisk": 259}]}, {"term": "Asthma", "organSystem": "Respiratory, thoracic and mediastinal disorders", "sourceVocabulary": "MedDRA (22.0)", "assessmentType": "SYSTEMATIC_ASSESSMENT", "stats": [{"groupId": "EG000", "numAffected": 0, "numAtRisk": 259}, {"groupId": "EG001", "numAffected": 1, "numAtRisk": 259}]}, {"term": "Dyspnoea", "organSystem": "Respiratory, thoracic and mediastinal disorders", "sourceVocabulary": "MedDRA (22.0)", "assessmentType": "SYSTEMATIC_ASSESSMENT", "stats": [{"groupId": "EG000", "numAffected": 0, "numAtRisk": 259}, {"groupId": "EG001", "numAffected": 1, "numAtRisk": 259}]}, {"term": "Carotid artery stenosis", "organSystem": "Nervous system disorders", "sourceVocabulary": "MedDRA (22.0)", "assessmentType": "SYSTEMATIC_ASSESSMENT", "stats": [{"groupId": "EG000", "numAffected": 1, "numAtRisk": 259}, {"groupId": "EG001", "numAffected": 0, "numAtRisk": 259}]}, {"term": "Cerebellar stroke", "organSystem": "Nervous system disorders", "sourceVocabulary": "MedDRA (22.0)", "assessmentType": "SYSTEMATIC_ASSESSMENT", "stats": [{"groupId": "EG000", "numAffected": 1, "numAtRisk": 259}, {"groupId": "EG001", "numAffected": 0, "numAtRisk": 259}]}, {"term": "Cerebral artery thrombosis", "organSystem": "Nervous system disorders", "sourceVocabulary": "MedDRA (22.0)", "assessmentType": "SYSTEMATIC_ASSESSMENT", "stats": [{"groupId": "EG000", "numAffected": 0, "numAtRisk": 259}, {"groupId": "EG001", "numAffected": 1, "numAtRisk": 259}]}, {"term": "Cerebrovascular accident", "organSystem": "Nervous system disorders", "sourceVocabulary": "MedDRA (22.0)", "assessmentType": "SYSTEMATIC_ASSESSMENT", "stats": [{"groupId": "EG000", "numAffected": 1, "numAtRisk": 259}, {"groupId": "EG001", "numAffected": 1, "numAtRisk": 259}]}, {"term": "Haemorrhagic cerebral infarction", "organSystem": "Nervous system disorders", "sourceVocabulary": "MedDRA (22.0)", "assessmentType": "SYSTEMATIC_ASSESSMENT", "stats": [{"groupId": "EG000", "numAffected": 1, "numAtRisk": 259}, {"groupId": "EG001", "numAffected": 0, "numAtRisk": 259}]}, {"term": "Intracranial venous sinus thrombosis", "organSystem": "Nervous system disorders", "sourceVocabulary": "MedDRA (22.0)", "assessmentType": "SYSTEMATIC_ASSESSMENT", "stats": [{"groupId": "EG000", "numAffected": 1, "numAtRisk": 259}, {"groupId": "EG001", "numAffected": 0, "numAtRisk": 259}]}, {"term": "Metabolic encephalopathy", "organSystem": "Nervous system disorders", "sourceVocabulary": "MedDRA (22.0)", "assessmentType": "SYSTEMATIC_ASSESSMENT", "stats": [{"groupId": "EG000", "numAffected": 0, "numAtRisk": 259}, {"groupId": "EG001", "numAffected": 1, "numAtRisk": 259}]}, {"term": "Subarachnoid haemorrhage", "organSystem": "Nervous system disorders", "sourceVocabulary": "MedDRA (22.0)", "assessmentType": "SYSTEMATIC_ASSESSMENT", "stats": [{"groupId": "EG000", "numAffected": 1, "numAtRisk": 259}, {"groupId": "EG001", "numAffected": 0, "numAtRisk": 259}]}, {"term": "Syncope", "organSystem": "Nervous system disorders", "sourceVocabulary": "MedDRA (22.0)", "assessmentType": "SYSTEMATIC_ASSESSMENT", "stats": [{"groupId": "EG000", "numAffected": 1, "numAtRisk": 259}, {"groupId": "EG001", "numAffected": 0, "numAtRisk": 259}]}, {"term": "Pancreatitis acute", "organSystem": "Gastrointestinal disorders", "sourceVocabulary": "MedDRA (22.0)", "assessmentType": "SYSTEMATIC_ASSESSMENT", "stats": [{"groupId": "EG000", "numAffected": 1, "numAtRisk": 259}, {"groupId": "EG001", "numAffected": 0, "numAtRisk": 259}]}, {"term": "Cholecystitis acute", "organSystem": "Hepatobiliary disorders", "sourceVocabulary": "MedDRA (22.0)", "assessmentType": "SYSTEMATIC_ASSESSMENT", "stats": [{"groupId": "EG000", "numAffected": 1, "numAtRisk": 259}, {"groupId": "EG001", "numAffected": 0, "numAtRisk": 259}]}, {"term": "Acute kidney injury", "organSystem": "Renal and urinary disorders", "sourceVocabulary": "MedDRA (22.0)", "assessmentType": "SYSTEMATIC_ASSESSMENT", "stats": [{"groupId": "EG000", "numAffected": 0, "numAtRisk": 259}, {"groupId": "EG001", "numAffected": 1, "numAtRisk": 259}]}, {"term": "Calculus urethral", "organSystem": "Renal and urinary disorders", "sourceVocabulary": "MedDRA (22.0)", "assessmentType": "SYSTEMATIC_ASSESSMENT", "stats": [{"groupId": "EG000", "numAffected": 0, "numAtRisk": 259}, {"groupId": "EG001", "numAffected": 1, "numAtRisk": 259}]}, {"term": "Renal cyst", "organSystem": "Renal and urinary disorders", "sourceVocabulary": "MedDRA (22.0)", "assessmentType": "SYSTEMATIC_ASSESSMENT", "stats": [{"groupId": "EG000", "numAffected": 0, "numAtRisk": 259}, {"groupId": "EG001", "numAffected": 1, "numAtRisk": 259}]}, {"term": "Renal failure", "organSystem": "Renal and urinary disorders", "sourceVocabulary": "MedDRA (22.0)", "assessmentType": "SYSTEMATIC_ASSESSMENT", "stats": [{"groupId": "EG000", "numAffected": 1, "numAtRisk": 259}, {"groupId": "EG001", "numAffected": 0, "numAtRisk": 259}]}, {"term": "Ureterolithiasis", "organSystem": "Renal and urinary disorders", "sourceVocabulary": "MedDRA (22.0)", "assessmentType": "SYSTEMATIC_ASSESSMENT", "stats": [{"groupId": "EG000", "numAffected": 1, "numAtRisk": 259}, {"groupId": "EG001", "numAffected": 0, "numAtRisk": 259}]}, {"term": "Neurodermatitis", "organSystem": "Skin and subcutaneous tissue disorders", "sourceVocabulary": "MedDRA (22.0)", "assessmentType": "SYSTEMATIC_ASSESSMENT", "stats": [{"groupId": "EG000", "numAffected": 0, "numAtRisk": 259}, {"groupId": "EG001", "numAffected": 1, "numAtRisk": 259}]}, {"term": "Arthritis", "organSystem": "Musculoskeletal and connective tissue disorders", "sourceVocabulary": "MedDRA (22.0)", "assessmentType": "SYSTEMATIC_ASSESSMENT", "stats": [{"groupId": "EG000", "numAffected": 0, "numAtRisk": 259}, {"groupId": "EG001", "numAffected": 1, "numAtRisk": 259}]}, {"term": "Back pain", "organSystem": "Musculoskeletal and connective tissue disorders", "sourceVocabulary": "MedDRA (22.0)", "assessmentType": "SYSTEMATIC_ASSESSMENT", "stats": [{"groupId": "EG000", "numAffected": 1, "numAtRisk": 259}, {"groupId": "EG001", "numAffected": 0, "numAtRisk": 259}]}, {"term": "Osteoarthritis", "organSystem": "Musculoskeletal and connective tissue disorders", "sourceVocabulary": "MedDRA (22.0)", "assessmentType": "SYSTEMATIC_ASSESSMENT", "stats": [{"groupId": "EG000", "numAffected": 2, "numAtRisk": 259}, {"groupId": "EG001", "numAffected": 0, "numAtRisk": 259}]}, {"term": "Dehydration", "organSystem": "Metabolism and nutrition disorders", "sourceVocabulary": "MedDRA (22.0)", "assessmentType": "SYSTEMATIC_ASSESSMENT", "stats": [{"groupId": "EG000", "numAffected": 1, "numAtRisk": 259}, {"groupId": "EG001", "numAffected": 0, "numAtRisk": 259}]}, {"term": "Abscess limb", "organSystem": "Infections and infestations", "sourceVocabulary": "MedDRA (22.0)", "assessmentType": "SYSTEMATIC_ASSESSMENT", "stats": [{"groupId": "EG000", "numAffected": 1, "numAtRisk": 259}, {"groupId": "EG001", "numAffected": 0, "numAtRisk": 259}]}, {"term": "Cellulitis", "organSystem": "Infections and infestations", "sourceVocabulary": "MedDRA (22.0)", "assessmentType": "SYSTEMATIC_ASSESSMENT", "stats": [{"groupId": "EG000", "numAffected": 1, "numAtRisk": 259}, {"groupId": "EG001", "numAffected": 0, "numAtRisk": 259}]}, {"term": "Device related infection", "organSystem": "Infections and infestations", "sourceVocabulary": "MedDRA (22.0)", "assessmentType": "SYSTEMATIC_ASSESSMENT", "stats": [{"groupId": "EG000", "numAffected": 1, "numAtRisk": 259}, {"groupId": "EG001", "numAffected": 0, "numAtRisk": 259}]}, {"term": "Diverticulitis", "organSystem": "Infections and infestations", "sourceVocabulary": "MedDRA (22.0)", "assessmentType": "SYSTEMATIC_ASSESSMENT", "stats": [{"groupId": "EG000", "numAffected": 1, "numAtRisk": 259}, {"groupId": "EG001", "numAffected": 0, "numAtRisk": 259}]}, {"term": "Influenza", "organSystem": "Infections and infestations", "sourceVocabulary": "MedDRA (22.0)", "assessmentType": "SYSTEMATIC_ASSESSMENT", "stats": [{"groupId": "EG000", "numAffected": 0, "numAtRisk": 259}, {"groupId": "EG001", "numAffected": 1, "numAtRisk": 259}]}, {"term": "Osteomyelitis", "organSystem": "Infections and infestations", "sourceVocabulary": "MedDRA (22.0)", "assessmentType": "SYSTEMATIC_ASSESSMENT", "stats": [{"groupId": "EG000", "numAffected": 0, "numAtRisk": 259}, {"groupId": "EG001", "numAffected": 2, "numAtRisk": 259}]}, {"term": "Pneumonia", "organSystem": "Infections and infestations", "sourceVocabulary": "MedDRA (22.0)", "assessmentType": "SYSTEMATIC_ASSESSMENT", "stats": [{"groupId": "EG000", "numAffected": 1, "numAtRisk": 259}, {"groupId": "EG001", "numAffected": 3, "numAtRisk": 259}]}, {"term": "Septic shock", "organSystem": "Infections and infestations", "sourceVocabulary": "MedDRA (22.0)", "assessmentType": "SYSTEMATIC_ASSESSMENT", "stats": [{"groupId": "EG000", "numAffected": 1, "numAtRisk": 259}, {"groupId": "EG001", "numAffected": 0, "numAtRisk": 259}]}, {"term": "Urinary tract infection", "organSystem": "Infections and infestations", "sourceVocabulary": "MedDRA (22.0)", "assessmentType": "SYSTEMATIC_ASSESSMENT", "stats": [{"groupId": "EG000", "numAffected": 1, "numAtRisk": 259}, {"groupId": "EG001", "numAffected": 0, "numAtRisk": 259}]}], "otherEvents": [{"term": "Hypertension", "organSystem": "Vascular disorders", "sourceVocabulary": "MedDRA (22.0)", "assessmentType": "SYSTEMATIC_ASSESSMENT", "stats": [{"groupId": "EG000", "numAffected": 13, "numAtRisk": 259}, {"groupId": "EG001", "numAffected": 3, "numAtRisk": 259}]}, {"term": "Headache", "organSystem": "Nervous system disorders", "sourceVocabulary": "MedDRA (22.0)", "assessmentType": "SYSTEMATIC_ASSESSMENT", "stats": [{"groupId": "EG000", "numAffected": 15, "numAtRisk": 259}, {"groupId": "EG001", "numAffected": 6, "numAtRisk": 259}]}, {"term": "Diarrhoea", "organSystem": "Gastrointestinal disorders", "sourceVocabulary": "MedDRA (22.0)", "assessmentType": "SYSTEMATIC_ASSESSMENT", "stats": [{"groupId": "EG000", "numAffected": 11, "numAtRisk": 259}, {"groupId": "EG001", "numAffected": 22, "numAtRisk": 259}]}, {"term": "Back pain", "organSystem": "Musculoskeletal and connective tissue disorders", "sourceVocabulary": "MedDRA (22.0)", "assessmentType": "SYSTEMATIC_ASSESSMENT", "stats": [{"groupId": "EG000", "numAffected": 19, "numAtRisk": 259}, {"groupId": "EG001", "numAffected": 8, "numAtRisk": 259}]}, {"term": "Vitamin D deficiency", "organSystem": "Metabolism and nutrition disorders", "sourceVocabulary": "MedDRA (22.0)", "assessmentType": "SYSTEMATIC_ASSESSMENT", "stats": [{"groupId": "EG000", "numAffected": 19, "numAtRisk": 259}, {"groupId": "EG001", "numAffected": 14, "numAtRisk": 259}]}, {"term": "Bronchitis", "organSystem": "Infections and infestations", "sourceVocabulary": "MedDRA (22.0)", "assessmentType": "SYSTEMATIC_ASSESSMENT", "stats": [{"groupId": "EG000", "numAffected": 17, "numAtRisk": 259}, {"groupId": "EG001", "numAffected": 5, "numAtRisk": 259}]}, {"term": "Nasopharyngitis", "organSystem": "Infections and infestations", "sourceVocabulary": "MedDRA (22.0)", "assessmentType": "SYSTEMATIC_ASSESSMENT", "stats": [{"groupId": "EG000", "numAffected": 17, "numAtRisk": 259}, {"groupId": "EG001", "numAffected": 14, "numAtRisk": 259}]}, {"term": "Upper respiratory tract infection", "organSystem": "Infections and infestations", "sourceVocabulary": "MedDRA (22.0)", "assessmentType": "SYSTEMATIC_ASSESSMENT", "stats": [{"groupId": "EG000", "numAffected": 20, "numAtRisk": 259}, {"groupId": "EG001", "numAffected": 20, "numAtRisk": 259}]}, {"term": "Urinary tract infection", "organSystem": "Infections and infestations", "sourceVocabulary": "MedDRA (22.0)", "assessmentType": "SYSTEMATIC_ASSESSMENT", "stats": [{"groupId": "EG000", "numAffected": 15, "numAtRisk": 259}, {"groupId": "EG001", "numAffected": 16, "numAtRisk": 259}]}]}, "moreInfoModule": {"certainAgreement": {"piSponsorEmployee": false, "restrictionType": "OTHER", "restrictiveAgreement": true, "otherDetails": "Institution must provide any proposed publication or presentation to Sponsor for Sponsor's review, comment and approval at least thirty (30) days prior to the proposed submission for publication date or the proposed presentation date. Sponsor shall have the right to have deleted from the final version of the publication any confidential information, proprietary information, or patentable subject matter."}, "pointOfContact": {"title": "Medical Affairs", "organization": "Lexicon Pharmaceuticals, Inc.", "email": "medical-information@lexpharma.com", "phone": "(510) 338-6064"}}}, "documentSection": {"largeDocumentModule": {"largeDocs": [{"typeAbbrev": "Prot", "hasProtocol": true, "hasSap": false, "hasIcf": false, "label": "Study Protocol", "date": "2017-12-21", "uploadDate": "2021-04-12T08:57", "filename": "Prot_000.pdf", "size": 23749047}, {"typeAbbrev": "SAP", "hasProtocol": false, "hasSap": true, "hasIcf": false, "label": "Statistical Analysis Plan", "date": "2019-12-13", "uploadDate": "2021-04-12T09:00", "filename": "SAP_001.pdf", "size": 16184532}]}}, "derivedSection": {"miscInfoModule": {"versionHolder": "2024-06-24"}, "conditionBrowseModule": {"meshes": [{"id": "D000003920", "term": "Diabetes Mellitus"}, {"id": "D000003924", "term": "Diabetes Mellitus, Type 2"}], "ancestors": [{"id": "D000044882", "term": "Glucose Metabolism Disorders"}, {"id": "D000008659", "term": "Metabolic Diseases"}, {"id": "D000004700", "term": "Endocrine System Diseases"}], "browseLeaves": [{"id": "M7115", "name": "Diabetes Mellitus", "asFound": "Diabetes Mellitus", "relevance": "HIGH"}, {"id": "M7119", "name": "Diabetes Mellitus, Type 2", "asFound": "Type 2 Diabetes Mellitus", "relevance": "HIGH"}, {"id": "M11639", "name": "Metabolic Diseases", "relevance": "LOW"}, {"id": "M25403", "name": "Glucose Metabolism Disorders", "relevance": "LOW"}, {"id": "M7862", "name": "Endocrine System Diseases", "relevance": "LOW"}], "browseBranches": [{"abbrev": "BC18", "name": "Nutritional and Metabolic Diseases"}, {"abbrev": "BC19", "name": "Gland and Hormone Related Diseases"}, {"abbrev": "All", "name": "All Conditions"}]}, "interventionBrowseModule": {"meshes": [{"id": "D000008687", "term": "Metformin"}, {"id": "C000575681", "term": "(2S,3R,4R,5S,6R)-2-(4-chloro-3-(4-ethoxybenzyl)phenyl)-6-(methylthio)tetrahydro-2H-pyran-3,4,5-triol"}], "ancestors": [{"id": "D000007004", "term": "Hypoglycemic Agents"}, {"id": "D000045505", "term": "Physiological Effects of Drugs"}, {"id": "D000077203", "term": "Sodium-Glucose Transporter 2 Inhibitors"}, {"id": "D000045504", "term": "Molecular Mechanisms of Pharmacological Action"}], "browseLeaves": [{"id": "M11667", "name": "Metformin", "asFound": "Assessment", "relevance": "HIGH"}, {"id": "M254783", "name": "(2S,3R,4R,5S,6R)-2-(4-chloro-3-(4-ethoxybenzyl)phenyl)-6-(methylthio)tetrahydro-2H-pyran-3,4,5-triol", "asFound": "BAY 43-9006", "relevance": "HIGH"}, {"id": "M10054", "name": "Hypoglycemic Agents", "relevance": "LOW"}, {"id": "M1691", "name": "Sodium-Glucose Transporter 2 Inhibitors", "relevance": "LOW"}], "browseBranches": [{"abbrev": "Hypo", "name": "Hypoglycemic Agents"}, {"abbrev": "All", "name": "All Drugs and Chemicals"}]}}, "hasResults": true}