{"protocolSection": {"identificationModule": {"nctId": "NCT00676338", "orgStudyIdInfo": {"id": "H8O-MC-GWCH (DURATION - 4)"}, "organization": {"fullName": "AstraZeneca", "class": "INDUSTRY"}, "briefTitle": "Safety and Efficacy of Exenatide Once Weekly Injection Versus Metformin, Dipeptidyl Peptidase-4 Inhibitor, or Thiazolidinedione as Monotherapy in Drug-Naive Patients With Type 2 Diabetes (DURATION-4)", "officialTitle": "Safety and Efficacy of Exenatide Once Weekly Injection Versus Metformin, Dipeptidyl Peptidase-4 Inhibitor, or Thiazolidinedione as Monotherapy in Drug-Naive Patients With Type 2 Diabetes"}, "statusModule": {"statusVerifiedDate": "2015-03", "overallStatus": "COMPLETED", "expandedAccessInfo": {"hasExpandedAccess": false}, "startDateStruct": {"date": "2008-11"}, "primaryCompletionDateStruct": {"date": "2010-07", "type": "ACTUAL"}, "completionDateStruct": {"date": "2011-01", "type": "ACTUAL"}, "studyFirstSubmitDate": "2008-05-09", "studyFirstSubmitQcDate": "2008-05-09", "studyFirstPostDateStruct": {"date": "2008-05-13", "type": "ESTIMATED"}, "resultsFirstSubmitDate": "2012-02-14", "resultsFirstSubmitQcDate": "2012-10-24", "resultsFirstPostDateStruct": {"date": "2012-11-26", "type": "ESTIMATED"}, "dispFirstSubmitDate": "2011-06-15", "dispFirstSubmitQcDate": "2011-06-17", "dispFirstPostDateStruct": {"date": "2011-06-27", "type": "ESTIMATED"}, "lastUpdateSubmitDate": "2015-03-20", "lastUpdatePostDateStruct": {"date": "2015-04-09", "type": "ESTIMATED"}}, "sponsorCollaboratorsModule": {"responsibleParty": {"type": "SPONSOR"}, "leadSponsor": {"name": "AstraZeneca", "class": "INDUSTRY"}, "collaborators": [{"name": "Eli Lilly and Company", "class": "INDUSTRY"}]}, "oversightModule": {"oversightHasDmc": false}, "descriptionModule": {"briefSummary": "This study will compare the effects of 2.0 mg exenatide once weekly injection as monotherapy to 3 active comparators(metformin, dipeptidyl peptidase-4 inhibitor, and thiazolidinedione) in drug naive patients with type 2 diabetes treated with diet and exercise."}, "conditionsModule": {"conditions": ["Type 2 Diabetes Mellitus"], "keywords": ["Amylin", "Lilly", "exenatide once weekly", "Byetta", "Januvia", "sitagliptin", "thiazolidinedione"]}, "designModule": {"studyType": "INTERVENTIONAL", "phases": ["PHASE3"], "designInfo": {"allocation": "RANDOMIZED", "interventionModel": "PARALLEL", "primaryPurpose": "TREATMENT", "maskingInfo": {"masking": "DOUBLE", "whoMasked": ["PARTICIPANT", "INVESTIGATOR"]}}, "enrollmentInfo": {"count": 820, "type": "ACTUAL"}}, "armsInterventionsModule": {"armGroups": [{"label": "Exenatide Once Weekly", "type": "EXPERIMENTAL", "interventionNames": ["Drug: exenatide once weekly"]}, {"label": "Metformin", "type": "ACTIVE_COMPARATOR", "interventionNames": ["Drug: metformin"]}, {"label": "Sitagliptin", "type": "ACTIVE_COMPARATOR", "interventionNames": ["Drug: sitagliptin"]}, {"label": "Pioglitazone", "type": "ACTIVE_COMPARATOR", "interventionNames": ["Drug: pioglitazone"]}], "interventions": [{"type": "DRUG", "name": "exenatide once weekly", "description": "subcutaneous injection, 2mg, once weekly plus placebo oral once daily", "armGroupLabels": ["Exenatide Once Weekly"]}, {"type": "DRUG", "name": "metformin", "description": "oral, 1000-2500mg, daily plus placebo once weekly subcutaneous injection", "armGroupLabels": ["Metformin"]}, {"type": "DRUG", "name": "sitagliptin", "description": "oral, 100 mg, daily plus placebo once weekly subcutaneous injection", "armGroupLabels": ["Sitagliptin"]}, {"type": "DRUG", "name": "pioglitazone", "description": "oral, 30-45mg, daily plus placebo once weekly subcutaneous injection", "armGroupLabels": ["Pioglitazone"]}]}, "outcomesModule": {"primaryOutcomes": [{"measure": "Change in HbA1c From Baseline to Week 26", "description": "Change in HbA1c from baseline to Week 26.", "timeFrame": "Baseline, Week 26"}, {"measure": "Percentage of Patients Achieving HbA1c <=7% at Week 26", "description": "Percentage of patients achieving HbA1c \\<=7% at Week 26 (for patients with baseline HbA1c \\>7%).", "timeFrame": "Baseline, Week 26"}], "secondaryOutcomes": [{"measure": "Change in Fasting Serum Glucose (FSG) From Baseline to Week 26", "description": "Change in FSG from baseline to Week 26.", "timeFrame": "Baseline, Week 26"}, {"measure": "Change in Body Weight From Baseline to Week 26", "description": "Change in Body Weight from baseline to Week 26.", "timeFrame": "Baseline, Week 26"}, {"measure": "Change in Fasting Total Cholesterol (TC) From Baseline to Week 26", "description": "Change in Fasting TC from baseline to Week 26.", "timeFrame": "Baseline, Week 26"}, {"measure": "Change in Fasting High-Density Lipoprotein (HDL) From Baseline to Week 26", "description": "Change in Fasting HDL from baseline to Week 26.", "timeFrame": "Baseline, Week 26"}, {"measure": "Ratio of Fasting Triglycerides at Week 26 to Baseline", "description": "Ratio of Fasting Triglycerides (measured in mmol/L) at Week 26 to baseline. Log(Post-baseline Triglycerides) - log(Baseline Triglycerides); change from baseline to Week 26 is presented as ratio of endpoint to baseline.", "timeFrame": "Baseline, Week 26"}, {"measure": "Assessment on Event Rate of Treatment-emergent Major Hypoglycemic Events", "description": "Major hypoglycemia is defined as any event that has symptoms consistent with hypoglycemia resulting in loss of consciousness or seizure that shows prompt recovery in response to administration of glucagon or glucose, or documented hypoglycemia (blood glucose \\<3.0 mmol/L \\[54 mg/dL\\]) requiring the assistance of another person because of severe impairment in consciousness or behavior (whether or not symptoms of hypoglycemia are detected by the patient). Mean event rate = total number of events for all subjects in a treatment regimen / the total number of subject years of exposure for all subjects in that treatment. Standard error = square root of (total number of events / (subject years of exposure)\\*\\*2).", "timeFrame": "Baseline to Week 26"}, {"measure": "Assessment on Event Rate of Treatment-Emergent Minor Hypoglycemic Events", "description": "Minor hypoglycemia is defined as a sign or symptom associated with hypoglycemia that is either self-treated by the patient or resolves on its own AND has a concurrent finger stick blood glucose \\<3.0 mmol/L (54 mg/dL) and not classified as major hypoglycemia. Mean event rate = total number of events for all subjects in a treatment regimen / the total number of subject years of exposure for all subjects in that treatment. Standard error = square root of (total number of events / (subject years of exposure)\\*\\*2).", "timeFrame": "Baseline to Week 26"}, {"measure": "Change in Systolic Blood Pressure From Baseline to Week 26.", "description": "Change in Systolic Blood Pressure from baseline to Week 26.", "timeFrame": "Baseline, Week 26"}, {"measure": "Change in Diastolic Blood Pressure From Baseline to Week 26.", "description": "Change in Diastolic Blood Pressure from baseline to Week 26.", "timeFrame": "Baseline, Week 26"}]}, "eligibilityModule": {"eligibilityCriteria": "Inclusion Criteria:\n\n* have type 2 diabetes and are treated with diet and exercise alone.\n* at least 18 years of age.\n* HbA1c between 7.1% and 11.0%, inclusive.\n* Body mass index (BMI) of 23 kg/m2 to 45 kg/m2, inclusive.\n* Have a history of stable body weight (not varying by \\>5% for at least 3 months prior to screening).\n\nExclusion Criteria:\n\n* Have history of cardiac disease or presence of active cardiac disease within the year prior to inclusion in the study including myocardial infarction, clinically significant arrhythmia, unstable angina, moderate to severe congestive heart failure, coronary artery bypass surgery, or angioplasty\n* Have a history of renal transplantation or are currently receiving renal dialysis\n* Have active or untreated malignancy, or have been in remission from clinically significant malignancy (other than basal cell or squamous cell skin cancer, in situ carcinomas of the cervix, or in situ prostate cancer) for less than 5 years.\n* Have history of severe GI disorder (e.g., gastroparesis)\n* Have a history of acute or chronic pancreatitis.\n* Have active proliferative retinopathy.\n* Have been treated with drugs that promote weight loss (e.g., Xenical\u00ae\\[orlistat\\], Meridia\u00ae \\[sibutramine\\], Acomplia\u00ae \\[rimonabant\\], Acutrim\u00ae \\[phenylpropanolamine\\], or similar over-the-counter medications) within 3 months of screening.\n* Have been treated with any antidiabetic agent for more than 7 days within 3 months prior to screening.\n* Have had an organ transplant.\n* Have previously completed or discontinued study drug in this study, withdrawn from this study or any other study investigating exenatide once weekly.\n* Have received treatment within the last 30 days with a drug that has not received regulatory approval for any indication at the time of study entry.\n* Are currently enrolled in any other clinical study.", "healthyVolunteers": false, "sex": "ALL", "minimumAge": "18 Years", "stdAges": ["ADULT", "OLDER_ADULT"]}, "contactsLocationsModule": {"overallOfficials": [{"name": "Chief Medical Officer, MD", "affiliation": "Eli Lilly and Company", "role": "STUDY_DIRECTOR"}], "locations": [{"facility": "Research Site", "city": "Buena Park", "state": "California", "country": "United States", "geoPoint": {"lat": 33.86751, "lon": -117.99812}}, {"facility": "Research Site", "city": "Los Angeles", "state": "California", "country": "United States", "geoPoint": {"lat": 34.05223, "lon": -118.24368}}, {"facility": "Research Site", "city": "Valencia", "state": "California", "country": "United States", "geoPoint": {"lat": 34.44361, "lon": -118.60953}}, {"facility": "Research Site", "city": "Jacksonville", "state": "Florida", "country": "United States", "geoPoint": {"lat": 30.33218, "lon": -81.65565}}, {"facility": "Research Site", "city": "Atlanta", "state": "Georgia", "country": "United States", "geoPoint": {"lat": 33.749, "lon": -84.38798}}, {"facility": "Research Site", "city": "Meridian", "state": "Idaho", "country": "United States", "geoPoint": {"lat": 43.61211, "lon": -116.39151}}, {"facility": "Research Site", "city": "Des Moines", "state": "Iowa", "country": "United States", "geoPoint": {"lat": 41.60054, "lon": -93.60911}}, {"facility": "Research Site", "city": "Grand Rapids", "state": "Michigan", "country": "United States", "geoPoint": {"lat": 42.96336, "lon": -85.66809}}, {"facility": "Research Site", "city": "Minneapolis", "state": "Minnesota", "country": "United States", "geoPoint": {"lat": 44.97997, "lon": -93.26384}}, {"facility": "Research Site", "city": "Billings", "state": "Montana", "country": "United States", "geoPoint": {"lat": 45.78329, "lon": -108.50069}}, {"facility": "Research Site", "city": "Toms River", "state": "New Jersey", "country": "United States", "geoPoint": {"lat": 39.95373, "lon": -74.19792}}, {"facility": "Research Site", "city": "Wilmington", "state": "North Carolina", "country": "United States", "geoPoint": {"lat": 34.22573, "lon": -77.94471}}, {"facility": "Research Site", "city": "Danville", "state": "Pennsylvania", "country": "United States", "geoPoint": {"lat": 40.96342, "lon": -76.61273}}, {"facility": "Research Site", "city": "Philadelphia", "state": "Pennsylvania", "country": "United States", "geoPoint": {"lat": 39.95233, "lon": -75.16379}}, {"facility": "Research Site", "city": "Wilke Barre", "state": "Pennsylvania", "country": "United States", "geoPoint": {"lat": 41.24591, "lon": -75.88131}}, {"facility": "Research Site", "city": "Austin", "state": "Texas", "country": "United States", "geoPoint": {"lat": 30.26715, "lon": -97.74306}}, {"facility": "Research Site", "city": "El Paso", "state": "Texas", "country": "United States", "geoPoint": {"lat": 31.75872, "lon": -106.48693}}, {"facility": "Research Site", "city": "New Branufels", "state": "Texas", "country": "United States", "geoPoint": {"lat": 29.703, "lon": -98.12445}}, {"facility": "Research Site", "city": "Buenos Aires", "country": "Argentina", "geoPoint": {"lat": -34.61315, "lon": -58.37723}}, {"facility": "Research Site", "city": "Mar del Plata", "country": "Argentina", "geoPoint": {"lat": -38.00228, "lon": -57.55754}}, {"facility": "Research Site", "city": "Leuven", "country": "Belgium", "geoPoint": {"lat": 50.87959, "lon": 4.70093}}, {"facility": "Research Site", "city": "Marchovelette", "country": "Belgium", "geoPoint": {"lat": 50.52303, "lon": 4.94059}}, {"facility": "Research Site", "city": "Tessenderlo", "country": "Belgium", "geoPoint": {"lat": 51.06513, "lon": 5.08856}}, {"facility": "Research Site", "city": "Brasilia", "country": "Brazil", "geoPoint": {"lat": -15.77972, "lon": -47.92972}}, {"facility": "Research Site", "city": "Campinas", "country": "Brazil", "geoPoint": {"lat": -22.90556, "lon": -47.06083}}, {"facility": "Research Site", "city": "Curitiba", "country": "Brazil", "geoPoint": {"lat": -25.42778, "lon": -49.27306}}, {"facility": "Research Site", "city": "Fortaleza", "country": "Brazil", "geoPoint": {"lat": -3.71722, "lon": -38.54306}}, {"facility": "Research Site", "city": "Joinville", "country": "Brazil", "geoPoint": {"lat": -26.30444, "lon": -48.84556}}, {"facility": "Research SIte", "city": "Porto Alegre", "country": "Brazil", "geoPoint": {"lat": -30.03306, "lon": -51.23}}, {"facility": "Research Site", "city": "Recife", "country": "Brazil", "geoPoint": {"lat": -8.05389, "lon": -34.88111}}, {"facility": "Research Site", "city": "Sao Paolo", "country": "Brazil"}, {"facility": "Research Site", "city": "Coquitlam", "state": "British Columbia", "country": "Canada", "geoPoint": {"lat": 49.28297, "lon": -122.75262}}, {"facility": "Research Site", "city": "Penticton", "state": "British Columbia", "country": "Canada", "geoPoint": {"lat": 49.48062, "lon": -119.58584}}, {"facility": "Research Site", "city": "Ottawa", "state": "Ontario", "country": "Canada", "geoPoint": {"lat": 45.41117, "lon": -75.69812}}, {"facility": "Research Site", "city": "Gatineu", "state": "Quebec", "country": "Canada"}, {"facility": "Research Site", "city": "Mississauga", "country": "Canada", "geoPoint": {"lat": 43.5789, "lon": -79.6583}}, {"facility": "Research Site", "city": "Petitcodiac", "country": "Canada", "geoPoint": {"lat": 45.93935, "lon": -65.1802}}, {"facility": "Research Site", "city": "Pointe-Claire", "country": "Canada", "geoPoint": {"lat": 45.44868, "lon": -73.81669}}, {"facility": "Research Site", "city": "Regina", "country": "Canada", "geoPoint": {"lat": 50.45008, "lon": -104.6178}}, {"facility": "Research Site", "city": "Saint John", "country": "Canada", "geoPoint": {"lat": 45.2727, "lon": -66.06769}}, {"facility": "Research Site", "city": "Chateaugiron", "country": "France", "geoPoint": {"lat": 48.04629, "lon": -1.50438}}, {"facility": "Research Site", "city": "Murs Erigne", "country": "France", "geoPoint": {"lat": 47.4, "lon": -0.55}}, {"facility": "Research Site", "city": "Nantes", "country": "France", "geoPoint": {"lat": 47.21725, "lon": -1.55336}}, {"facility": "Research Site", "city": "Vieux Conde", "country": "France", "geoPoint": {"lat": 50.45944, "lon": 3.56738}}, {"facility": "Research Site", "city": "Dresden", "country": "Germany", "geoPoint": {"lat": 51.05089, "lon": 13.73832}}, {"facility": "Research Site", "city": "Mainz", "country": "Germany", "geoPoint": {"lat": 49.98419, "lon": 8.2791}}, {"facility": "Research Site", "city": "Muenster", "country": "Germany", "geoPoint": {"lat": 51.96236, "lon": 7.62571}}, {"facility": "Research Site", "city": "Rodgau", "country": "Germany", "geoPoint": {"lat": 50.02627, "lon": 8.88588}}, {"facility": "Research Site", "city": "Budapest", "country": "Hungary", "geoPoint": {"lat": 47.49801, "lon": 19.03991}}, {"facility": "Research Site", "city": "Gyula", "country": "Hungary", "geoPoint": {"lat": 46.65, "lon": 21.28333}}, {"facility": "Research Site", "city": "Hodmezovasarhely", "country": "Hungary", "geoPoint": {"lat": 46.41667, "lon": 20.33333}}, {"facility": "Research Site", "city": "Pecs", "country": "Hungary", "geoPoint": {"lat": 46.08333, "lon": 18.23333}}, {"facility": "Research Site", "city": "Ahmedabad", "country": "India", "geoPoint": {"lat": 23.02579, "lon": 72.58727}}, {"facility": "Research Site", "city": "Bangalore", "country": "India", "geoPoint": {"lat": 12.97194, "lon": 77.59369}}, {"facility": "Research Site", "city": "Channai", "country": "India"}, {"facility": "Research Site", "city": "Cochin", "country": "India", "geoPoint": {"lat": 9.93988, "lon": 76.26022}}, {"facility": "Research Site", "city": "Mumbai", "country": "India", "geoPoint": {"lat": 19.07283, "lon": 72.88261}}, {"facility": "Research Site", "city": "New Dehli", "country": "India"}, {"facility": "Research SIte", "city": "Pune", "country": "India", "geoPoint": {"lat": 18.51957, "lon": 73.85535}}, {"facility": "Research Site", "city": "Holon", "country": "Israel", "geoPoint": {"lat": 32.01034, "lon": 34.77918}}, {"facility": "Research SIte", "city": "Tel-Hashomer", "country": "Israel", "geoPoint": {"lat": 32.04195, "lon": 34.85623}}, {"facility": "Research Site", "city": "Firenze", "country": "Italy", "geoPoint": {"lat": 43.77925, "lon": 11.24626}}, {"facility": "Research Site", "city": "Milano", "country": "Italy", "geoPoint": {"lat": 45.46427, "lon": 9.18951}}, {"facility": "Research Site", "city": "Siena", "country": "Italy", "geoPoint": {"lat": 43.31822, "lon": 11.33064}}, {"facility": "Research Site", "city": "Busan", "country": "Korea, Republic of", "geoPoint": {"lat": 35.10278, "lon": 129.04028}}, {"facility": "Research Site", "city": "Daegu", "country": "Korea, Republic of", "geoPoint": {"lat": 35.87028, "lon": 128.59111}}, {"facility": "Research Site", "city": "Jeonju", "country": "Korea, Republic of", "geoPoint": {"lat": 35.82194, "lon": 127.14889}}, {"facility": "Research Site", "city": "Seoul", "country": "Korea, Republic of", "geoPoint": {"lat": 37.566, "lon": 126.9784}}, {"facility": "Research Site", "city": "Sungnam", "country": "Korea, Republic of"}, {"facility": "Research Site", "city": "Chihuahua", "country": "Mexico", "geoPoint": {"lat": 28.63528, "lon": -106.08889}}, {"facility": "Research Site", "city": "Guadalajara", "country": "Mexico", "geoPoint": {"lat": 20.66682, "lon": -103.39182}}, {"facility": "Research Site", "city": "Monterrey", "country": "Mexico", "geoPoint": {"lat": 25.67507, "lon": -100.31847}}, {"facility": "Research Site", "city": "Lublin", "country": "Poland", "geoPoint": {"lat": 51.25, "lon": 22.56667}}, {"facility": "Research Site", "city": "Szczecin", "country": "Poland", "geoPoint": {"lat": 53.42894, "lon": 14.55302}}, {"facility": "Research Site", "city": "Wroclaw", "country": "Poland", "geoPoint": {"lat": 51.1, "lon": 17.03333}}, {"facility": "Research Site", "city": "Manati", "country": "Puerto Rico", "geoPoint": {"lat": 18.42745, "lon": -66.49212}}, {"facility": "Research Site", "city": "Toa Baja", "country": "Puerto Rico", "geoPoint": {"lat": 18.44384, "lon": -66.25961}}, {"facility": "Research Site", "city": "Galati", "country": "Romania", "geoPoint": {"lat": 45.45, "lon": 28.05}}, {"facility": "Research Site", "city": "Oradea", "country": "Romania", "geoPoint": {"lat": 47.0458, "lon": 21.91833}}, {"facility": "Research Site", "city": "Targu Mures", "country": "Romania", "geoPoint": {"lat": 46.54245, "lon": 24.55747}}, {"facility": "Research Site", "city": "Arkhangelsk", "country": "Russian Federation", "geoPoint": {"lat": 64.5401, "lon": 40.5433}}, {"facility": "Research Site", "city": "Moscow", "country": "Russian Federation", "geoPoint": {"lat": 55.75222, "lon": 37.61556}}, {"facility": "Research Site", "city": "Rostov-on-Don", "country": "Russian Federation", "geoPoint": {"lat": 47.23135, "lon": 39.72328}}, {"facility": "Research Site", "city": "Saint Petersburg", "country": "Russian Federation", "geoPoint": {"lat": 59.93863, "lon": 30.31413}}, {"facility": "Research Site", "city": "Stavropol", "country": "Russian Federation", "geoPoint": {"lat": 45.0428, "lon": 41.9734}}, {"facility": "Research Site", "city": "Bratislava", "country": "Slovakia", "geoPoint": {"lat": 48.14816, "lon": 17.10674}}, {"facility": "Research Site", "city": "Trebisov", "country": "Slovakia", "geoPoint": {"lat": 48.62858, "lon": 21.71954}}, {"facility": "Research Site", "city": "Johannesburg", "country": "South Africa", "geoPoint": {"lat": -26.20227, "lon": 28.04363}}, {"facility": "Research Site", "city": "Kempton Park", "country": "South Africa", "geoPoint": {"lat": -26.10859, "lon": 28.2377}}, {"facility": "Research Site", "city": "Midrand", "country": "South Africa", "geoPoint": {"lat": -25.98953, "lon": 28.12843}}, {"facility": "Research Site", "city": "Soweto", "country": "South Africa", "geoPoint": {"lat": -26.26781, "lon": 27.85849}}, {"facility": "Research Site", "city": "Alicante", "country": "Spain", "geoPoint": {"lat": 38.34517, "lon": -0.48149}}, {"facility": "Research Site", "city": "Barcelona", "country": "Spain", "geoPoint": {"lat": 41.38879, "lon": 2.15899}}, {"facility": "Research Site", "city": "Madrid", "country": "Spain", "geoPoint": {"lat": 40.4165, "lon": -3.70256}}, {"facility": "Research Site", "city": "Sevilla", "country": "Spain", "geoPoint": {"lat": 37.38283, "lon": -5.97317}}, {"facility": "Research Site", "city": "Ankara", "country": "Turkey", "geoPoint": {"lat": 39.91987, "lon": 32.85427}}, {"facility": "Research Site", "city": "Istanbul", "country": "Turkey", "geoPoint": {"lat": 41.01384, "lon": 28.94966}}, {"facility": "Research Site", "city": "Sisli-Istanbul", "country": "Turkey"}, {"facility": "Research Site", "city": "Bath", "country": "United Kingdom", "geoPoint": {"lat": 51.3751, "lon": -2.36172}}, {"facility": "Research Site", "city": "Birmingham", "country": "United Kingdom", "geoPoint": {"lat": 52.48142, "lon": -1.89983}}, {"facility": "Research Site", "city": "Edinburgh", "country": "United Kingdom", "geoPoint": {"lat": 55.95206, "lon": -3.19648}}, {"facility": "Research Site", "city": "Frome", "country": "United Kingdom", "geoPoint": {"lat": 51.22834, "lon": -2.32211}}, {"facility": "Research Site", "city": "Guildford", "country": "United Kingdom", "geoPoint": {"lat": 51.23536, "lon": -0.57427}}, {"facility": "Research Site", "city": "Hull", "country": "United Kingdom", "geoPoint": {"lat": 53.7446, "lon": -0.33525}}, {"facility": "Research Site", "city": "Sheffield", "country": "United Kingdom", "geoPoint": {"lat": 53.38297, "lon": -1.4659}}, {"facility": "Research Site", "city": "Swansea", "country": "United Kingdom", "geoPoint": {"lat": 51.62079, "lon": -3.94323}}]}, "referencesModule": {"references": [{"pmid": "32306296", "type": "DERIVED", "citation": "Guja C, Frias JP, Suchower L, Hardy E, Marr G, Sjostrom CD, Jabbour SA. Safety and Efficacy of Exenatide Once Weekly in Participants with Type 2 Diabetes and Stage 2/3 Chronic Kidney Disease. Diabetes Ther. 2020 Jul;11(7):1467-1480. doi: 10.1007/s13300-020-00815-z. Epub 2020 Apr 18. Erratum In: Diabetes Ther. 2020 Dec;11(12):3011-3013."}, {"pmid": "23748507", "type": "DERIVED", "citation": "Malloy J, Meloni A, Han J. Efficacy and tolerability of exenatide once weekly versus sitagliptin in patients with type 2 diabetes mellitus: a retrospective analysis of pooled clinical trial data. Postgrad Med. 2013 May;125(3):58-67. doi: 10.3810/pgm.2013.05.2661."}, {"pmid": "23748506", "type": "DERIVED", "citation": "Grimm M, Han J, Weaver C, Griffin P, Schulteis CT, Dong H, Malloy J. Efficacy, safety, and tolerability of exenatide once weekly in patients with type 2 diabetes mellitus: an integrated analysis of the DURATION trials. Postgrad Med. 2013 May;125(3):47-57. doi: 10.3810/pgm.2013.05.2660."}, {"pmid": "23522121", "type": "DERIVED", "citation": "Meloni AR, DeYoung MB, Han J, Best JH, Grimm M. Treatment of patients with type 2 diabetes with exenatide once weekly versus oral glucose-lowering medications or insulin glargine: achievement of glycemic and cardiovascular goals. Cardiovasc Diabetol. 2013 Mar 23;12:48. doi: 10.1186/1475-2840-12-48."}, {"pmid": "22210563", "type": "DERIVED", "citation": "Russell-Jones D, Cuddihy RM, Hanefeld M, Kumar A, Gonzalez JG, Chan M, Wolka AM, Boardman MK; DURATION-4 Study Group. Efficacy and safety of exenatide once weekly versus metformin, pioglitazone, and sitagliptin used as monotherapy in drug-naive patients with type 2 diabetes (DURATION-4): a 26-week double-blind study. Diabetes Care. 2012 Feb;35(2):252-8. doi: 10.2337/dc11-1107. Epub 2011 Dec 30."}]}}, "resultsSection": {"participantFlowModule": {"groups": [{"id": "FG000", "title": "Exenatide Once Weekly", "description": "Exenatide once weekly (subcutaneous injection of 2 mg exenatide, once a week) + daily oral placebo"}, {"id": "FG001", "title": "Metformin", "description": "Metformin (1000 mg/day for 2 weeks, then 1500 mg/day for 2 weeks, then 2000 mg/day for 22 weeks) + weekly subcutaneous placebo injection"}, {"id": "FG002", "title": "Pioglitazone", "description": "Pioglitazone (30 mg/day for 4 weeks, then 45 mg/day for 22 weeks) + weekly subcutaneous placebo injection"}, {"id": "FG003", "title": "Sitagliptin", "description": "Sitagliptin (100 mg/day for 26 weeks) + weekly subcutaneous placebo injection"}], "periods": [{"title": "Overall Study", "milestones": [{"type": "STARTED", "achievements": [{"groupId": "FG000", "numSubjects": "248"}, {"groupId": "FG001", "numSubjects": "246"}, {"groupId": "FG002", "numSubjects": "163"}, {"groupId": "FG003", "numSubjects": "163"}]}, {"type": "COMPLETED", "achievements": [{"groupId": "FG000", "numSubjects": "210"}, {"groupId": "FG001", "numSubjects": "213"}, {"groupId": "FG002", "numSubjects": "133"}, {"groupId": "FG003", "numSubjects": "140"}]}, {"type": "NOT COMPLETED", "achievements": [{"groupId": "FG000", "numSubjects": "38"}, {"groupId": "FG001", "numSubjects": "33"}, {"groupId": "FG002", "numSubjects": "30"}, {"groupId": "FG003", "numSubjects": "23"}]}], "dropWithdraws": [{"type": "Adverse Event", "reasons": [{"groupId": "FG000", "numSubjects": "6"}, {"groupId": "FG001", "numSubjects": "6"}, {"groupId": "FG002", "numSubjects": "5"}, {"groupId": "FG003", "numSubjects": "1"}]}, {"type": "Lost to Follow-up", "reasons": [{"groupId": "FG000", "numSubjects": "4"}, {"groupId": "FG001", "numSubjects": "1"}, {"groupId": "FG002", "numSubjects": "3"}, {"groupId": "FG003", "numSubjects": "4"}]}, {"type": "Physician Decision", "reasons": [{"groupId": "FG000", "numSubjects": "3"}, {"groupId": "FG001", "numSubjects": "3"}, {"groupId": "FG002", "numSubjects": "2"}, {"groupId": "FG003", "numSubjects": "3"}]}, {"type": "Protocol Violation", "reasons": [{"groupId": "FG000", "numSubjects": "5"}, {"groupId": "FG001", "numSubjects": "9"}, {"groupId": "FG002", "numSubjects": "2"}, {"groupId": "FG003", "numSubjects": "5"}]}, {"type": "Withdrawal by Subject", "reasons": [{"groupId": "FG000", "numSubjects": "17"}, {"groupId": "FG001", "numSubjects": "9"}, {"groupId": "FG002", "numSubjects": "12"}, {"groupId": "FG003", "numSubjects": "6"}]}, {"type": "Entry Criteria Not Met", "reasons": [{"groupId": "FG000", "numSubjects": "0"}, {"groupId": "FG001", "numSubjects": "2"}, {"groupId": "FG002", "numSubjects": "1"}, {"groupId": "FG003", "numSubjects": "1"}]}, {"type": "Lack of Efficacy-Loss of Glucose Control", "reasons": [{"groupId": "FG000", "numSubjects": "3"}, {"groupId": "FG001", "numSubjects": "3"}, {"groupId": "FG002", "numSubjects": "5"}, {"groupId": "FG003", "numSubjects": "3"}]}]}]}, "baselineCharacteristicsModule": {"groups": [{"id": "BG000", "title": "Exenatide Once Weekly", "description": "Exenatide once weekly (subcutaneous injection of 2 mg exenatide, once a week) + daily oral placebo"}, {"id": "BG001", "title": "Metformin", "description": "Metformin (1000 mg/day for 2 weeks, then 1500 mg/day for 2 weeks, then 2000 mg/day for 22 weeks) + weekly subcutaneous placebo injection"}, {"id": "BG002", "title": "Pioglitazone", "description": "Pioglitazone (30 mg/day for 4 weeks, then 45 mg/day for 22 weeks) + weekly subcutaneous placebo injection"}, {"id": "BG003", "title": "Sitagliptin", "description": "Sitagliptin (100 mg/day for 26 weeks) + weekly subcutaneous placebo injection"}, {"id": "BG004", "title": "Total", "description": "Total of all reporting groups"}], "denoms": [{"units": "Participants", "counts": [{"groupId": "BG000", "value": "248"}, {"groupId": "BG001", "value": "246"}, {"groupId": "BG002", "value": "163"}, {"groupId": "BG003", "value": "163"}, {"groupId": "BG004", "value": "820"}]}], "measures": [{"title": "Age, Categorical", "paramType": "COUNT_OF_PARTICIPANTS", "unitOfMeasure": "Participants", "classes": [{"categories": [{"title": "<=18 years", "measurements": [{"groupId": "BG000", "value": "0"}, {"groupId": "BG001", "value": "0"}, {"groupId": "BG002", "value": "0"}, {"groupId": "BG003", "value": "0"}, {"groupId": "BG004", "value": "0"}]}, {"title": "Between 18 and 65 years", "measurements": [{"groupId": "BG000", "value": "217"}, {"groupId": "BG001", "value": "215"}, {"groupId": "BG002", "value": "135"}, {"groupId": "BG003", "value": "144"}, {"groupId": "BG004", "value": "711"}]}, {"title": ">=65 years", "measurements": [{"groupId": "BG000", "value": "31"}, {"groupId": "BG001", "value": "31"}, {"groupId": "BG002", "value": "28"}, {"groupId": "BG003", "value": "19"}, {"groupId": "BG004", "value": "109"}]}]}]}, {"title": "Age, Continuous", "paramType": "MEAN", "dispersionType": "STANDARD_DEVIATION", "unitOfMeasure": "years", "classes": [{"categories": [{"measurements": [{"groupId": "BG000", "value": "53.7", "spread": "10.91"}, {"groupId": "BG001", "value": "53.7", "spread": "11.08"}, {"groupId": "BG002", "value": "55.3", "spread": "10.96"}, {"groupId": "BG003", "value": "52.3", "spread": "11.05"}, {"groupId": "BG004", "value": "53.7", "spread": "11.02"}]}]}]}, {"title": "Sex: Female, Male", "paramType": "COUNT_OF_PARTICIPANTS", "unitOfMeasure": "Participants", "classes": [{"categories": [{"title": "Female", "measurements": [{"groupId": "BG000", "value": "109"}, {"groupId": "BG001", "value": "92"}, {"groupId": "BG002", "value": "66"}, {"groupId": "BG003", "value": "69"}, {"groupId": "BG004", "value": "336"}]}, {"title": "Male", "measurements": [{"groupId": "BG000", "value": "139"}, {"groupId": "BG001", "value": "154"}, {"groupId": "BG002", "value": "97"}, {"groupId": "BG003", "value": "94"}, {"groupId": "BG004", "value": "484"}]}]}]}, {"title": "Glycosylated hemoglobin (HbA1c)", "paramType": "MEAN", "dispersionType": "STANDARD_DEVIATION", "unitOfMeasure": "percentage of total hemoglobin", "classes": [{"categories": [{"measurements": [{"groupId": "BG000", "value": "8.5", "spread": "1.19"}, {"groupId": "BG001", "value": "8.6", "spread": "1.20"}, {"groupId": "BG002", "value": "8.5", "spread": "1.24"}, {"groupId": "BG003", "value": "8.5", "spread": "1.25"}, {"groupId": "BG004", "value": "8.5", "spread": "1.22"}]}]}]}, {"title": "Weight", "paramType": "MEAN", "dispersionType": "STANDARD_DEVIATION", "unitOfMeasure": "kg", "classes": [{"categories": [{"measurements": [{"groupId": "BG000", "value": "87.5", "spread": "18.88"}, {"groupId": "BG001", "value": "85.9", "spread": "19.57"}, {"groupId": "BG002", "value": "86.1", "spread": "17.77"}, {"groupId": "BG003", "value": "88.7", "spread": "18.65"}, {"groupId": "BG004", "value": "87.0", "spread": "18.83"}]}]}]}]}, "outcomeMeasuresModule": {"outcomeMeasures": [{"type": "PRIMARY", "title": "Change in HbA1c From Baseline to Week 26", "description": "Change in HbA1c from baseline to Week 26.", "populationDescription": "Intent to treat (ITT) population consisted of all randomized patients who had taken at least one dose of study drug. All scheduled post-baseline measurements were included in the analysis. Unscheduled visit observations were carried forward to the next scheduled visits.", "reportingStatus": "POSTED", "paramType": "LEAST_SQUARES_MEAN", "dispersionType": "Standard Error", "unitOfMeasure": "percentage of total hemoglobin", "timeFrame": "Baseline, Week 26", "groups": [{"id": "OG000", "title": "Exenatide Once Weekly", "description": "Exenatide once weekly (subcutaneous injection of 2 mg exenatide, once a week) + daily oral placebo"}, {"id": "OG001", "title": "Metformin", "description": "Metformin (1000 mg/day for 2 weeks, then 1500 mg/day for 2 weeks, then 2000 mg/day for 22 weeks) + weekly subcutaneous placebo injection"}, {"id": "OG002", "title": "Pioglitazone", "description": "Pioglitazone (30 mg/day for 4 weeks, then 45 mg/day for 22 weeks) + weekly subcutaneous placebo injection"}, {"id": "OG003", "title": "Sitagliptin", "description": "Sitagliptin (100 mg/day for 26 weeks) + weekly subcutaneous placebo injection"}], "denoms": [{"units": "Participants", "counts": [{"groupId": "OG000", "value": "218"}, {"groupId": "OG001", "value": "218"}, {"groupId": "OG002", "value": "137"}, {"groupId": "OG003", "value": "142"}]}], "classes": [{"categories": [{"measurements": [{"groupId": "OG000", "value": "-1.53", "spread": "0.07"}, {"groupId": "OG001", "value": "-1.48", "spread": "0.07"}, {"groupId": "OG002", "value": "-1.63", "spread": "0.08"}, {"groupId": "OG003", "value": "-1.15", "spread": "0.08"}]}]}], "analyses": [{"groupIds": ["OG000", "OG001"], "groupDescription": "Power calculation: A sample of 740 (222 exenatide once weekly, 222 metformin, 148 pioglitazone, and 148 sitagliptin) would provide approximately 90% power to detect a true differences between exenatide once weekly and the 3 comparators: metformin, pioglitazone, and sitagliptin of 0.4%, 0.5%, and 0.5%, respectively in change in HbA1c from baseline to Week 26 with a 2-sided t test at a significance level of 0.05, assuming a common standard deviation of 1.2%.", "testedNonInferiority": true, "nonInferiorityType": "NON_INFERIORITY_OR_EQUIVALENCE", "nonInferiorityComment": "Noninferiority Null Hypotheses: H1: The effect of exenatide is inferior to that of metformin. H2: The effect of exenatide is inferior to that of sitagliptin. H3: The effect of exenatide is inferior to that of pioglitazone. Then, the 3 superiority null hypotheses were tested. Change in HbA1c was analyzed using an MMRM analysis of covariance (ANCOVA) with treatment, baseline HbA1c, country, week of visit, and treatment-by week interaction as fixed effects; and patient and error as random effects.", "pValue": "0.620", "pValueComment": "Noninferiority was tested by Bonferroni (margin 0.3%, adjusted significance of 0.0167). Superiority was tested by Hommel (nominal significance level was between 0.0167 and 0.05 depended on the number of noninferiority hypotheses rejected).", "statisticalMethod": "Mixed Models Analysis", "paramType": "Least Squares Mean Difference", "paramValue": "-0.05", "ciPctValue": "98.3", "ciNumSides": "TWO_SIDED", "ciLowerLimit": "-0.26", "ciUpperLimit": "0.17", "dispersionType": "STANDARD_ERROR_OF_MEAN", "dispersionValue": "0.09"}, {"groupIds": ["OG000", "OG002"], "groupDescription": "Power calculation: A sample of 740 (222 exenatide once weekly, 222 metformin, 148 pioglitazone, and 148 sitagliptin) would provide approximately 90% power to detect a true differences between exenatide once weekly and the 3 comparators: metformin, pioglitazone, and sitagliptin of 0.4%, 0.5%, and 0.5%, respectively in change in HbA1c from baseline to Week 26 with a 2-sided t test at a significance level of 0.05, assuming a common standard deviation of 1.2%.", "testedNonInferiority": true, "nonInferiorityType": "NON_INFERIORITY_OR_EQUIVALENCE", "nonInferiorityComment": "Noninferiority Null Hypotheses: H1: The effect of exenatide is inferior to that of metformin. H2: The effect of exenatide is inferior to that of sitagliptin. H3: The effect of exenatide is inferior to that of pioglitazone. Then, the 3 superiority null hypotheses were tested. Change in HbA1c was analyzed using an MMRM analysis of covariance (ANCOVA) with treatment, baseline HbA1c, country, week of visit, and treatment-by week interaction as fixed effects; and patient and error as random effects.", "pValue": "0.328", "pValueComment": "Noninferiority was tested by Bonferroni (margin 0.3%, adjusted significance of 0.0167). Superiority was tested by Hommel (nominal significance level was between 0.0167 and 0.05 depended on the number of noninferiority hypotheses rejected).", "statisticalMethod": "Mixed Models Analysis", "paramType": "Least Squares Mean Difference", "paramValue": "0.10", "ciPctValue": "98.3", "ciNumSides": "TWO_SIDED", "ciLowerLimit": "-0.15", "ciUpperLimit": "0.35", "dispersionType": "STANDARD_ERROR_OF_MEAN", "dispersionValue": "0.10"}, {"groupIds": ["OG000", "OG003"], "groupDescription": "Power calculation: A sample of 740 (222 exenatide once weekly, 222 metformin, 148 pioglitazone, and 148 sitagliptin) would provide approximately 90% power to detect a true differences between exenatide once weekly and the 3 comparators: metformin, pioglitazone, and sitagliptin of 0.4%, 0.5%, and 0.5%, respectively in change in HbA1c from baseline to Week 26 with a 2-sided t test at a significance level of 0.05, assuming a common standard deviation of 1.2%.", "testedNonInferiority": true, "nonInferiorityType": "NON_INFERIORITY_OR_EQUIVALENCE", "nonInferiorityComment": "Noninferiority Null Hypotheses: H1: The effect of exenatide is inferior to that of metformin. H2: The effect of exenatide is inferior to that of sitagliptin. H3: The effect of exenatide is inferior to that of pioglitazone. Then, the 3 superiority null hypotheses were tested. Change in HbA1c was analyzed using an MMRM analysis of covariance (ANCOVA) with treatment, baseline HbA1c, country, week of visit, and treatment-by week interaction as fixed effects; and patient and error as random effects.", "pValue": "<.001", "pValueComment": "Noninferiority was tested by Bonferroni (margin 0.3%, adjusted significance of 0.0167). Superiority was tested by Hommel (nominal significance level was between 0.0167 and 0.05 depended on the number of noninferiority hypotheses rejected).", "statisticalMethod": "Mixed Models Analysis", "paramType": "Least Squares Mean Difference", "paramValue": "-0.37", "ciPctValue": "98.3", "ciNumSides": "TWO_SIDED", "ciLowerLimit": "-0.62", "ciUpperLimit": "-0.13", "dispersionType": "STANDARD_ERROR_OF_MEAN", "dispersionValue": "0.10"}]}, {"type": "PRIMARY", "title": "Percentage of Patients Achieving HbA1c <=7% at Week 26", "description": "Percentage of patients achieving HbA1c \\<=7% at Week 26 (for patients with baseline HbA1c \\>7%).", "populationDescription": "ITT subjects with baseline HbA1c\\>7%. Only patients with non-missing baseline value and at least one non-missing post-baseline value of the response variable were included in analysis. Missing data at endpoint was imputed using last observation carried forward (LOCF) approach.", "reportingStatus": "POSTED", "paramType": "NUMBER", "unitOfMeasure": "percentage of patients", "timeFrame": "Baseline, Week 26", "groups": [{"id": "OG000", "title": "Exenatide Once Weekly", "description": "Exenatide once weekly (subcutaneous injection of 2 mg exenatide, once a week) + daily oral placebo"}, {"id": "OG001", "title": "Metformin", "description": "Metformin (1000 mg/day for 2 weeks, then 1500 mg/day for 2 weeks, then 2000 mg/day for 22 weeks) + weekly subcutaneous placebo injection"}, {"id": "OG002", "title": "Pioglitazone", "description": "Pioglitazone (30 mg/day for 4 weeks, then 45 mg/day for 22 weeks) + weekly subcutaneous placebo injection"}, {"id": "OG003", "title": "Sitagliptin", "description": "Sitagliptin (100 mg/day for 26 weeks) + weekly subcutaneous placebo injection"}], "denoms": [{"units": "Participants", "counts": [{"groupId": "OG000", "value": "226"}, {"groupId": "OG001", "value": "232"}, {"groupId": "OG002", "value": "150"}, {"groupId": "OG003", "value": "143"}]}], "classes": [{"categories": [{"measurements": [{"groupId": "OG000", "value": "64.2"}, {"groupId": "OG001", "value": "57.3"}, {"groupId": "OG002", "value": "63.3"}, {"groupId": "OG003", "value": "45.5"}]}]}], "analyses": [{"groupIds": ["OG000", "OG001"], "testedNonInferiority": false, "nonInferiorityType": "SUPERIORITY_OR_OTHER", "pValue": "0.151", "pValueComment": "No multiple adjustment were done.", "statisticalMethod": "Fisher Exact", "ciNumSides": "TWO_SIDED"}, {"groupIds": ["OG000", "OG002"], "testedNonInferiority": false, "nonInferiorityType": "SUPERIORITY_OR_OTHER", "pValue": "0.913", "pValueComment": "No multiple adjustment were done.", "statisticalMethod": "Fisher Exact", "ciNumSides": "TWO_SIDED"}, {"groupIds": ["OG000", "OG003"], "testedNonInferiority": false, "nonInferiorityType": "SUPERIORITY_OR_OTHER", "pValue": "<.001", "pValueComment": "No multiple adjustment were done.", "statisticalMethod": "Fisher Exact", "ciNumSides": "TWO_SIDED"}]}, {"type": "SECONDARY", "title": "Change in Fasting Serum Glucose (FSG) From Baseline to Week 26", "description": "Change in FSG from baseline to Week 26.", "populationDescription": "ITT population. Only patients with non-missing baseline value and at least one non-missing post-baseline value of the response variable were included in analysis. All scheduled post-baseline measurements were included in the analysis, with no imputation of missing data other than that inherent in the MMRM model was used.", "reportingStatus": "POSTED", "paramType": "LEAST_SQUARES_MEAN", "dispersionType": "Standard Error", "unitOfMeasure": "mmol/L", "timeFrame": "Baseline, Week 26", "groups": [{"id": "OG000", "title": "Exenatide Once Weekly", "description": "Exenatide once weekly (subcutaneous injection of 2 mg exenatide, once a week) + daily oral placebo"}, {"id": "OG001", "title": "Metformin", "description": "Metformin (1000 mg/day for 2 weeks, then 1500 mg/day for 2 weeks, then 2000 mg/day for 22 weeks) + weekly subcutaneous placebo injection"}, {"id": "OG002", "title": "Pioglitazone", "description": "Pioglitazone (30 mg/day for 4 weeks, then 45 mg/day for 22 weeks) + weekly subcutaneous placebo injection"}, {"id": "OG003", "title": "Sitagliptin", "description": "Sitagliptin (100 mg/day for 26 weeks) + weekly subcutaneous placebo injection"}], "denoms": [{"units": "Participants", "counts": [{"groupId": "OG000", "value": "198"}, {"groupId": "OG001", "value": "203"}, {"groupId": "OG002", "value": "127"}, {"groupId": "OG003", "value": "120"}]}], "classes": [{"categories": [{"measurements": [{"groupId": "OG000", "value": "-2.25", "spread": "0.14"}, {"groupId": "OG001", "value": "-1.98", "spread": "0.14"}, {"groupId": "OG002", "value": "-2.57", "spread": "0.18"}, {"groupId": "OG003", "value": "-1.13", "spread": "0.18"}]}]}], "analyses": [{"groupIds": ["OG000", "OG001"], "groupDescription": "Change in FSG from baseline to Week 26 was analyzed using an MMRM ANCOVA model with treatment, baseline FSG, country, week of visit, and treatment-by week interaction as fixed effects; and patient and error as random effects.", "testedNonInferiority": false, "nonInferiorityType": "SUPERIORITY_OR_OTHER", "pValue": "0.155", "pValueComment": "No multiple adjustment were done.", "statisticalMethod": "Mixed Models Analysis", "paramType": "Least Squares Mean Difference", "paramValue": "-0.28", "ciPctValue": "95", "ciNumSides": "TWO_SIDED", "ciLowerLimit": "-0.66", "ciUpperLimit": "0.10", "dispersionType": "STANDARD_ERROR_OF_MEAN", "dispersionValue": "0.19"}, {"groupIds": ["OG000", "OG002"], "groupDescription": "Change in FSG from baseline to Week 26 was analyzed using an MMRM ANCOVA model with treatment, baseline FSG, country, week of visit, and treatment-by week interaction as fixed effects; and patient and error as random effects.", "testedNonInferiority": false, "nonInferiorityType": "SUPERIORITY_OR_OTHER", "pValue": "0.153", "pValueComment": "No multiple adjustment were done.", "statisticalMethod": "Mixed Models Analysis", "paramType": "Least Squares Mean Difference", "paramValue": "0.32", "ciPctValue": "95", "ciNumSides": "TWO_SIDED", "ciLowerLimit": "-0.12", "ciUpperLimit": "0.75", "dispersionType": "STANDARD_ERROR_OF_MEAN", "dispersionValue": "0.22"}, {"groupIds": ["OG000", "OG003"], "groupDescription": "Change in FSG from baseline to Week 26 was analyzed using an MMRM ANCOVA model with treatment, baseline FSG, country, week of visit, and treatment-by week interaction as fixed effects; and patient and error as random effects.", "testedNonInferiority": false, "nonInferiorityType": "SUPERIORITY_OR_OTHER", "pValue": "<.001", "pValueComment": "No multiple adjustment were done.", "statisticalMethod": "Mixed Models Analysis", "paramType": "Least Squares Mean Difference", "paramValue": "-1.12", "ciPctValue": "95", "ciNumSides": "TWO_SIDED", "ciLowerLimit": "-1.56", "ciUpperLimit": "-0.68", "dispersionType": "STANDARD_ERROR_OF_MEAN", "dispersionValue": "0.22"}]}, {"type": "SECONDARY", "title": "Change in Body Weight From Baseline to Week 26", "description": "Change in Body Weight from baseline to Week 26.", "populationDescription": "ITT population. Only patients with non-missing baseline value and at least one non-missing post-baseline value of the response variable were included in analysis. All scheduled post-baseline measurements were included in the analysis, with no imputation of missing data other than that inherent in the MMRM model was used.", "reportingStatus": "POSTED", "paramType": "LEAST_SQUARES_MEAN", "dispersionType": "Standard Error", "unitOfMeasure": "kg", "timeFrame": "Baseline, Week 26", "groups": [{"id": "OG000", "title": "Exenatide Once Weekly", "description": "Exenatide once weekly (subcutaneous injection of 2 mg exenatide, once a week) + daily oral placebo"}, {"id": "OG001", "title": "Metformin", "description": "Metformin (1000 mg/day for 2 weeks, then 1500 mg/day for 2 weeks, then 2000 mg/day for 22 weeks) + weekly subcutaneous placebo injection"}, {"id": "OG002", "title": "Pioglitazone", "description": "Pioglitazone (30 mg/day for 4 weeks, then 45 mg/day for 22 weeks) + weekly subcutaneous placebo injection"}, {"id": "OG003", "title": "Sitagliptin", "description": "Sitagliptin (100 mg/day for 26 weeks) + weekly subcutaneous placebo injection"}], "denoms": [{"units": "Participants", "counts": [{"groupId": "OG000", "value": "215"}, {"groupId": "OG001", "value": "217"}, {"groupId": "OG002", "value": "134"}, {"groupId": "OG003", "value": "141"}]}], "classes": [{"categories": [{"measurements": [{"groupId": "OG000", "value": "-2.04", "spread": "0.21"}, {"groupId": "OG001", "value": "-2.00", "spread": "0.21"}, {"groupId": "OG002", "value": "1.52", "spread": "0.26"}, {"groupId": "OG003", "value": "-0.76", "spread": "0.26"}]}]}], "analyses": [{"groupIds": ["OG000", "OG001"], "groupDescription": "Change in Body Weight from baseline to Week 26 was analyzed using an MMRM ANCOVA model with treatment, baseline body weight, country, week of visit, and treatment-by week interaction as fixed effects; and patient and error as random effects.", "testedNonInferiority": false, "nonInferiorityType": "SUPERIORITY_OR_OTHER", "pValue": "0.892", "pValueComment": "No multiple adjustment were done.", "statisticalMethod": "Mixed Models Analysis", "paramType": "Least Squares Mean Difference", "paramValue": "-0.04", "ciPctValue": "95", "ciNumSides": "TWO_SIDED", "ciLowerLimit": "-0.61", "ciUpperLimit": "0.53", "dispersionType": "STANDARD_ERROR_OF_MEAN", "dispersionValue": "0.29"}, {"groupIds": ["OG000", "OG002"], "groupDescription": "Change in Body Weight from baseline to Week 26 was analyzed using an MMRM ANCOVA model with treatment, baseline body weight, country, week of visit, and treatment-by week interaction as fixed effects; and patient and error as random effects.", "testedNonInferiority": false, "nonInferiorityType": "SUPERIORITY_OR_OTHER", "pValue": "<.001", "pValueComment": "No multiple adjustment were done.", "statisticalMethod": "Mixed Models Analysis", "paramType": "Least Squares Mean Difference", "paramValue": "-3.56", "ciPctValue": "95", "ciNumSides": "TWO_SIDED", "ciLowerLimit": "-4.21", "ciUpperLimit": "-2.90", "dispersionType": "STANDARD_ERROR_OF_MEAN", "dispersionValue": "0.33"}, {"groupIds": ["OG000", "OG003"], "groupDescription": "Change in Body Weight from baseline to Week 26 was analyzed using an MMRM ANCOVA model with treatment, baseline body weight, country, week of visit, and treatment-by week interaction as fixed effects; and patient and error as random effects.", "testedNonInferiority": false, "nonInferiorityType": "SUPERIORITY_OR_OTHER", "pValue": "<.001", "pValueComment": "No multiple adjustment were done.", "statisticalMethod": "Mixed Models Analysis", "paramType": "Least Squares Mean Difference", "paramValue": "-1.28", "ciPctValue": "95", "ciNumSides": "TWO_SIDED", "ciLowerLimit": "-1.92", "ciUpperLimit": "-0.63", "dispersionType": "STANDARD_ERROR_OF_MEAN", "dispersionValue": "0.33"}]}, {"type": "SECONDARY", "title": "Change in Fasting Total Cholesterol (TC) From Baseline to Week 26", "description": "Change in Fasting TC from baseline to Week 26.", "populationDescription": "ITT population. Only patients with non-missing baseline value and at least one non-missing post-baseline value of the response variable were included in analysis. All scheduled post-baseline measurements were included in the analysis, with no imputation of missing data other than that inherent in the MMRM model was used.", "reportingStatus": "POSTED", "paramType": "LEAST_SQUARES_MEAN", "dispersionType": "Standard Error", "unitOfMeasure": "mmol/L", "timeFrame": "Baseline, Week 26", "groups": [{"id": "OG000", "title": "Exenatide Once Weekly", "description": "Exenatide once weekly (subcutaneous injection of 2 mg exenatide, once a week) + daily oral placebo"}, {"id": "OG001", "title": "Metformin", "description": "Metformin (1000 mg/day for 2 weeks, then 1500 mg/day for 2 weeks, then 2000 mg/day for 22 weeks) + weekly subcutaneous placebo injection"}, {"id": "OG002", "title": "Pioglitazone", "description": "Pioglitazone (30 mg/day for 4 weeks, then 45 mg/day for 22 weeks) + weekly subcutaneous placebo injection"}, {"id": "OG003", "title": "Sitagliptin", "description": "Sitagliptin (100 mg/day for 26 weeks) + weekly subcutaneous placebo injection"}], "denoms": [{"units": "Participants", "counts": [{"groupId": "OG000", "value": "199"}, {"groupId": "OG001", "value": "203"}, {"groupId": "OG002", "value": "127"}, {"groupId": "OG003", "value": "120"}]}], "classes": [{"categories": [{"measurements": [{"groupId": "OG000", "value": "-0.24", "spread": "0.06"}, {"groupId": "OG001", "value": "-0.22", "spread": "0.06"}, {"groupId": "OG002", "value": "0.09", "spread": "0.08"}, {"groupId": "OG003", "value": "-0.01", "spread": "0.08"}]}]}], "analyses": [{"groupIds": ["OG000", "OG001"], "groupDescription": "Change in Fasting TC from baseline to Week 26 was analyzed using an MMRM ANCOVA model with treatment, baseline TC, country, week of visit, and treatment-by week interaction as fixed effects; and patient and error as random effects.", "testedNonInferiority": false, "nonInferiorityType": "SUPERIORITY_OR_OTHER", "pValue": "0.873", "pValueComment": "No multiple adjustment were done.", "statisticalMethod": "Mixed Models Analysis", "paramType": "Least Squares Mean Difference", "paramValue": "-0.01", "ciPctValue": "95", "ciNumSides": "TWO_SIDED", "ciLowerLimit": "-0.18", "ciUpperLimit": "0.15", "dispersionType": "STANDARD_ERROR_OF_MEAN", "dispersionValue": "0.08"}, {"groupIds": ["OG000", "OG002"], "groupDescription": "Change in Fasting TC from baseline to Week 26 was analyzed using an MMRM ANCOVA model with treatment, baseline TC, country, week of visit, and treatment-by week interaction as fixed effects; and patient and error as random effects.", "testedNonInferiority": false, "nonInferiorityType": "SUPERIORITY_OR_OTHER", "pValue": "<.001", "pValueComment": "No multiple adjustment were done.", "statisticalMethod": "Mixed Models Analysis", "paramType": "Least Squares Mean Difference", "paramValue": "-0.33", "ciPctValue": "95", "ciNumSides": "TWO_SIDED", "ciLowerLimit": "-0.52", "ciUpperLimit": "-0.14", "dispersionType": "STANDARD_ERROR_OF_MEAN", "dispersionValue": "0.10"}, {"groupIds": ["OG000", "OG003"], "groupDescription": "Change in Fasting TC from baseline to Week 26 was analyzed using an MMRM ANCOVA model with treatment, baseline TC, country, week of visit, and treatment-by week interaction as fixed effects; and patient and error as random effects.", "testedNonInferiority": false, "nonInferiorityType": "SUPERIORITY_OR_OTHER", "pValue": "0.022", "pValueComment": "No multiple adjustment were done.", "statisticalMethod": "Mixed Models Analysis", "paramType": "Least Squares Mean Difference", "paramValue": "-0.22", "ciPctValue": "95", "ciNumSides": "TWO_SIDED", "ciLowerLimit": "-0.41", "ciUpperLimit": "-0.03", "dispersionType": "STANDARD_ERROR_OF_MEAN", "dispersionValue": "0.10"}]}, {"type": "SECONDARY", "title": "Change in Fasting High-Density Lipoprotein (HDL) From Baseline to Week 26", "description": "Change in Fasting HDL from baseline to Week 26.", "populationDescription": "ITT population. Only patients with non-missing baseline value and at least one non-missing post-baseline value of the response variable were included in analysis. All scheduled post-baseline measurements were included in the analysis, with no imputation of missing data other than that inherent in the MMRM model was used.", "reportingStatus": "POSTED", "paramType": "LEAST_SQUARES_MEAN", "dispersionType": "Standard Error", "unitOfMeasure": "mmol/L", "timeFrame": "Baseline, Week 26", "groups": [{"id": "OG000", "title": "Exenatide Once Weekly", "description": "Exenatide once weekly (subcutaneous injection of 2 mg exenatide, once a week) + daily oral placebo"}, {"id": "OG001", "title": "Metformin", "description": "Metformin (1000 mg/day for 2 weeks, then 1500 mg/day for 2 weeks, then 2000 mg/day for 22 weeks) + weekly subcutaneous placebo injection"}, {"id": "OG002", "title": "Pioglitazone", "description": "Pioglitazone (30 mg/day for 4 weeks, then 45 mg/day for 22 weeks) + weekly subcutaneous placebo injection"}, {"id": "OG003", "title": "Sitagliptin", "description": "Sitagliptin (100 mg/day for 26 weeks) + weekly subcutaneous placebo injection"}], "denoms": [{"units": "Participants", "counts": [{"groupId": "OG000", "value": "199"}, {"groupId": "OG001", "value": "203"}, {"groupId": "OG002", "value": "127"}, {"groupId": "OG003", "value": "120"}]}], "classes": [{"categories": [{"measurements": [{"groupId": "OG000", "value": "0.01", "spread": "0.01"}, {"groupId": "OG001", "value": "0.07", "spread": "0.01"}, {"groupId": "OG002", "value": "0.17", "spread": "0.02"}, {"groupId": "OG003", "value": "0.04", "spread": "0.02"}]}]}], "analyses": [{"groupIds": ["OG000", "OG001"], "groupDescription": "Change in Fasting HDL from baseline to Week 26 was analyzed using an MMRM ANCOVA model with treatment, baseline HDL, country, week of visit, and treatment-by week interaction as fixed effects; and patient and error as random effects.", "testedNonInferiority": false, "nonInferiorityType": "SUPERIORITY_OR_OTHER", "pValue": "0.004", "pValueComment": "No multiple adjustment were done.", "statisticalMethod": "Mixed Models Analysis", "paramType": "Least Squares Mean Difference", "paramValue": "-0.05", "ciPctValue": "95", "ciNumSides": "TWO_SIDED", "ciLowerLimit": "-0.09", "ciUpperLimit": "-0.02", "dispersionType": "STANDARD_ERROR_OF_MEAN", "dispersionValue": "0.02"}, {"groupIds": ["OG000", "OG002"], "groupDescription": "Change in Fasting HDL from baseline to Week 26 was analyzed using an MMRM ANCOVA model with treatment, baseline HDL, country, week of visit, and treatment-by week interaction as fixed effects; and patient and error as random effects.", "testedNonInferiority": false, "nonInferiorityType": "SUPERIORITY_OR_OTHER", "pValue": "<.001", "pValueComment": "No multiple adjustment were done.", "statisticalMethod": "Mixed Models Analysis", "paramType": "Least Squares Mean Difference", "paramValue": "-0.15", "ciPctValue": "95", "ciNumSides": "TWO_SIDED", "ciLowerLimit": "-0.19", "ciUpperLimit": "-0.11", "dispersionType": "STANDARD_ERROR_OF_MEAN", "dispersionValue": "0.02"}, {"groupIds": ["OG000", "OG003"], "groupDescription": "Change in Fasting HDL from baseline to Week 26 was analyzed using an MMRM ANCOVA model with treatment, baseline HDL, country, week of visit, and treatment-by week interaction as fixed effects; and patient and error as random effects.", "testedNonInferiority": false, "nonInferiorityType": "SUPERIORITY_OR_OTHER", "pValue": "0.142", "pValueComment": "No multiple adjustment were done.", "statisticalMethod": "Mixed Models Analysis", "paramType": "Least Squares Mean Difference", "paramValue": "-0.03", "ciPctValue": "95", "ciNumSides": "TWO_SIDED", "ciLowerLimit": "-0.07", "ciUpperLimit": "0.01", "dispersionType": "STANDARD_ERROR_OF_MEAN", "dispersionValue": "0.02"}]}, {"type": "SECONDARY", "title": "Ratio of Fasting Triglycerides at Week 26 to Baseline", "description": "Ratio of Fasting Triglycerides (measured in mmol/L) at Week 26 to baseline. Log(Post-baseline Triglycerides) - log(Baseline Triglycerides); change from baseline to Week 26 is presented as ratio of endpoint to baseline.", "populationDescription": "ITT population. Only patients with non-missing baseline value and at least one non-missing post-baseline value of the response variable were included in analysis. Missing data at endpoint was imputed using LOCF approach.", "reportingStatus": "POSTED", "paramType": "LEAST_SQUARES_MEAN", "dispersionType": "Standard Error", "unitOfMeasure": "ratio", "timeFrame": "Baseline, Week 26", "groups": [{"id": "OG000", "title": "Exenatide Once Weekly", "description": "Exenatide once weekly (subcutaneous injection of 2 mg exenatide, once a week) + daily oral placebo"}, {"id": "OG001", "title": "Metformin", "description": "Metformin (1000 mg/day for 2 weeks, then 1500 mg/day for 2 weeks, then 2000 mg/day for 22 weeks) + weekly subcutaneous placebo injection"}, {"id": "OG002", "title": "Pioglitazone", "description": "Pioglitazone (30 mg/day for 4 weeks, then 45 mg/day for 22 weeks) + weekly subcutaneous placebo injection"}, {"id": "OG003", "title": "Sitagliptin", "description": "Sitagliptin (100 mg/day for 26 weeks) + weekly subcutaneous placebo injection"}], "denoms": [{"units": "Participants", "counts": [{"groupId": "OG000", "value": "200"}, {"groupId": "OG001", "value": "204"}, {"groupId": "OG002", "value": "127"}, {"groupId": "OG003", "value": "121"}]}], "classes": [{"categories": [{"measurements": [{"groupId": "OG000", "value": "0.98", "spread": "0.03"}, {"groupId": "OG001", "value": "0.96", "spread": "0.03"}, {"groupId": "OG002", "value": "0.85", "spread": "0.03"}, {"groupId": "OG003", "value": "0.94", "spread": "0.04"}]}]}], "analyses": [{"groupIds": ["OG000", "OG001"], "groupDescription": "Fasting triglycerides data were logarithm-transformed and the change at Week 26 to baseline, expressed as the ratio, was analyzed using ANCOVA model with treatment and country as factors and baseline triglycerides as a covariate.", "testedNonInferiority": false, "nonInferiorityType": "SUPERIORITY_OR_OTHER", "pValue": "0.657", "pValueComment": "No multiple adjustment were done.", "statisticalMethod": "ANCOVA", "paramType": "Geometric Least Squares Mean Ratio", "paramValue": "1.02", "ciPctValue": "95", "ciNumSides": "TWO_SIDED", "ciLowerLimit": "0.94", "ciUpperLimit": "1.10", "dispersionType": "STANDARD_ERROR_OF_MEAN", "dispersionValue": "0.04"}, {"groupIds": ["OG000", "OG002"], "groupDescription": "Fasting triglycerides data were logarithm-transformed and the change at Week 26 to baseline, expressed as the ratio, was analyzed using ANCOVA model with treatment and country as factors and baseline triglycerides as a covariate.", "testedNonInferiority": false, "nonInferiorityType": "SUPERIORITY_OR_OTHER", "pValue": "0.002", "pValueComment": "No multiple adjustment were done.", "statisticalMethod": "ANCOVA", "paramType": "Geometric Least Squares Mean Ratio", "paramValue": "1.16", "ciPctValue": "95", "ciNumSides": "TWO_SIDED", "ciLowerLimit": "1.06", "ciUpperLimit": "1.27", "dispersionType": "STANDARD_ERROR_OF_MEAN", "dispersionValue": "0.05"}, {"groupIds": ["OG000", "OG003"], "groupDescription": "Fasting triglycerides data were logarithm-transformed and the change at Week 26 to baseline, expressed as the ratio, was analyzed using ANCOVA model with treatment and country as factors and baseline triglycerides as a covariate.", "testedNonInferiority": false, "nonInferiorityType": "SUPERIORITY_OR_OTHER", "pValue": "0.398", "pValueComment": "No multiple adjustment were done.", "statisticalMethod": "ANCOVA", "paramType": "Geometric Least Squares Mean Ratio", "paramValue": "1.04", "ciPctValue": "95", "ciNumSides": "TWO_SIDED", "ciLowerLimit": "0.95", "ciUpperLimit": "1.14", "dispersionType": "STANDARD_ERROR_OF_MEAN", "dispersionValue": "0.05"}]}, {"type": "SECONDARY", "title": "Assessment on Event Rate of Treatment-emergent Major Hypoglycemic Events", "description": "Major hypoglycemia is defined as any event that has symptoms consistent with hypoglycemia resulting in loss of consciousness or seizure that shows prompt recovery in response to administration of glucagon or glucose, or documented hypoglycemia (blood glucose \\<3.0 mmol/L \\[54 mg/dL\\]) requiring the assistance of another person because of severe impairment in consciousness or behavior (whether or not symptoms of hypoglycemia are detected by the patient). Mean event rate = total number of events for all subjects in a treatment regimen / the total number of subject years of exposure for all subjects in that treatment. Standard error = square root of (total number of events / (subject years of exposure)\\*\\*2).", "populationDescription": "ITT population.", "reportingStatus": "POSTED", "paramType": "MEAN", "dispersionType": "Standard Error", "unitOfMeasure": "events per subject-year", "timeFrame": "Baseline to Week 26", "groups": [{"id": "OG000", "title": "Exenatide Once Weekly", "description": "Exenatide once weekly (subcutaneous injection of 2 mg exenatide, once a week) + daily oral placebo"}, {"id": "OG001", "title": "Metformin", "description": "Metformin (1000 mg/day for 2 weeks, then 1500 mg/day for 2 weeks, then 2000 mg/day for 22 weeks) + weekly subcutaneous placebo injection"}, {"id": "OG002", "title": "Pioglitazone", "description": "Pioglitazone (30 mg/day for 4 weeks, then 45 mg/day for 22 weeks) + weekly subcutaneous placebo injection"}, {"id": "OG003", "title": "Sitagliptin", "description": "Sitagliptin (100 mg/day for 26 weeks) + weekly subcutaneous placebo injection"}], "denoms": [{"units": "Participants", "counts": [{"groupId": "OG000", "value": "248"}, {"groupId": "OG001", "value": "246"}, {"groupId": "OG002", "value": "163"}, {"groupId": "OG003", "value": "163"}]}], "classes": [{"categories": [{"measurements": [{"groupId": "OG000", "value": "0.00", "spread": "0.000"}, {"groupId": "OG001", "value": "0.00", "spread": "0.000"}, {"groupId": "OG002", "value": "0.00", "spread": "0.000"}, {"groupId": "OG003", "value": "0.00", "spread": "0.000"}]}]}]}, {"type": "SECONDARY", "title": "Assessment on Event Rate of Treatment-Emergent Minor Hypoglycemic Events", "description": "Minor hypoglycemia is defined as a sign or symptom associated with hypoglycemia that is either self-treated by the patient or resolves on its own AND has a concurrent finger stick blood glucose \\<3.0 mmol/L (54 mg/dL) and not classified as major hypoglycemia. Mean event rate = total number of events for all subjects in a treatment regimen / the total number of subject years of exposure for all subjects in that treatment. Standard error = square root of (total number of events / (subject years of exposure)\\*\\*2).", "populationDescription": "ITT population.", "reportingStatus": "POSTED", "paramType": "MEAN", "dispersionType": "Standard Error", "unitOfMeasure": "events per subject-year", "timeFrame": "Baseline to Week 26", "groups": [{"id": "OG000", "title": "Exenatide Once Weekly", "description": "Exenatide once weekly (subcutaneous injection of 2 mg exenatide, once a week) + daily oral placebo"}, {"id": "OG001", "title": "Metformin", "description": "Metformin (1000 mg/day for 2 weeks, then 1500 mg/day for 2 weeks, then 2000 mg/day for 22 weeks) + weekly subcutaneous placebo injection"}, {"id": "OG002", "title": "Pioglitazone", "description": "Pioglitazone (30 mg/day for 4 weeks, then 45 mg/day for 22 weeks) + weekly subcutaneous placebo injection"}, {"id": "OG003", "title": "Sitagliptin", "description": "Sitagliptin (100 mg/day for 26 weeks) + weekly subcutaneous placebo injection"}], "denoms": [{"units": "Participants", "counts": [{"groupId": "OG000", "value": "248"}, {"groupId": "OG001", "value": "246"}, {"groupId": "OG002", "value": "163"}, {"groupId": "OG003", "value": "163"}]}], "classes": [{"categories": [{"measurements": [{"groupId": "OG000", "value": "0.05", "spread": "0.021"}, {"groupId": "OG001", "value": "0.00", "spread": "0.000"}, {"groupId": "OG002", "value": "0.00", "spread": "0.000"}, {"groupId": "OG003", "value": "0.00", "spread": "0.000"}]}]}]}, {"type": "SECONDARY", "title": "Change in Systolic Blood Pressure From Baseline to Week 26.", "description": "Change in Systolic Blood Pressure from baseline to Week 26.", "populationDescription": "ITT population. Only patients with non-missing baseline value and at least one non-missing post-baseline value of the response variable were included in analysis. All scheduled post-baseline measurements were included in the analysis, with no imputation of missing data other than that inherent in the MMRM model was used.", "reportingStatus": "POSTED", "paramType": "LEAST_SQUARES_MEAN", "dispersionType": "Standard Error", "unitOfMeasure": "mmHg", "timeFrame": "Baseline, Week 26", "groups": [{"id": "OG000", "title": "Exenatide Once Weekly", "description": "Exenatide once weekly (subcutaneous injection of 2 mg exenatide, once a week) + daily oral placebo"}, {"id": "OG001", "title": "Metformin", "description": "Metformin (1000 mg/day for 2 weeks, then 1500 mg/day for 2 weeks, then 2000 mg/day for 22 weeks) + weekly subcutaneous placebo injection"}, {"id": "OG002", "title": "Pioglitazone", "description": "Pioglitazone (30 mg/day for 4 weeks, then 45 mg/day for 22 weeks) + weekly subcutaneous placebo injection"}, {"id": "OG003", "title": "Sitagliptin", "description": "Sitagliptin (100 mg/day for 26 weeks) + weekly subcutaneous placebo injection"}], "denoms": [{"units": "Participants", "counts": [{"groupId": "OG000", "value": "215"}, {"groupId": "OG001", "value": "217"}, {"groupId": "OG002", "value": "134"}, {"groupId": "OG003", "value": "141"}]}], "classes": [{"categories": [{"measurements": [{"groupId": "OG000", "value": "-1.25", "spread": "0.79"}, {"groupId": "OG001", "value": "0.14", "spread": "0.78"}, {"groupId": "OG002", "value": "-1.74", "spread": "0.98"}, {"groupId": "OG003", "value": "-1.81", "spread": "0.96"}]}]}], "analyses": [{"groupIds": ["OG000", "OG001"], "groupDescription": "Change in Systolic Blood Pressure from baseline to Week 26 was analyzed using an MMRM ANCOVA model with treatment, baseline systolic blood pressure, country, week of visit, and treatment-by week interaction as fixed effects; and patient and error as random effects.", "testedNonInferiority": false, "nonInferiorityType": "SUPERIORITY_OR_OTHER", "pValue": "0.201", "pValueComment": "No multiple adjustment were done.", "statisticalMethod": "Mixed Models Analysis", "paramType": "Least Squares Mean Difference", "paramValue": "-1.39", "ciPctValue": "95", "ciNumSides": "TWO_SIDED", "ciLowerLimit": "-3.52", "ciUpperLimit": "0.74", "dispersionType": "STANDARD_ERROR_OF_MEAN", "dispersionValue": "1.09"}, {"groupIds": ["OG000", "OG002"], "groupDescription": "Change in Systolic Blood Pressure from baseline to Week 26 was analyzed using an MMRM ANCOVA model with treatment, baseline systolic blood pressure, country, week of visit, and treatment-by week interaction as fixed effects; and patient and error as random effects.", "testedNonInferiority": false, "nonInferiorityType": "SUPERIORITY_OR_OTHER", "pValue": "0.693", "pValueComment": "No multiple adjustment were done.", "statisticalMethod": "Mixed Models Analysis", "paramType": "Least Squares Mean Difference", "paramValue": "0.49", "ciPctValue": "95", "ciNumSides": "TWO_SIDED", "ciLowerLimit": "-1.94", "ciUpperLimit": "2.93", "dispersionType": "STANDARD_ERROR_OF_MEAN", "dispersionValue": "1.24"}, {"groupIds": ["OG000", "OG003"], "groupDescription": "Change in Systolic Blood Pressure from baseline to Week 26 was analyzed using an MMRM ANCOVA model with treatment, baseline systolic blood pressure, country, week of visit, and treatment-by week interaction as fixed effects; and patient and error as random effects.", "testedNonInferiority": false, "nonInferiorityType": "SUPERIORITY_OR_OTHER", "pValue": "0.646", "pValueComment": "No multiple adjustment were done.", "statisticalMethod": "Mixed Models Analysis", "paramType": "Least Squares Mean Difference", "paramValue": "0.56", "ciPctValue": "95", "ciNumSides": "TWO_SIDED", "ciLowerLimit": "-1.84", "ciUpperLimit": "2.96", "dispersionType": "STANDARD_ERROR_OF_MEAN", "dispersionValue": "1.22"}]}, {"type": "SECONDARY", "title": "Change in Diastolic Blood Pressure From Baseline to Week 26.", "description": "Change in Diastolic Blood Pressure from baseline to Week 26.", "populationDescription": "ITT population. Only patients with non-missing baseline value and at least one non-missing post-baseline value of the response variable were included in analysis. All scheduled post-baseline measurements were included in the analysis, with no imputation of missing data other than that inherent in the MMRM model was used.", "reportingStatus": "POSTED", "paramType": "LEAST_SQUARES_MEAN", "dispersionType": "Standard Error", "unitOfMeasure": "mmHg", "timeFrame": "Baseline, Week 26", "groups": [{"id": "OG000", "title": "Exenatide Once Weekly", "description": "Exenatide once weekly (subcutaneous injection of 2 mg exenatide, once a week) + daily oral placebo"}, {"id": "OG001", "title": "Metformin", "description": "Metformin (1000 mg/day for 2 weeks, then 1500 mg/day for 2 weeks, then 2000 mg/day for 22 weeks) + weekly subcutaneous placebo injection"}, {"id": "OG002", "title": "Pioglitazone", "description": "Pioglitazone (30 mg/day for 4 weeks, then 45 mg/day for 22 weeks) + weekly subcutaneous placebo injection"}, {"id": "OG003", "title": "Sitagliptin", "description": "Sitagliptin (100 mg/day for 26 weeks) + weekly subcutaneous placebo injection"}], "denoms": [{"units": "Participants", "counts": [{"groupId": "OG000", "value": "215"}, {"groupId": "OG001", "value": "217"}, {"groupId": "OG002", "value": "134"}, {"groupId": "OG003", "value": "141"}]}], "classes": [{"categories": [{"measurements": [{"groupId": "OG000", "value": "-0.50", "spread": "0.51"}, {"groupId": "OG001", "value": "-0.86", "spread": "0.50"}, {"groupId": "OG002", "value": "-2.50", "spread": "0.63"}, {"groupId": "OG003", "value": "-0.45", "spread": "0.62"}]}]}], "analyses": [{"groupIds": ["OG000", "OG001"], "groupDescription": "Change in Diastolic Blood Pressure from baseline to Week 26 was analyzed using an MMRM ANCOVA model with treatment, baseline diastolic blood pressure, country, week of visit, and treatment-by week interaction as fixed effects; and patient and error as random effects.", "testedNonInferiority": false, "nonInferiorityType": "SUPERIORITY_OR_OTHER", "pValue": "0.610", "pValueComment": "No multiple adjustment were done.", "statisticalMethod": "Mixed Models Analysis", "paramType": "Least Squares Mean Difference", "paramValue": "0.36", "ciPctValue": "95", "ciNumSides": "TWO_SIDED", "ciLowerLimit": "-1.02", "ciUpperLimit": "1.73", "dispersionType": "STANDARD_ERROR_OF_MEAN", "dispersionValue": "0.70"}, {"groupIds": ["OG000", "OG002"], "groupDescription": "Change in Diastolic Blood Pressure from baseline to Week 26 was analyzed using an MMRM ANCOVA model with treatment, baseline diastolic blood pressure, country, week of visit, and treatment-by week interaction as fixed effects; and patient and error as random effects.", "testedNonInferiority": false, "nonInferiorityType": "SUPERIORITY_OR_OTHER", "pValue": "0.013", "pValueComment": "No multiple adjustment were done.", "statisticalMethod": "Mixed Models Analysis", "paramType": "Least Squares Mean Difference", "paramValue": "2.00", "ciPctValue": "95", "ciNumSides": "TWO_SIDED", "ciLowerLimit": "0.43", "ciUpperLimit": "3.58", "dispersionType": "STANDARD_ERROR_OF_MEAN", "dispersionValue": "0.80"}, {"groupIds": ["OG000", "OG003"], "groupDescription": "Change in Diastolic Blood Pressure from baseline to Week 26 was analyzed using an MMRM ANCOVA model with treatment, baseline diastolic blood pressure, country, week of visit, and treatment-by week interaction as fixed effects; and patient and error as random effects.", "testedNonInferiority": false, "nonInferiorityType": "SUPERIORITY_OR_OTHER", "pValue": "0.946", "pValueComment": "No multiple adjustment were done.", "statisticalMethod": "Mixed Models Analysis", "paramType": "Least Squares Mean Difference", "paramValue": "-0.05", "ciPctValue": "95", "ciNumSides": "TWO_SIDED", "ciLowerLimit": "-1.60", "ciUpperLimit": "1.49", "dispersionType": "STANDARD_ERROR_OF_MEAN", "dispersionValue": "0.79"}]}]}, "adverseEventsModule": {"frequencyThreshold": "5", "eventGroups": [{"id": "EG000", "title": "Exenatide Once Weekly", "description": "Exenatide once weekly (subcutaneous injection of 2 mg exenatide, once a week) + daily oral placebo", "seriousNumAffected": 4, "seriousNumAtRisk": 248, "otherNumAffected": 109, "otherNumAtRisk": 248}, {"id": "EG001", "title": "Metformin", "description": "Metformin (1000 mg/day for 2 weeks, then 1500 mg/day for 2 weeks, then 2000 mg/day for 22 weeks) + weekly subcutaneous placebo injection", "seriousNumAffected": 12, "seriousNumAtRisk": 246, "otherNumAffected": 94, "otherNumAtRisk": 246}, {"id": "EG002", "title": "Pioglitazone", "description": "Pioglitazone (30 mg/day for 4 weeks, then 45 mg/day for 22 weeks) + weekly subcutaneous placebo injection", "seriousNumAffected": 9, "seriousNumAtRisk": 163, "otherNumAffected": 57, "otherNumAtRisk": 163}, {"id": "EG003", "title": "Sitagliptin", "description": "Sitagliptin (100 mg/day for 26 weeks) + weekly subcutaneous placebo injection", "seriousNumAffected": 3, "seriousNumAtRisk": 163, "otherNumAffected": 55, "otherNumAtRisk": 163}], "seriousEvents": [{"term": "Calculus ureteric", "organSystem": "Renal and urinary disorders", "sourceVocabulary": "MedDRA 13.0", "assessmentType": "NON_SYSTEMATIC_ASSESSMENT", "stats": [{"groupId": "EG000", "numAffected": 1, "numAtRisk": 248}, {"groupId": "EG001", "numAffected": 1, "numAtRisk": 246}, {"groupId": "EG002", "numAffected": 0, "numAtRisk": 163}, {"groupId": "EG003", "numAffected": 0, "numAtRisk": 163}]}, {"term": "Dehydration", "organSystem": "Metabolism and nutrition disorders", "sourceVocabulary": "MedDRA 13.0", "assessmentType": "NON_SYSTEMATIC_ASSESSMENT", "stats": [{"groupId": "EG000", "numAffected": 1, "numAtRisk": 248}, {"groupId": "EG001", "numAffected": 0, "numAtRisk": 246}, {"groupId": "EG002", "numAffected": 0, "numAtRisk": 163}, {"groupId": "EG003", "numAffected": 0, "numAtRisk": 163}]}, {"term": "Hyperglycaemia", "organSystem": "Metabolism and nutrition disorders", "sourceVocabulary": "MedDRA 13.0", "assessmentType": "NON_SYSTEMATIC_ASSESSMENT", "stats": [{"groupId": "EG000", "numAffected": 1, "numAtRisk": 248}, {"groupId": "EG001", "numAffected": 0, "numAtRisk": 246}, {"groupId": "EG002", "numAffected": 0, "numAtRisk": 163}, {"groupId": "EG003", "numAffected": 0, "numAtRisk": 163}]}, {"term": "Joint sprain", "organSystem": "Injury, poisoning and procedural complications", "sourceVocabulary": "MedDRA 13.0", "assessmentType": "NON_SYSTEMATIC_ASSESSMENT", "stats": [{"groupId": "EG000", "numAffected": 1, "numAtRisk": 248}, {"groupId": "EG001", "numAffected": 0, "numAtRisk": 246}, {"groupId": "EG002", "numAffected": 0, "numAtRisk": 163}, {"groupId": "EG003", "numAffected": 0, "numAtRisk": 163}]}, {"term": "Prostate cancer", "organSystem": "Neoplasms benign, malignant and unspecified (incl cysts and polyps)", "sourceVocabulary": "MedDRA 13.0", "assessmentType": "NON_SYSTEMATIC_ASSESSMENT", "stats": [{"groupId": "EG000", "numAffected": 1, "numAtRisk": 248}, {"groupId": "EG001", "numAffected": 1, "numAtRisk": 246}, {"groupId": "EG002", "numAffected": 0, "numAtRisk": 163}, {"groupId": "EG003", "numAffected": 0, "numAtRisk": 163}]}, {"term": "Road traffic accident", "organSystem": "Injury, poisoning and procedural complications", "sourceVocabulary": "MedDRA 13.0", "assessmentType": "NON_SYSTEMATIC_ASSESSMENT", "stats": [{"groupId": "EG000", "numAffected": 1, "numAtRisk": 248}, {"groupId": "EG001", "numAffected": 0, "numAtRisk": 246}, {"groupId": "EG002", "numAffected": 0, "numAtRisk": 163}, {"groupId": "EG003", "numAffected": 0, "numAtRisk": 163}]}, {"term": "Anaemia", "organSystem": "Blood and lymphatic system disorders", "sourceVocabulary": "MedDRA 13.0", "assessmentType": "NON_SYSTEMATIC_ASSESSMENT", "stats": [{"groupId": "EG000", "numAffected": 0, "numAtRisk": 248}, {"groupId": "EG001", "numAffected": 0, "numAtRisk": 246}, {"groupId": "EG002", "numAffected": 1, "numAtRisk": 163}, {"groupId": "EG003", "numAffected": 0, "numAtRisk": 163}]}, {"term": "Angina pectoris", "organSystem": "Cardiac disorders", "sourceVocabulary": "MedDRA 13.0", "assessmentType": "NON_SYSTEMATIC_ASSESSMENT", "stats": [{"groupId": "EG000", "numAffected": 0, "numAtRisk": 248}, {"groupId": "EG001", "numAffected": 0, "numAtRisk": 246}, {"groupId": "EG002", "numAffected": 1, "numAtRisk": 163}, {"groupId": "EG003", "numAffected": 0, "numAtRisk": 163}]}, {"term": "Angina unstable", "organSystem": "Cardiac disorders", "sourceVocabulary": "MedDRA 13.0", "assessmentType": "NON_SYSTEMATIC_ASSESSMENT", "stats": [{"groupId": "EG000", "numAffected": 0, "numAtRisk": 248}, {"groupId": "EG001", "numAffected": 1, "numAtRisk": 246}, {"groupId": "EG002", "numAffected": 0, "numAtRisk": 163}, {"groupId": "EG003", "numAffected": 0, "numAtRisk": 163}]}, {"term": "Arteriovenous malformation", "organSystem": "Congenital, familial and genetic disorders", "sourceVocabulary": "MedDRA 13.0", "assessmentType": "NON_SYSTEMATIC_ASSESSMENT", "stats": [{"groupId": "EG000", "numAffected": 0, "numAtRisk": 248}, {"groupId": "EG001", "numAffected": 0, "numAtRisk": 246}, {"groupId": "EG002", "numAffected": 1, "numAtRisk": 163}, {"groupId": "EG003", "numAffected": 0, "numAtRisk": 163}]}, {"term": "Arteritis", "organSystem": "Vascular disorders", "sourceVocabulary": "MedDRA 13.0", "assessmentType": "NON_SYSTEMATIC_ASSESSMENT", "stats": [{"groupId": "EG000", "numAffected": 0, "numAtRisk": 248}, {"groupId": "EG001", "numAffected": 0, "numAtRisk": 246}, {"groupId": "EG002", "numAffected": 0, "numAtRisk": 163}, {"groupId": "EG003", "numAffected": 1, "numAtRisk": 163}]}, {"term": "Arthritis bacterial", "organSystem": "Infections and infestations", "sourceVocabulary": "MedDRA 13.0", "assessmentType": "NON_SYSTEMATIC_ASSESSMENT", "stats": [{"groupId": "EG000", "numAffected": 0, "numAtRisk": 248}, {"groupId": "EG001", "numAffected": 0, "numAtRisk": 246}, {"groupId": "EG002", "numAffected": 1, "numAtRisk": 163}, {"groupId": "EG003", "numAffected": 0, "numAtRisk": 163}]}, {"term": "Ascites", "organSystem": "Gastrointestinal disorders", "sourceVocabulary": "MedDRA 13.0", "assessmentType": "NON_SYSTEMATIC_ASSESSMENT", "stats": [{"groupId": "EG000", "numAffected": 0, "numAtRisk": 248}, {"groupId": "EG001", "numAffected": 0, "numAtRisk": 246}, {"groupId": "EG002", "numAffected": 1, "numAtRisk": 163}, {"groupId": "EG003", "numAffected": 0, "numAtRisk": 163}]}, {"term": "Bronchopneumopathy", "organSystem": "Respiratory, thoracic and mediastinal disorders", "sourceVocabulary": "MedDRA 13.0", "assessmentType": "NON_SYSTEMATIC_ASSESSMENT", "stats": [{"groupId": "EG000", "numAffected": 0, "numAtRisk": 248}, {"groupId": "EG001", "numAffected": 0, "numAtRisk": 246}, {"groupId": "EG002", "numAffected": 1, "numAtRisk": 163}, {"groupId": "EG003", "numAffected": 0, "numAtRisk": 163}]}, {"term": "Cardiopulmonary failure", "organSystem": "Cardiac disorders", "sourceVocabulary": "MedDRA 13.0", "assessmentType": "NON_SYSTEMATIC_ASSESSMENT", "stats": [{"groupId": "EG000", "numAffected": 0, "numAtRisk": 248}, {"groupId": "EG001", "numAffected": 0, "numAtRisk": 246}, {"groupId": "EG002", "numAffected": 1, "numAtRisk": 163}, {"groupId": "EG003", "numAffected": 0, "numAtRisk": 163}]}, {"term": "Cellulitis", "organSystem": "Infections and infestations", "sourceVocabulary": "MedDRA 13.0", "assessmentType": "NON_SYSTEMATIC_ASSESSMENT", "stats": [{"groupId": "EG000", "numAffected": 0, "numAtRisk": 248}, {"groupId": "EG001", "numAffected": 0, "numAtRisk": 246}, {"groupId": "EG002", "numAffected": 1, "numAtRisk": 163}, {"groupId": "EG003", "numAffected": 0, "numAtRisk": 163}]}, {"term": "Cerebrovascular accident", "organSystem": "Nervous system disorders", "sourceVocabulary": "MedDRA 13.0", "assessmentType": "NON_SYSTEMATIC_ASSESSMENT", "stats": [{"groupId": "EG000", "numAffected": 0, "numAtRisk": 248}, {"groupId": "EG001", "numAffected": 1, "numAtRisk": 246}, {"groupId": "EG002", "numAffected": 0, "numAtRisk": 163}, {"groupId": "EG003", "numAffected": 0, "numAtRisk": 163}]}, {"term": "Chest pain", "organSystem": "General disorders", "sourceVocabulary": "MedDRA 13.0", "assessmentType": "NON_SYSTEMATIC_ASSESSMENT", "stats": [{"groupId": "EG000", "numAffected": 0, "numAtRisk": 248}, {"groupId": "EG001", "numAffected": 1, "numAtRisk": 246}, {"groupId": "EG002", "numAffected": 0, "numAtRisk": 163}, {"groupId": "EG003", "numAffected": 0, "numAtRisk": 163}]}, {"term": "Chondromalacia", "organSystem": "Musculoskeletal and connective tissue disorders", "sourceVocabulary": "MedDRA 13.0", "assessmentType": "NON_SYSTEMATIC_ASSESSMENT", "stats": [{"groupId": "EG000", "numAffected": 0, "numAtRisk": 248}, {"groupId": "EG001", "numAffected": 0, "numAtRisk": 246}, {"groupId": "EG002", "numAffected": 0, "numAtRisk": 163}, {"groupId": "EG003", "numAffected": 1, "numAtRisk": 163}]}, {"term": "Diabetic foot", "organSystem": "Metabolism and nutrition disorders", "sourceVocabulary": "MedDRA 13.0", "assessmentType": "NON_SYSTEMATIC_ASSESSMENT", "stats": [{"groupId": "EG000", "numAffected": 0, "numAtRisk": 248}, {"groupId": "EG001", "numAffected": 1, "numAtRisk": 246}, {"groupId": "EG002", "numAffected": 0, "numAtRisk": 163}, {"groupId": "EG003", "numAffected": 0, "numAtRisk": 163}]}, {"term": "Gastric cancer", "organSystem": "Neoplasms benign, malignant and unspecified (incl cysts and polyps)", "sourceVocabulary": "MedDRA 13.0", "assessmentType": "NON_SYSTEMATIC_ASSESSMENT", "stats": [{"groupId": "EG000", "numAffected": 0, "numAtRisk": 248}, {"groupId": "EG001", "numAffected": 1, "numAtRisk": 246}, {"groupId": "EG002", "numAffected": 0, "numAtRisk": 163}, {"groupId": "EG003", "numAffected": 0, "numAtRisk": 163}]}, {"term": "Gastroenteritis", "organSystem": "Infections and infestations", "sourceVocabulary": "MedDRA 13.0", "assessmentType": "NON_SYSTEMATIC_ASSESSMENT", "stats": [{"groupId": "EG000", "numAffected": 0, "numAtRisk": 248}, {"groupId": "EG001", "numAffected": 0, "numAtRisk": 246}, {"groupId": "EG002", "numAffected": 1, "numAtRisk": 163}, {"groupId": "EG003", "numAffected": 0, "numAtRisk": 163}]}, {"term": "Hepatic neoplasm malignant", "organSystem": "Neoplasms benign, malignant and unspecified (incl cysts and polyps)", "sourceVocabulary": "MedDRA 13.0", "assessmentType": "NON_SYSTEMATIC_ASSESSMENT", "stats": [{"groupId": "EG000", "numAffected": 0, "numAtRisk": 248}, {"groupId": "EG001", "numAffected": 0, "numAtRisk": 246}, {"groupId": "EG002", "numAffected": 1, "numAtRisk": 163}, {"groupId": "EG003", "numAffected": 0, "numAtRisk": 163}]}, {"term": "Hysterectomy", "organSystem": "Surgical and medical procedures", "sourceVocabulary": "MedDRA 13.0", "assessmentType": "NON_SYSTEMATIC_ASSESSMENT", "stats": [{"groupId": "EG000", "numAffected": 0, "numAtRisk": 248}, {"groupId": "EG001", "numAffected": 1, "numAtRisk": 246}, {"groupId": "EG002", "numAffected": 0, "numAtRisk": 163}, {"groupId": "EG003", "numAffected": 0, "numAtRisk": 163}]}, {"term": "Jaundice", "organSystem": "Hepatobiliary disorders", "sourceVocabulary": "MedDRA 13.0", "assessmentType": "NON_SYSTEMATIC_ASSESSMENT", "stats": [{"groupId": "EG000", "numAffected": 0, "numAtRisk": 248}, {"groupId": "EG001", "numAffected": 0, "numAtRisk": 246}, {"groupId": "EG002", "numAffected": 1, "numAtRisk": 163}, {"groupId": "EG003", "numAffected": 0, "numAtRisk": 163}]}, {"term": "Loss of consciousness", "organSystem": "Nervous system disorders", "sourceVocabulary": "MedDRA 13.0", "assessmentType": "NON_SYSTEMATIC_ASSESSMENT", "stats": [{"groupId": "EG000", "numAffected": 0, "numAtRisk": 248}, {"groupId": "EG001", "numAffected": 1, "numAtRisk": 246}, {"groupId": "EG002", "numAffected": 0, "numAtRisk": 163}, {"groupId": "EG003", "numAffected": 0, "numAtRisk": 163}]}, {"term": "Lumbar hernia", "organSystem": "Gastrointestinal disorders", "sourceVocabulary": "MedDRA 13.0", "assessmentType": "NON_SYSTEMATIC_ASSESSMENT", "stats": [{"groupId": "EG000", "numAffected": 0, "numAtRisk": 248}, {"groupId": "EG001", "numAffected": 0, "numAtRisk": 246}, {"groupId": "EG002", "numAffected": 1, "numAtRisk": 163}, {"groupId": "EG003", "numAffected": 0, "numAtRisk": 163}]}, {"term": "Myocardial infarction", "organSystem": "Cardiac disorders", "sourceVocabulary": "MedDRA 13.0", "assessmentType": "NON_SYSTEMATIC_ASSESSMENT", "stats": [{"groupId": "EG000", "numAffected": 0, "numAtRisk": 248}, {"groupId": "EG001", "numAffected": 0, "numAtRisk": 246}, {"groupId": "EG002", "numAffected": 1, "numAtRisk": 163}, {"groupId": "EG003", "numAffected": 0, "numAtRisk": 163}]}, {"term": "Myocardial ischaemia", "organSystem": "Cardiac disorders", "sourceVocabulary": "MedDRA 13.0", "assessmentType": "NON_SYSTEMATIC_ASSESSMENT", "stats": [{"groupId": "EG000", "numAffected": 0, "numAtRisk": 248}, {"groupId": "EG001", "numAffected": 1, "numAtRisk": 246}, {"groupId": "EG002", "numAffected": 0, "numAtRisk": 163}, {"groupId": "EG003", "numAffected": 0, "numAtRisk": 163}]}, {"term": "Nausea", "organSystem": "Gastrointestinal disorders", "sourceVocabulary": "MedDRA 13.0", "assessmentType": "NON_SYSTEMATIC_ASSESSMENT", "stats": [{"groupId": "EG000", "numAffected": 0, "numAtRisk": 248}, {"groupId": "EG001", "numAffected": 0, "numAtRisk": 246}, {"groupId": "EG002", "numAffected": 1, "numAtRisk": 163}, {"groupId": "EG003", "numAffected": 0, "numAtRisk": 163}]}, {"term": "Oedema", "organSystem": "General disorders", "sourceVocabulary": "MedDRA 13.0", "assessmentType": "NON_SYSTEMATIC_ASSESSMENT", "stats": [{"groupId": "EG000", "numAffected": 0, "numAtRisk": 248}, {"groupId": "EG001", "numAffected": 0, "numAtRisk": 246}, {"groupId": "EG002", "numAffected": 1, "numAtRisk": 163}, {"groupId": "EG003", "numAffected": 0, "numAtRisk": 163}]}, {"term": "Peritonsillar abscess", "organSystem": "Infections and infestations", "sourceVocabulary": "MedDRA 13.0", "assessmentType": "NON_SYSTEMATIC_ASSESSMENT", "stats": [{"groupId": "EG000", "numAffected": 0, "numAtRisk": 248}, {"groupId": "EG001", "numAffected": 1, "numAtRisk": 246}, {"groupId": "EG002", "numAffected": 0, "numAtRisk": 163}, {"groupId": "EG003", "numAffected": 0, "numAtRisk": 163}]}, {"term": "Rotator cuff syndrome", "organSystem": "Musculoskeletal and connective tissue disorders", "sourceVocabulary": "MedDRA 13.0", "assessmentType": "NON_SYSTEMATIC_ASSESSMENT", "stats": [{"groupId": "EG000", "numAffected": 0, "numAtRisk": 248}, {"groupId": "EG001", "numAffected": 0, "numAtRisk": 246}, {"groupId": "EG002", "numAffected": 0, "numAtRisk": 163}, {"groupId": "EG003", "numAffected": 1, "numAtRisk": 163}]}, {"term": "Typhoid fever", "organSystem": "Infections and infestations", "sourceVocabulary": "MedDRA 13.0", "assessmentType": "NON_SYSTEMATIC_ASSESSMENT", "stats": [{"groupId": "EG000", "numAffected": 0, "numAtRisk": 248}, {"groupId": "EG001", "numAffected": 1, "numAtRisk": 246}, {"groupId": "EG002", "numAffected": 0, "numAtRisk": 163}, {"groupId": "EG003", "numAffected": 0, "numAtRisk": 163}]}, {"term": "Vomiting", "organSystem": "Gastrointestinal disorders", "sourceVocabulary": "MedDRA 13.0", "assessmentType": "NON_SYSTEMATIC_ASSESSMENT", "stats": [{"groupId": "EG000", "numAffected": 0, "numAtRisk": 248}, {"groupId": "EG001", "numAffected": 0, "numAtRisk": 246}, {"groupId": "EG002", "numAffected": 1, "numAtRisk": 163}, {"groupId": "EG003", "numAffected": 0, "numAtRisk": 163}]}, {"term": "Wound infection", "organSystem": "Infections and infestations", "sourceVocabulary": "MedDRA 13.0", "assessmentType": "NON_SYSTEMATIC_ASSESSMENT", "stats": [{"groupId": "EG000", "numAffected": 0, "numAtRisk": 248}, {"groupId": "EG001", "numAffected": 0, "numAtRisk": 246}, {"groupId": "EG002", "numAffected": 1, "numAtRisk": 163}, {"groupId": "EG003", "numAffected": 0, "numAtRisk": 163}]}], "otherEvents": [{"term": "Nausea", "organSystem": "Gastrointestinal disorders", "sourceVocabulary": "MedDRA 13.0", "assessmentType": "NON_SYSTEMATIC_ASSESSMENT", "stats": [{"groupId": "EG000", "numAffected": 28, "numAtRisk": 248}, {"groupId": "EG001", "numAffected": 17, "numAtRisk": 246}, {"groupId": "EG002", "numAffected": 6, "numAtRisk": 163}, {"groupId": "EG003", "numAffected": 6, "numAtRisk": 163}]}, {"term": "Diarrhoea", "organSystem": "Gastrointestinal disorders", "sourceVocabulary": "MedDRA 13.0", "assessmentType": "NON_SYSTEMATIC_ASSESSMENT", "stats": [{"groupId": "EG000", "numAffected": 27, "numAtRisk": 248}, {"groupId": "EG001", "numAffected": 31, "numAtRisk": 246}, {"groupId": "EG002", "numAffected": 6, "numAtRisk": 163}, {"groupId": "EG003", "numAffected": 9, "numAtRisk": 163}]}, {"term": "Injection site nodule", "organSystem": "General disorders", "sourceVocabulary": "MedDRA 13.0", "assessmentType": "NON_SYSTEMATIC_ASSESSMENT", "stats": [{"groupId": "EG000", "numAffected": 26, "numAtRisk": 248}, {"groupId": "EG001", "numAffected": 25, "numAtRisk": 246}, {"groupId": "EG002", "numAffected": 6, "numAtRisk": 163}, {"groupId": "EG003", "numAffected": 11, "numAtRisk": 163}]}, {"term": "Constipation", "organSystem": "Gastrointestinal disorders", "sourceVocabulary": "MedDRA 13.0", "assessmentType": "NON_SYSTEMATIC_ASSESSMENT", "stats": [{"groupId": "EG000", "numAffected": 21, "numAtRisk": 248}, {"groupId": "EG001", "numAffected": 8, "numAtRisk": 246}, {"groupId": "EG002", "numAffected": 3, "numAtRisk": 163}, {"groupId": "EG003", "numAffected": 4, "numAtRisk": 163}]}, {"term": "Headache", "organSystem": "Nervous system disorders", "sourceVocabulary": "MedDRA 13.0", "assessmentType": "NON_SYSTEMATIC_ASSESSMENT", "stats": [{"groupId": "EG000", "numAffected": 20, "numAtRisk": 248}, {"groupId": "EG001", "numAffected": 30, "numAtRisk": 246}, {"groupId": "EG002", "numAffected": 13, "numAtRisk": 163}, {"groupId": "EG003", "numAffected": 15, "numAtRisk": 163}]}, {"term": "Nasopharyngitis", "organSystem": "Infections and infestations", "sourceVocabulary": "MedDRA 13.0", "assessmentType": "NON_SYSTEMATIC_ASSESSMENT", "stats": [{"groupId": "EG000", "numAffected": 19, "numAtRisk": 248}, {"groupId": "EG001", "numAffected": 11, "numAtRisk": 246}, {"groupId": "EG002", "numAffected": 14, "numAtRisk": 163}, {"groupId": "EG003", "numAffected": 16, "numAtRisk": 163}]}, {"term": "Dyspepsia", "organSystem": "Gastrointestinal disorders", "sourceVocabulary": "MedDRA 13.0", "assessmentType": "NON_SYSTEMATIC_ASSESSMENT", "stats": [{"groupId": "EG000", "numAffected": 18, "numAtRisk": 248}, {"groupId": "EG001", "numAffected": 8, "numAtRisk": 246}, {"groupId": "EG002", "numAffected": 8, "numAtRisk": 163}, {"groupId": "EG003", "numAffected": 3, "numAtRisk": 163}]}, {"term": "Arthralgia", "organSystem": "Musculoskeletal and connective tissue disorders", "sourceVocabulary": "MedDRA 13.0", "assessmentType": "NON_SYSTEMATIC_ASSESSMENT", "stats": [{"groupId": "EG000", "numAffected": 13, "numAtRisk": 248}, {"groupId": "EG001", "numAffected": 3, "numAtRisk": 246}, {"groupId": "EG002", "numAffected": 5, "numAtRisk": 163}, {"groupId": "EG003", "numAffected": 3, "numAtRisk": 163}]}, {"term": "Back pain", "organSystem": "Musculoskeletal and connective tissue disorders", "sourceVocabulary": "MedDRA 13.0", "assessmentType": "NON_SYSTEMATIC_ASSESSMENT", "stats": [{"groupId": "EG000", "numAffected": 6, "numAtRisk": 248}, {"groupId": "EG001", "numAffected": 14, "numAtRisk": 246}, {"groupId": "EG002", "numAffected": 7, "numAtRisk": 163}, {"groupId": "EG003", "numAffected": 5, "numAtRisk": 163}]}, {"term": "Hypertension", "organSystem": "Vascular disorders", "sourceVocabulary": "MedDRA 13.0", "assessmentType": "NON_SYSTEMATIC_ASSESSMENT", "stats": [{"groupId": "EG000", "numAffected": 3, "numAtRisk": 248}, {"groupId": "EG001", "numAffected": 3, "numAtRisk": 246}, {"groupId": "EG002", "numAffected": 12, "numAtRisk": 163}, {"groupId": "EG003", "numAffected": 3, "numAtRisk": 163}]}, {"term": "Oedema peripheral", "organSystem": "General disorders", "sourceVocabulary": "MedDRA 13.0", "assessmentType": "NON_SYSTEMATIC_ASSESSMENT", "stats": [{"groupId": "EG000", "numAffected": 0, "numAtRisk": 248}, {"groupId": "EG001", "numAffected": 1, "numAtRisk": 246}, {"groupId": "EG002", "numAffected": 12, "numAtRisk": 163}, {"groupId": "EG003", "numAffected": 1, "numAtRisk": 163}]}]}, "moreInfoModule": {"certainAgreement": {"piSponsorEmployee": false, "restrictionType": "GT60", "restrictiveAgreement": true}, "pointOfContact": {"title": "Peter Ohman, Medical Science Director", "organization": "AstraZeneca", "email": "ClinicalTrialTransparency@astrazeneca.com"}}}, "derivedSection": {"miscInfoModule": {"versionHolder": "2024-06-24"}, "conditionBrowseModule": {"meshes": [{"id": "D000003920", "term": "Diabetes Mellitus"}, {"id": "D000003924", "term": "Diabetes Mellitus, Type 2"}], "ancestors": [{"id": "D000044882", "term": "Glucose Metabolism Disorders"}, {"id": "D000008659", "term": "Metabolic Diseases"}, {"id": "D000004700", "term": "Endocrine System Diseases"}], "browseLeaves": [{"id": "M7115", "name": "Diabetes Mellitus", "asFound": "Diabetes", "relevance": "HIGH"}, {"id": "M7119", "name": "Diabetes Mellitus, Type 2", "asFound": "Type 2 Diabetes", "relevance": "HIGH"}, {"id": "M11639", "name": "Metabolic Diseases", "relevance": "LOW"}, {"id": "M25403", "name": "Glucose Metabolism Disorders", "relevance": "LOW"}, {"id": "M7862", "name": "Endocrine System Diseases", "relevance": "LOW"}], "browseBranches": [{"abbrev": "BC18", "name": "Nutritional and Metabolic Diseases"}, {"abbrev": "BC19", "name": "Gland and Hormone Related Diseases"}, {"abbrev": "All", "name": "All Conditions"}]}, "interventionBrowseModule": {"meshes": [{"id": "D000008687", "term": "Metformin"}, {"id": "D000077205", "term": "Pioglitazone"}, {"id": "D000068900", "term": "Sitagliptin Phosphate"}, {"id": "D000077270", "term": "Exenatide"}], "ancestors": [{"id": "D000007004", "term": "Hypoglycemic Agents"}, {"id": "D000045505", "term": "Physiological Effects of Drugs"}, {"id": "D000054795", "term": "Incretins"}, {"id": "D000006728", "term": "Hormones"}, {"id": "D000006730", "term": "Hormones, Hormone Substitutes, and Hormone Antagonists"}, {"id": "D000054873", "term": "Dipeptidyl-Peptidase IV Inhibitors"}, {"id": "D000011480", "term": "Protease Inhibitors"}, {"id": "D000004791", "term": "Enzyme Inhibitors"}, {"id": "D000045504", "term": "Molecular Mechanisms of Pharmacological Action"}, {"id": "D000097789", "term": "Glucagon-Like Peptide-1 Receptor Agonists"}, {"id": "D000019440", "term": "Anti-Obesity Agents"}], "browseLeaves": [{"id": "M11667", "name": "Metformin", "asFound": "Assessment", "relevance": "HIGH"}, {"id": "M1693", "name": "Pioglitazone", "asFound": "Registry", "relevance": "HIGH"}, {"id": "M27957", "name": "Dipeptidyl-Peptidase IV Inhibitors", "relevance": "LOW"}, {"id": "M335", "name": "Sitagliptin Phosphate", "asFound": "Percutaneous", "relevance": "HIGH"}, {"id": "M1726", "name": "Exenatide", "asFound": "Bipolar", "relevance": "HIGH"}, {"id": "M244708", "name": "2,4-thiazolidinedione", "relevance": "LOW"}, {"id": "M29005", "name": "Islet Amyloid Polypeptide", "relevance": "LOW"}, {"id": "M10054", "name": "Hypoglycemic Agents", "relevance": "LOW"}, {"id": "M27905", "name": "Incretins", "relevance": "LOW"}, {"id": "M9789", "name": "Hormones", "relevance": "LOW"}, {"id": "M9788", "name": "Hormone Antagonists", "relevance": "LOW"}, {"id": "M19609", "name": "HIV Protease Inhibitors", "relevance": "LOW"}, {"id": "M14343", "name": "Protease Inhibitors", "relevance": "LOW"}, {"id": "M7951", "name": "Enzyme Inhibitors", "relevance": "LOW"}, {"id": "M3401", "name": "Glucagon-Like Peptide-1 Receptor Agonists", "relevance": "LOW"}, {"id": "M9043", "name": "Glucagon", "relevance": "LOW"}, {"id": "M26997", "name": "Glucagon-Like Peptide 1", "relevance": "LOW"}, {"id": "M21396", "name": "Anti-Obesity Agents", "relevance": "LOW"}], "browseBranches": [{"abbrev": "Hypo", "name": "Hypoglycemic Agents"}, {"abbrev": "All", "name": "All Drugs and Chemicals"}, {"abbrev": "AnObAg", "name": "Anti-Obesity Agents"}, {"abbrev": "Infe", "name": "Anti-Infective Agents"}, {"abbrev": "Gast", "name": "Gastrointestinal Agents"}]}}, "hasResults": true}