{"protocolSection": {"identificationModule": {"nctId": "NCT00847288", "orgStudyIdInfo": {"id": "OptiVol\u00ae Care Pathway"}, "organization": {"fullName": "Medtronic Cardiac Rhythm and Heart Failure", "class": "INDUSTRY"}, "briefTitle": "OptiVol\u00ae Care Pathway", "officialTitle": "OptiVol\u00ae Care Pathway"}, "statusModule": {"statusVerifiedDate": "2013-04", "overallStatus": "COMPLETED", "expandedAccessInfo": {"hasExpandedAccess": false}, "startDateStruct": {"date": "2009-03"}, "primaryCompletionDateStruct": {"date": "2011-03", "type": "ACTUAL"}, "completionDateStruct": {"date": "2011-05", "type": "ACTUAL"}, "studyFirstSubmitDate": "2009-02-13", "studyFirstSubmitQcDate": "2009-02-17", "studyFirstPostDateStruct": {"date": "2009-02-19", "type": "ESTIMATED"}, "resultsFirstSubmitDate": "2012-06-05", "resultsFirstSubmitQcDate": "2013-04-30", "resultsFirstPostDateStruct": {"date": "2013-05-03", "type": "ESTIMATED"}, "lastUpdateSubmitDate": "2013-04-30", "lastUpdatePostDateStruct": {"date": "2013-05-03", "type": "ESTIMATED"}}, "sponsorCollaboratorsModule": {"responsibleParty": {"type": "SPONSOR"}, "leadSponsor": {"name": "Medtronic Cardiac Rhythm and Heart Failure", "class": "INDUSTRY"}}, "oversightModule": {"oversightHasDmc": false}, "descriptionModule": {"briefSummary": "Medtronic, Inc. is sponsoring the OptiVol\u00ae Care Pathway Study, a prospective, randomized, multi-center, post-market clinical trial in the United States. The purpose of this clinical trial is to compare monthly versus quarterly review of Cardiac Compass\u00ae Trends with OptiVol for initiation of clinical action. It is hypothesized that monthly review of Cardiac Compass Trends with OptiVol will shorten time to clinical action as compared to quarterly review."}, "conditionsModule": {"conditions": ["Heart Failure"], "keywords": ["Heart Failure", "Implantable Cardioverter Defibrillator (ICD)", "Cardiac Resynchronization Therapy with Defibrillator (CRT D)", "OptiVol\u00ae"]}, "designModule": {"studyType": "INTERVENTIONAL", "phases": ["PHASE4"], "designInfo": {"allocation": "RANDOMIZED", "interventionModel": "PARALLEL", "primaryPurpose": "TREATMENT", "maskingInfo": {"masking": "NONE"}}, "enrollmentInfo": {"count": 1682, "type": "ACTUAL"}}, "armsInterventionsModule": {"armGroups": [{"label": "Monthly Review Arm", "type": "EXPERIMENTAL", "description": "Patients enrolled at centers that are assigned to the monthly review arm will have their device data reviewed monthly", "interventionNames": ["Other: Monthly Review Arm"]}, {"label": "Quarterly Review Arm", "type": "ACTIVE_COMPARATOR", "description": "Patients enrolled at centers that are assigned to the quarterly review arm will have their device data reviewed every 3 months", "interventionNames": ["Other: Quarterly Review Arm"]}], "interventions": [{"type": "OTHER", "name": "Monthly Review Arm", "description": "Monthly review of Cardiac Compass Trends with OptiVol. This intervention is related to disease management.", "armGroupLabels": ["Monthly Review Arm"]}, {"type": "OTHER", "name": "Quarterly Review Arm", "description": "Quarterly review of Cardiac Compass Trends with OptiVol. This intervention is related to disease management.", "armGroupLabels": ["Quarterly Review Arm"]}]}, "outcomesModule": {"primaryOutcomes": [{"measure": "Compare the Time to Initiation of Clinical Action Prompted by an OptiVol Threshold Crossing Between Monthly and Quarterly Review of Cardiac Compass Trends With OptiVol", "timeFrame": "1 year"}], "secondaryOutcomes": [{"measure": "Compare Changes in Subject Self-care Over Time in the Monthly Review Arm vs. Quarterly Review Arm", "description": "There are 3 summary scale scores for the Self-Care of Heart Failure Index (SCHFI) form: self-care maintenance score (Section A), management score (Section B), and confidence score (Section C). Each scale score is standardized to a 0 to 100 range, with 0 indicating the worst and 100 indicating the best performance for each scale score.\n\nHere, changes in each scale score between 6 month follow-up and baseline and between 12 month follow-up and baseline are the secondary outcome measures. Specifically, change at 6 (or 12) month follow-up is calculated as a scale score at 6 (or 12) month follow-up subtracts that at baseline. These changes range from -100 to 100 with 0 indicating no change at all, -100 indicating maximum decrease and 100 indicating maximum increase that is possible from baseline for a self-care scale score.", "timeFrame": "1 year"}, {"measure": "Identify Patient Groups Who Are More Likely to Have Clinical Actions Triggered by Monthly Rather Than Quarterly Reviews", "description": "The binary outcome of having clinical actions taken (Yes/No) is recorded within one month interval for the monthly review group, and within three months interval for the quarterly review group. To make the endpoints of both groups comparable, data from monthly review group are converted as they were collected quarterly. For example, the month 1, 2 and 3 visits of monthly review group are combined as one visit. If there is at least one action taken in any of these three monthly visits, the action taken variable for the combined visit will be recorded as 'yes'. Unscheduled visits in both groups are lumped to the next quarterly time point.", "timeFrame": "1 year"}, {"measure": "Compare the Time to Initiation of Clinical Action With or Without an OptiVol Threshold Crossing Between Monthly and Quarterly Review of Cardiac Compass Trends With OptiVol", "timeFrame": "1 year"}]}, "eligibilityModule": {"eligibilityCriteria": "Inclusion Criteria:\n\n* Subject (or subject's legally authorized representative) is willing and able to sign and date written consent form and Authorization for Access to and Use of Health Information\n* Subject is at least 18 years of age\n* Subject is willing and able to comply with Clinical Investigation Plan\n* Subject is willing and able to transmit data using Medtronic CareLink\u00ae Network\n* Subject has market released right atrial (RA) (if applicable), right ventricular (RV), and left ventricular (LV) (if applicable) leads and one of the following generators implanted: Concerto\u00ae CRT-D - Model C154DWK, Virtuoso\u00ae DR ICD - Model D154AWG, Virtuoso\u00ae VR ICD - Model D154VWC, Consulta\u2122 CRT-D - Model D224TRK, Secura\u2122 DR ICD - Model D224DRG, Secura\u2122 VR ICD - Model D224VRC, or any future market released Medtronic generator with wireless telemetry, Cardiac Compass with OptiVol Fluid Status Monitoring, and that is supported by the Medtronic CareLink Network\n\nExclusion Criteria:\n\n* Subject is enrolled in a concurrent study with the exception of a study approved by the Medtronic Clinical Trial Leader prior to enrollment\n* Subject has life expectancy of less than 1 year", "healthyVolunteers": false, "sex": "ALL", "minimumAge": "18 Years", "stdAges": ["ADULT", "OLDER_ADULT"]}, "contactsLocationsModule": {"overallOfficials": [{"name": "Wilson Tang, MD", "affiliation": "Department of Cardiovascular Medicine, Cleveland Clinic", "role": "PRINCIPAL_INVESTIGATOR"}], "locations": [{"city": "Birmingham", "state": "Alabama", "country": "United States", "geoPoint": {"lat": 33.52066, "lon": -86.80249}}, {"city": "Mobile", "state": "Alabama", "country": "United States", "geoPoint": {"lat": 30.69436, "lon": -88.04305}}, {"city": "Anchorage", "state": "Alaska", "country": "United States", "geoPoint": {"lat": 61.21806, "lon": -149.90028}}, {"city": "Mesa", "state": "Arizona", "country": "United States", "geoPoint": {"lat": 33.42227, "lon": -111.82264}}, {"city": "Ft. Smith", "state": "Arkansas", "country": "United States", "geoPoint": {"lat": 35.38592, "lon": -94.39855}}, {"city": "Little Rock", "state": "Arkansas", "country": "United States", "geoPoint": {"lat": 34.74648, "lon": -92.28959}}, {"city": "Alhambra", "state": "California", "country": "United States", "geoPoint": {"lat": 34.09529, "lon": -118.12701}}, {"city": "Berkeley", "state": "California", "country": "United States", "geoPoint": {"lat": 37.87159, "lon": -122.27275}}, {"city": "Burbank", "state": "California", "country": "United States", "geoPoint": {"lat": 34.18084, "lon": -118.30897}}, {"city": "Chula Vista", "state": "California", "country": "United States", "geoPoint": {"lat": 32.64005, "lon": -117.0842}}, {"city": "La Jolla", "state": "California", "country": "United States", "geoPoint": {"lat": 32.84727, "lon": -117.2742}}, {"city": "Larkspur", "state": "California", "country": "United States", "geoPoint": {"lat": 37.93409, "lon": -122.53525}}, {"city": "Pomona", "state": "California", "zip": "91767", "country": "United States", "geoPoint": {"lat": 34.05529, "lon": -117.75228}}, {"city": "Rancho Mirage", "state": "California", "country": "United States", "geoPoint": {"lat": 33.73974, "lon": -116.41279}}, {"city": "Riverside", "state": "California", "country": "United States", "geoPoint": {"lat": 33.95335, "lon": -117.39616}}, {"city": "San Francisco", "state": "California", "zip": "94115", "country": "United States", "geoPoint": {"lat": 37.77493, "lon": -122.41942}}, {"city": "Torrance", "state": "California", "country": "United States", "geoPoint": {"lat": 33.83585, "lon": -118.34063}}, {"city": "Boulder", "state": "Colorado", "country": "United States", "geoPoint": {"lat": 40.01499, "lon": -105.27055}}, {"city": "Colorado Springs", "state": "Colorado", "country": "United States", "geoPoint": {"lat": 38.83388, "lon": -104.82136}}, {"city": "Brandenton", "state": "Florida", "country": "United States", "geoPoint": {"lat": 27.49893, "lon": -82.57482}}, {"city": "Clearwater", "state": "Florida", "country": "United States", "geoPoint": {"lat": 27.96585, "lon": -82.8001}}, {"city": "Daytona Beach", "state": "Florida", "country": "United States", "geoPoint": {"lat": 29.21081, "lon": -81.02283}}, {"city": "Ft. Lauderdale", "state": "Florida", "country": "United States", "geoPoint": {"lat": 26.12231, "lon": -80.14338}}, {"city": "Gainesville", "state": "Florida", "country": "United States", "geoPoint": {"lat": 29.65163, "lon": -82.32483}}, {"city": "Inverness", "state": "Florida", "country": "United States", "geoPoint": {"lat": 28.83582, "lon": -82.33037}}, {"city": "Jacksonville", "state": "Florida", "country": "United States", "geoPoint": {"lat": 30.33218, "lon": -81.65565}}, {"city": "Jupiter", "state": "Florida", "country": "United States", "geoPoint": {"lat": 26.93422, "lon": -80.09421}}, {"city": "Miami", "state": "Florida", "country": "United States", "geoPoint": {"lat": 25.77427, "lon": -80.19366}}, {"city": "Orlando", "state": "Florida", "country": "United States", "geoPoint": {"lat": 28.53834, "lon": -81.37924}}, {"city": "Trinity", "state": "Florida", "country": "United States", "geoPoint": {"lat": 28.18085, "lon": -82.68177}}, {"city": "Augusta", "state": "Georgia", "country": "United States", "geoPoint": {"lat": 33.47097, "lon": -81.97484}}, {"city": "Columbus", "state": "Georgia", "country": "United States", "geoPoint": {"lat": 32.46098, "lon": -84.98771}}, {"city": "Chicago", "state": "Illinois", "country": "United States", "geoPoint": {"lat": 41.85003, "lon": -87.65005}}, {"city": "Kankakee", "state": "Illinois", "country": "United States", "geoPoint": {"lat": 41.12003, "lon": -87.86115}}, {"city": "Oak Lawn", "state": "Illinois", "country": "United States", "geoPoint": {"lat": 41.71087, "lon": -87.75811}}, {"city": "Rockford", "state": "Illinois", "country": "United States", "geoPoint": {"lat": 42.27113, "lon": -89.094}}, {"city": "Bloomington", "state": "Indiana", "country": "United States", "geoPoint": {"lat": 39.16533, "lon": -86.52639}}, {"city": "Muncie", "state": "Indiana", "country": "United States", "geoPoint": {"lat": 40.19338, "lon": -85.38636}}, {"city": "Munster", "state": "Indiana", "country": "United States", "geoPoint": {"lat": 41.56448, "lon": -87.51254}}, {"city": "Terre Haute", "state": "Indiana", "country": "United States", "geoPoint": {"lat": 39.4667, "lon": -87.41391}}, {"city": "Davenport", "state": "Iowa", "country": "United States", "geoPoint": {"lat": 41.52364, "lon": -90.57764}}, {"city": "Des Moines", "state": "Iowa", "country": "United States", "geoPoint": {"lat": 41.60054, "lon": -93.60911}}, {"city": "Ashland", "state": "Kentucky", "country": "United States", "geoPoint": {"lat": 38.47841, "lon": -82.63794}}, {"city": "Lexington", "state": "Kentucky", "country": "United States", "geoPoint": {"lat": 37.98869, "lon": -84.47772}}, {"city": "Louisville", "state": "Kentucky", "country": "United States", "geoPoint": {"lat": 38.25424, "lon": -85.75941}}, {"city": "Shreveport", "state": "Louisiana", "country": "United States", "geoPoint": {"lat": 32.52515, "lon": -93.75018}}, {"city": "Bangor", "state": "Maine", "country": "United States", "geoPoint": {"lat": 44.80118, "lon": -68.77781}}, {"city": "Glen Burnie", "state": "Maryland", "country": "United States", "geoPoint": {"lat": 39.16261, "lon": -76.62469}}, {"city": "Rockville", "state": "Maryland", "country": "United States", "geoPoint": {"lat": 39.084, "lon": -77.15276}}, {"city": "Salisbury", "state": "Maryland", "country": "United States", "geoPoint": {"lat": 38.36067, "lon": -75.59937}}, {"city": "Boston", "state": "Massachusetts", "country": "United States", "geoPoint": {"lat": 42.35843, "lon": -71.05977}}, {"city": "Detroit", "state": "Michigan", "zip": "48236", "country": "United States", "geoPoint": {"lat": 42.33143, "lon": -83.04575}}, {"city": "Grand Blanc", "state": "Michigan", "country": "United States", "geoPoint": {"lat": 42.92753, "lon": -83.62995}}, {"city": "Grand Rapids", "state": "Michigan", "country": "United States", "geoPoint": {"lat": 42.96336, "lon": -85.66809}}, {"city": "Petosky", "state": "Michigan", "country": "United States", "geoPoint": {"lat": 45.37334, "lon": -84.95533}}, {"city": "Sterling Heights", "state": "Michigan", "country": "United States", "geoPoint": {"lat": 42.58031, "lon": -83.0302}}, {"city": "Coon Rapids", "state": "Minnesota", "country": "United States", "geoPoint": {"lat": 45.11997, "lon": -93.28773}}, {"city": "Minneapolis", "state": "Minnesota", "country": "United States", "geoPoint": {"lat": 44.97997, "lon": -93.26384}}, {"city": "St. Cloud", "state": "Minnesota", "country": "United States", "geoPoint": {"lat": 45.5608, "lon": -94.16249}}, {"city": "Columbia", "state": "Missouri", "country": "United States", "geoPoint": {"lat": 38.95171, "lon": -92.33407}}, {"city": "Kansas City", "state": "Missouri", "country": "United States", "geoPoint": {"lat": 39.09973, "lon": -94.57857}}, {"city": "Springfield", "state": "Missouri", "country": "United States", "geoPoint": {"lat": 37.21533, "lon": -93.29824}}, {"city": "St. Joseph", "state": "Missouri", "country": "United States", "geoPoint": {"lat": 39.76861, "lon": -94.84663}}, {"city": "St. Louis", "state": "Missouri", "country": "United States", "geoPoint": {"lat": 38.62727, "lon": -90.19789}}, {"city": "Omaha", "state": "Nebraska", "country": "United States", "geoPoint": {"lat": 41.25626, "lon": -95.94043}}, {"city": "Reno", "state": "Nevada", "country": "United States", "geoPoint": {"lat": 39.52963, "lon": -119.8138}}, {"city": "Bridgewater", "state": "New Jersey", "country": "United States", "geoPoint": {"lat": 40.60079, "lon": -74.64815}}, {"city": "Galloway", "state": "New Jersey", "country": "United States", "geoPoint": {"lat": 39.48788, "lon": -74.47598}}, {"city": "Newark", "state": "New Jersey", "zip": "07105", "country": "United States", "geoPoint": {"lat": 40.73566, "lon": -74.17237}}, {"city": "Ocean", "state": "New Jersey", "zip": "07712", "country": "United States", "geoPoint": {"lat": 39.27762, "lon": -74.5746}}, {"city": "Voorhees", "state": "New Jersey", "country": "United States", "geoPoint": {"lat": 40.48122, "lon": -74.48321}}, {"city": "Buffalo", "state": "New York", "country": "United States", "geoPoint": {"lat": 42.88645, "lon": -78.87837}}, {"city": "Fayetteville", "state": "New York", "country": "United States", "geoPoint": {"lat": 43.02979, "lon": -76.00436}}, {"city": "Garden City", "state": "New York", "zip": "11530", "country": "United States", "geoPoint": {"lat": 40.72677, "lon": -73.6343}}, {"city": "Durham", "state": "North Carolina", "country": "United States", "geoPoint": {"lat": 35.99403, "lon": -78.89862}}, {"city": "Gastonia", "state": "North Carolina", "country": "United States", "geoPoint": {"lat": 35.26208, "lon": -81.1873}}, {"city": "Greensboro", "state": "North Carolina", "country": "United States", "geoPoint": {"lat": 36.07264, "lon": -79.79198}}, {"city": "Wilmington", "state": "North Carolina", "country": "United States", "geoPoint": {"lat": 34.22573, "lon": -77.94471}}, {"city": "Minot", "state": "North Dakota", "country": "United States", "geoPoint": {"lat": 48.23251, "lon": -101.29627}}, {"city": "Akron", "state": "Ohio", "country": "United States", "geoPoint": {"lat": 41.08144, "lon": -81.51901}}, {"city": "Cleveland", "state": "Ohio", "country": "United States", "geoPoint": {"lat": 41.4995, "lon": -81.69541}}, {"city": "Kettering", "state": "Ohio", "country": "United States", "geoPoint": {"lat": 39.6895, "lon": -84.16883}}, {"city": "Poland", "state": "Ohio", "zip": "44514", "country": "United States", "geoPoint": {"lat": 41.02423, "lon": -80.6148}}, {"city": "Steubenville", "state": "Ohio", "country": "United States", "geoPoint": {"lat": 40.36979, "lon": -80.63396}}, {"city": "Toledo", "state": "Ohio", "country": "United States", "geoPoint": {"lat": 41.66394, "lon": -83.55521}}, {"city": "Oklahoma City", "state": "Oklahoma", "country": "United States", "geoPoint": {"lat": 35.46756, "lon": -97.51643}}, {"city": "Bend", "state": "Oregon", "country": "United States", "geoPoint": {"lat": 44.05817, "lon": -121.31531}}, {"city": "Doylestown", "state": "Pennsylvania", "country": "United States", "geoPoint": {"lat": 40.31011, "lon": -75.12989}}, {"city": "Lancaster", "state": "Pennsylvania", "country": "United States", "geoPoint": {"lat": 40.03788, "lon": -76.30551}}, {"city": "Philadelphia", "state": "Pennsylvania", "country": "United States", "geoPoint": {"lat": 39.95233, "lon": -75.16379}}, {"city": "Pittsburgh", "state": "Pennsylvania", "country": "United States", "geoPoint": {"lat": 40.44062, "lon": -79.99589}}, {"city": "Wynnewood", "state": "Pennsylvania", "country": "United States", "geoPoint": {"lat": 40.00289, "lon": -75.27074}}, {"city": "Columbia", "state": "South Carolina", "country": "United States", "geoPoint": {"lat": 34.00071, "lon": -81.03481}}, {"city": "Greenwood", "state": "South Carolina", "country": "United States", "geoPoint": {"lat": 34.1954, "lon": -82.16179}}, {"city": "Spartanburg", "state": "South Carolina", "country": "United States", "geoPoint": {"lat": 34.94957, "lon": -81.93205}}, {"city": "West Columbia", "state": "South Carolina", "country": "United States", "geoPoint": {"lat": 33.99349, "lon": -81.07398}}, {"city": "Germantown", "state": "Tennessee", "country": "United States", "geoPoint": {"lat": 35.08676, "lon": -89.81009}}, {"city": "Johnson City", "state": "Tennessee", "country": "United States", "geoPoint": {"lat": 36.31344, "lon": -82.35347}}, {"city": "Memphis", "state": "Tennessee", "zip": "38120", "country": "United States", "geoPoint": {"lat": 35.14953, "lon": -90.04898}}, {"city": "Nashville", "state": "Tennessee", "country": "United States", "geoPoint": {"lat": 36.16589, "lon": -86.78444}}, {"city": "Austin", "state": "Texas", "country": "United States", "geoPoint": {"lat": 30.26715, "lon": -97.74306}}, {"city": "Corpus Christi", "state": "Texas", "country": "United States", "geoPoint": {"lat": 27.80058, "lon": -97.39638}}, {"city": "McAllen", "state": "Texas", "country": "United States", "geoPoint": {"lat": 26.20341, "lon": -98.23001}}, {"city": "San Antonio", "state": "Texas", "country": "United States", "geoPoint": {"lat": 29.42412, "lon": -98.49363}}, {"city": "Tyler", "state": "Texas", "country": "United States", "geoPoint": {"lat": 32.35126, "lon": -95.30106}}, {"city": "Lynchburg", "state": "Virginia", "country": "United States", "geoPoint": {"lat": 37.41375, "lon": -79.14225}}, {"city": "Spokane", "state": "Washington", "country": "United States", "geoPoint": {"lat": 47.65966, "lon": -117.42908}}, {"city": "Madison", "state": "Wisconsin", "country": "United States", "geoPoint": {"lat": 43.07305, "lon": -89.40123}}]}}, "resultsSection": {"participantFlowModule": {"preAssignmentDetails": "There were 1682 enrollments from 106 study centers. 1668 of those enrollments met the inclusion criteria for the study and thus were randomized. Fourteen did not meet the inclusion criteria and were excluded before randomization.", "recruitmentDetails": "The recruitment period of OptiVol Care Pathway Study was from April 2, 2009 to March 7, 2011.", "groups": [{"id": "FG000", "title": "Monthly Review Arm", "description": "Patients enrolled at centers that are assigned to the monthly review arm will have their device data reviewed monthly"}, {"id": "FG001", "title": "Quarterly Review Arm", "description": "Patients enrolled at centers that are assigned to the quarterly review arm will have their device data reviewed every 3 months"}], "periods": [{"title": "Overall Study", "milestones": [{"type": "STARTED", "achievements": [{"groupId": "FG000", "numSubjects": "841"}, {"groupId": "FG001", "numSubjects": "827"}]}, {"type": "COMPLETED", "achievements": [{"groupId": "FG000", "numSubjects": "811"}, {"groupId": "FG001", "numSubjects": "780"}]}, {"type": "NOT COMPLETED", "achievements": [{"groupId": "FG000", "numSubjects": "30"}, {"groupId": "FG001", "numSubjects": "47"}]}]}]}, "baselineCharacteristicsModule": {"groups": [{"id": "BG000", "title": "Monthly Review Arm", "description": "Patients enrolled at centers that are assigned to the monthly review arm will have their device data reviewed monthly"}, {"id": "BG001", "title": "Quarterly Review Arm", "description": "Patients enrolled at centers that are assigned to the quarterly review arm will have their device data reviewed every 3 months"}, {"id": "BG002", "title": "Total", "description": "Total of all reporting groups"}], "denoms": [{"units": "Participants", "counts": [{"groupId": "BG000", "value": "841"}, {"groupId": "BG001", "value": "827"}, {"groupId": "BG002", "value": "1668"}]}], "measures": [{"title": "Age Continuous", "paramType": "MEAN", "dispersionType": "STANDARD_DEVIATION", "unitOfMeasure": "years", "classes": [{"categories": [{"measurements": [{"groupId": "BG000", "value": "68.3", "spread": "11.8"}, {"groupId": "BG001", "value": "67.6", "spread": "11.6"}, {"groupId": "BG002", "value": "68.0", "spread": "11.7"}]}]}]}, {"title": "Sex: Female, Male", "paramType": "COUNT_OF_PARTICIPANTS", "unitOfMeasure": "Participants", "classes": [{"categories": [{"title": "Female", "measurements": [{"groupId": "BG000", "value": "238"}, {"groupId": "BG001", "value": "224"}, {"groupId": "BG002", "value": "462"}]}, {"title": "Male", "measurements": [{"groupId": "BG000", "value": "603"}, {"groupId": "BG001", "value": "603"}, {"groupId": "BG002", "value": "1206"}]}]}]}, {"title": "Race/Ethnicity, Customized", "paramType": "NUMBER", "unitOfMeasure": "participants", "classes": [{"title": "White", "categories": [{"measurements": [{"groupId": "BG000", "value": "749"}, {"groupId": "BG001", "value": "621"}, {"groupId": "BG002", "value": "1370"}]}]}, {"title": "Black", "categories": [{"measurements": [{"groupId": "BG000", "value": "53"}, {"groupId": "BG001", "value": "98"}, {"groupId": "BG002", "value": "151"}]}]}, {"title": "American Indian", "categories": [{"measurements": [{"groupId": "BG000", "value": "5"}, {"groupId": "BG001", "value": "2"}, {"groupId": "BG002", "value": "7"}]}]}, {"title": "Asian", "categories": [{"measurements": [{"groupId": "BG000", "value": "4"}, {"groupId": "BG001", "value": "8"}, {"groupId": "BG002", "value": "12"}]}]}, {"title": "Hawaiian", "categories": [{"measurements": [{"groupId": "BG000", "value": "2"}, {"groupId": "BG001", "value": "2"}, {"groupId": "BG002", "value": "4"}]}]}, {"title": "Hispanic", "categories": [{"measurements": [{"groupId": "BG000", "value": "20"}, {"groupId": "BG001", "value": "69"}, {"groupId": "BG002", "value": "89"}]}]}, {"title": "Multiple", "categories": [{"measurements": [{"groupId": "BG000", "value": "0"}, {"groupId": "BG001", "value": "3"}, {"groupId": "BG002", "value": "3"}]}]}, {"title": "Other", "categories": [{"measurements": [{"groupId": "BG000", "value": "3"}, {"groupId": "BG001", "value": "4"}, {"groupId": "BG002", "value": "7"}]}]}, {"title": "Not Available", "categories": [{"measurements": [{"groupId": "BG000", "value": "5"}, {"groupId": "BG001", "value": "20"}, {"groupId": "BG002", "value": "25"}]}]}]}, {"title": "Height", "paramType": "MEAN", "dispersionType": "STANDARD_DEVIATION", "unitOfMeasure": "inches", "classes": [{"categories": [{"measurements": [{"groupId": "BG000", "value": "68.2", "spread": "4.0"}, {"groupId": "BG001", "value": "68.1", "spread": "4.2"}, {"groupId": "BG002", "value": "68.1", "spread": "4.1"}]}]}]}, {"title": "Weight", "paramType": "MEAN", "dispersionType": "STANDARD_DEVIATION", "unitOfMeasure": "lbs", "classes": [{"categories": [{"measurements": [{"groupId": "BG000", "value": "196.5", "spread": "45.9"}, {"groupId": "BG001", "value": "196.1", "spread": "48.8"}, {"groupId": "BG002", "value": "196.3", "spread": "47.4"}]}]}]}, {"title": "Systolic blood pressure", "paramType": "MEAN", "dispersionType": "STANDARD_DEVIATION", "unitOfMeasure": "mmHg", "classes": [{"categories": [{"measurements": [{"groupId": "BG000", "value": "118.6", "spread": "17.0"}, {"groupId": "BG001", "value": "122.7", "spread": "17.1"}, {"groupId": "BG002", "value": "120.6", "spread": "17.2"}]}]}]}, {"title": "Diastolic blood pressure", "paramType": "MEAN", "dispersionType": "STANDARD_DEVIATION", "unitOfMeasure": "mmHg", "classes": [{"categories": [{"measurements": [{"groupId": "BG000", "value": "69.2", "spread": "10.1"}, {"groupId": "BG001", "value": "72.4", "spread": "10.7"}, {"groupId": "BG002", "value": "70.8", "spread": "10.5"}]}]}]}]}, "outcomeMeasuresModule": {"outcomeMeasures": [{"type": "PRIMARY", "title": "Compare the Time to Initiation of Clinical Action Prompted by an OptiVol Threshold Crossing Between Monthly and Quarterly Review of Cardiac Compass Trends With OptiVol", "populationDescription": "All patients enrolled in the study, who have eligible study device, signed inform consent, signed HIPAA, and have at least one OptiVol threshold crossing post the start date, were included in this analysis.", "reportingStatus": "POSTED", "paramType": "MEDIAN", "dispersionType": "95% Confidence Interval", "unitOfMeasure": "months", "timeFrame": "1 year", "groups": [{"id": "OG000", "title": "Monthly Review Arm", "description": "Patients enrolled at centers that are assigned to the monthly review arm will have their device data reviewed monthly"}, {"id": "OG001", "title": "Quarterly Review Arm", "description": "Patients enrolled at centers that are assigned to the quarterly review arm will have their device data reviewed every 3 months"}], "denoms": [{"units": "Participants", "counts": [{"groupId": "OG000", "value": "639"}, {"groupId": "OG001", "value": "605"}]}], "classes": [{"categories": [{"measurements": [{"groupId": "OG000", "value": "8.9", "lowerLimit": "7.2", "upperLimit": "9.9"}, {"groupId": "OG001", "value": "12.4", "lowerLimit": "12.0", "upperLimit": "13.1"}]}]}], "analyses": [{"groupIds": ["OG000", "OG001"], "groupDescription": "Let TM and TQ denote the median survival time to initiation of clinical action in monthly and quarterly review groups respectively. Null Hypothesis (HO): The time to initiation of clinical action is not affected by review frequency (monthly versus quarterly): TM=TQ Alternative Hypothesis (HA): The time to initiation of clinical action is affected by review frequency (monthly versus quarterly): TM\u2260TQ\n\nCox proportional hazard model will be fitted to estimate the hazard ratio.", "testedNonInferiority": false, "nonInferiorityType": "SUPERIORITY_OR_OTHER", "pValue": "0.0043", "pValueComment": "Cox proportional hazard model was fitted with the group effect and other key baseline variables. The p-value for the main group effect is 0.0043, with an estimated hazard ratio of 1.5, monthly vs quarterly.", "statisticalMethod": "Regression, Cox", "paramType": "Hazard Ratio (HR)", "paramValue": "1.5", "ciPctValue": "95", "ciNumSides": "TWO_SIDED", "ciLowerLimit": "1.1", "ciUpperLimit": "2.0"}]}, {"type": "SECONDARY", "title": "Compare Changes in Subject Self-care Over Time in the Monthly Review Arm vs. Quarterly Review Arm", "description": "There are 3 summary scale scores for the Self-Care of Heart Failure Index (SCHFI) form: self-care maintenance score (Section A), management score (Section B), and confidence score (Section C). Each scale score is standardized to a 0 to 100 range, with 0 indicating the worst and 100 indicating the best performance for each scale score.\n\nHere, changes in each scale score between 6 month follow-up and baseline and between 12 month follow-up and baseline are the secondary outcome measures. Specifically, change at 6 (or 12) month follow-up is calculated as a scale score at 6 (or 12) month follow-up subtracts that at baseline. These changes range from -100 to 100 with 0 indicating no change at all, -100 indicating maximum decrease and 100 indicating maximum increase that is possible from baseline for a self-care scale score.", "populationDescription": "For each component, the subject needs to have baseline and 6 (or 12) month measurements to calculate the changes. Subjects included for the each component are as following:\n\nMaintenance (or Confidence): 720 and 675 for monthly and quarterly arms at 6 mo, respectively, 640 and 588 at 12 mo. Management, 166 and 141 at 6 mo, 166 and 104 at 12 mo.", "reportingStatus": "POSTED", "paramType": "MEAN", "dispersionType": "Standard Deviation", "unitOfMeasure": "units on a scale", "timeFrame": "1 year", "groups": [{"id": "OG000", "title": "Monthly Review Arm", "description": "Patients enrolled at centers that are assigned to the monthly review arm will have their device data reviewed monthly"}, {"id": "OG001", "title": "Quarterly Review Arm", "description": "Patients enrolled at centers that are assigned to the quarterly review arm will have their device data reviewed every 3 months"}], "denoms": [{"units": "Participants", "counts": [{"groupId": "OG000", "value": "720"}, {"groupId": "OG001", "value": "640"}]}], "classes": [{"title": "Maintenance (6 mo)", "categories": [{"measurements": [{"groupId": "OG000", "value": "1.94", "spread": "13.31"}, {"groupId": "OG001", "value": "-0.77", "spread": "13.65"}]}]}, {"title": "Management (6 mo)", "categories": [{"measurements": [{"groupId": "OG000", "value": "-1.72", "spread": "24.33"}, {"groupId": "OG001", "value": "-1.05", "spread": "22.99"}]}]}, {"title": "Confidence (6 mo)", "categories": [{"measurements": [{"groupId": "OG000", "value": "-1.19", "spread": "20.71"}, {"groupId": "OG001", "value": "-2.46", "spread": "20.96"}]}]}, {"title": "Maintenance (12 mo)", "categories": [{"measurements": [{"groupId": "OG000", "value": "1.1", "spread": "13.16"}, {"groupId": "OG001", "value": "-1.42", "spread": "14.73"}]}]}, {"title": "Management (12 mo)", "categories": [{"measurements": [{"groupId": "OG000", "value": "-2.32", "spread": "24.96"}, {"groupId": "OG001", "value": "-4.17", "spread": "25.27"}]}]}, {"title": "Confidence (12 mo)", "categories": [{"measurements": [{"groupId": "OG000", "value": "0.32", "spread": "21.64"}, {"groupId": "OG001", "value": "-1.74", "spread": "22.65"}]}]}]}, {"type": "SECONDARY", "title": "Identify Patient Groups Who Are More Likely to Have Clinical Actions Triggered by Monthly Rather Than Quarterly Reviews", "description": "The binary outcome of having clinical actions taken (Yes/No) is recorded within one month interval for the monthly review group, and within three months interval for the quarterly review group. To make the endpoints of both groups comparable, data from monthly review group are converted as they were collected quarterly. For example, the month 1, 2 and 3 visits of monthly review group are combined as one visit. If there is at least one action taken in any of these three monthly visits, the action taken variable for the combined visit will be recorded as 'yes'. Unscheduled visits in both groups are lumped to the next quarterly time point.", "reportingStatus": "POSTED", "paramType": "MEAN", "dispersionType": "95% Confidence Interval", "unitOfMeasure": "percentage of visits with action", "timeFrame": "1 year", "typeUnitsAnalyzed": "visits", "denomUnitsSelected": "Participants", "groups": [{"id": "OG000", "title": "Monthly Review Arm", "description": "Patients enrolled at centers that are assigned to the monthly review arm will have their device data reviewed monthly"}, {"id": "OG001", "title": "Quarterly Review Arm", "description": "Patients enrolled at centers that are assigned to the quarterly review arm will have their device data reviewed every 3 months"}], "denoms": [{"units": "Participants", "counts": [{"groupId": "OG000", "value": "813"}, {"groupId": "OG001", "value": "780"}]}, {"units": "visits", "counts": [{"groupId": "OG000", "value": "3065"}, {"groupId": "OG001", "value": "2732"}]}], "classes": [{"categories": [{"measurements": [{"groupId": "OG000", "value": "0.26", "lowerLimit": "0.24", "upperLimit": "0.28"}, {"groupId": "OG001", "value": "0.19", "lowerLimit": "0.17", "upperLimit": "0.20"}]}]}], "analyses": [{"groupIds": ["OG000", "OG001"], "groupDescription": "The probability of action taken in three months interval is evaluated using the generalized estimating equations (GEE) method under a logistic regression model. Univariate analysis is performed first for potential predictors and only those with a p-value less than 0.10 through univariate analysis are included in the multivariate model. Here we report the odds ratio of monthly arm against quarterly arm, adjusting for OptiVol crossing, new or chronic device, and AF or no AF.", "testedNonInferiority": false, "nonInferiorityType": "SUPERIORITY_OR_OTHER", "pValue": "0.0001", "statisticalMethod": "logistic GEE for repeated observations", "paramType": "Odds Ratio (OR)", "paramValue": "1.44", "ciPctValue": "95", "ciNumSides": "TWO_SIDED", "ciLowerLimit": "1.20", "ciUpperLimit": "1.74"}]}, {"type": "SECONDARY", "title": "Compare the Time to Initiation of Clinical Action With or Without an OptiVol Threshold Crossing Between Monthly and Quarterly Review of Cardiac Compass Trends With OptiVol", "reportingStatus": "POSTED", "paramType": "MEDIAN", "dispersionType": "95% Confidence Interval", "unitOfMeasure": "months", "timeFrame": "1 year", "groups": [{"id": "OG000", "title": "Monthly Review Arm", "description": "Patients enrolled at centers that are assigned to the monthly review arm will have their device data reviewed monthly"}, {"id": "OG001", "title": "Quarterly Review Arm", "description": "Patients enrolled at centers that are assigned to the quarterly review arm will have their device data reviewed every 3 months"}], "denoms": [{"units": "Participants", "counts": [{"groupId": "OG000", "value": "813"}, {"groupId": "OG001", "value": "780"}]}], "classes": [{"categories": [{"measurements": [{"groupId": "OG000", "value": "9.0", "lowerLimit": "7.2", "upperLimit": "10.8"}, {"groupId": "OG001", "value": "13.2", "lowerLimit": "12.6", "upperLimit": "16.3"}]}]}]}]}, "adverseEventsModule": {"frequencyThreshold": "0", "description": "Adverse Events were not collected for this study.", "eventGroups": [{"id": "EG000", "title": "Monthly Review Arm", "description": "Patients enrolled at centers that are assigned to the monthly review arm will have their device data reviewed monthly", "seriousNumAffected": 0, "seriousNumAtRisk": 0, "otherNumAffected": 0, "otherNumAtRisk": 0}, {"id": "EG001", "title": "Quarterly Review Arm", "description": "Patients enrolled at centers that are assigned to the quarterly review arm will have their device data reviewed every 3 months", "seriousNumAffected": 0, "seriousNumAtRisk": 0, "otherNumAffected": 0, "otherNumAtRisk": 0}]}, "moreInfoModule": {"certainAgreement": {"piSponsorEmployee": false, "restrictionType": "OTHER", "restrictiveAgreement": true}, "pointOfContact": {"title": "OptiVol Care Pathway Clinical Team", "organization": "Medtronic Cardiac Rhythm Disease Management", "email": "medtronicCRMtrials@medtronic.com", "phone": "1-800-328-2518"}}}, "derivedSection": {"miscInfoModule": {"versionHolder": "2024-06-24"}, "conditionBrowseModule": {"meshes": [{"id": "D000006333", "term": "Heart Failure"}], "ancestors": [{"id": "D000006331", "term": "Heart Diseases"}, {"id": "D000002318", "term": "Cardiovascular Diseases"}], "browseLeaves": [{"id": "M9421", "name": "Heart Failure", "asFound": "Heart Failure", "relevance": "HIGH"}, {"id": "M9419", "name": "Heart Diseases", "relevance": "LOW"}], "browseBranches": [{"abbrev": "BC14", "name": "Heart and Blood Diseases"}, {"abbrev": "All", "name": "All Conditions"}]}}, "hasResults": true}