{"protocolSection": {"identificationModule": {"nctId": "NCT01603277", "orgStudyIdInfo": {"id": "KB003-04"}, "organization": {"fullName": "Humanigen, Inc.", "class": "INDUSTRY"}, "briefTitle": "Effect of KB003 in Subjects With Asthma Inadequately Controlled by Corticosteroids", "officialTitle": "A Phase 2, Double-blind, Placebo-controlled, Randomized Study to Evaluate the Safety, Tolerability, and Efficacy of KB003 in Subjects With Asthma Inadequately Controlled by Corticosteroids", "acronym": "KB003-04"}, "statusModule": {"statusVerifiedDate": "2015-01", "overallStatus": "COMPLETED", "expandedAccessInfo": {"hasExpandedAccess": false}, "startDateStruct": {"date": "2012-07"}, "primaryCompletionDateStruct": {"date": "2013-07", "type": "ACTUAL"}, "completionDateStruct": {"date": "2014-01", "type": "ACTUAL"}, "studyFirstSubmitDate": "2012-05-16", "studyFirstSubmitQcDate": "2012-05-18", "studyFirstPostDateStruct": {"date": "2012-05-22", "type": "ESTIMATED"}, "resultsFirstSubmitDate": "2015-01-12", "resultsFirstSubmitQcDate": "2015-01-30", "resultsFirstPostDateStruct": {"date": "2015-02-02", "type": "ESTIMATED"}, "lastUpdateSubmitDate": "2015-01-30", "lastUpdatePostDateStruct": {"date": "2015-02-02", "type": "ESTIMATED"}}, "sponsorCollaboratorsModule": {"responsibleParty": {"type": "SPONSOR"}, "leadSponsor": {"name": "Humanigen, Inc.", "class": "INDUSTRY"}}, "oversightModule": {"oversightHasDmc": true}, "descriptionModule": {"briefSummary": "This study will evaluate the safety, tolerability and efficacy of a single dose level of KB003 in subjects with inadequately controlled asthma."}, "conditionsModule": {"conditions": ["Moderate-to-Severe Asthma"], "keywords": ["Asthma", "GM-CSF", "Moderate-to-Severe Asthma"]}, "designModule": {"studyType": "INTERVENTIONAL", "phases": ["PHASE2"], "designInfo": {"allocation": "RANDOMIZED", "interventionModel": "PARALLEL", "primaryPurpose": "TREATMENT", "maskingInfo": {"masking": "QUADRUPLE", "whoMasked": ["PARTICIPANT", "CARE_PROVIDER", "INVESTIGATOR", "OUTCOMES_ASSESSOR"]}}, "enrollmentInfo": {"count": 160, "type": "ACTUAL"}}, "armsInterventionsModule": {"armGroups": [{"label": "Anti-GM-CSF Monoclonal Antibody 400mg", "type": "EXPERIMENTAL", "interventionNames": ["Biological: Anti-GM-CSF Monoclonal Antibody 400mg"]}, {"label": "Normal Saline", "type": "PLACEBO_COMPARATOR", "interventionNames": ["Other: Placebo"]}], "interventions": [{"type": "BIOLOGICAL", "name": "Anti-GM-CSF Monoclonal Antibody 400mg", "description": "Anti-GM-CSF Monoclonal Antibody 400mg", "armGroupLabels": ["Anti-GM-CSF Monoclonal Antibody 400mg"]}, {"type": "OTHER", "name": "Placebo", "description": "Normal Saline", "armGroupLabels": ["Normal Saline"]}]}, "outcomesModule": {"primaryOutcomes": [{"measure": "Change in Percent Predicted FEV1 at Week 24", "timeFrame": "Baseline to Week 24"}], "secondaryOutcomes": [{"measure": "To Evaluate the Efficacy of KB003 as Measured by Asthma Exacerbation Rate", "timeFrame": "Week 24"}, {"measure": "To Evaluate the Effect of KB003 on Peak Expiratory Flow (PEF)", "timeFrame": "Week 24"}, {"measure": "To Evaluate the Safety and Tolerability of KB003 as Measured by Frequency and Severity of AEs, Clinical Safety, Laboratory Abnormalities and Chest Radiographic Assessments", "timeFrame": "Week 24"}]}, "eligibilityModule": {"eligibilityCriteria": "Key Inclusion Criteria:\n\n* A diagnosis of asthma established for at least 2 years\n* Symptomatic asthma as defined by the Juniper Asthma Control Questionnaire\n* Symptomatic asthma despite stable treatment with inhaled corticosteroids fluticasone or budesonide, or other corticosteroids, for at least 12 weeks\n* Currently receiving inhaled long-acting beta agonist (LABA) or previously documented LABA intolerability or lack of responsiveness\n* At least 2 exacerbations (no more than 6) in the previous 12 months that required systemic corticosteroids or at least a doubling of daily oral dose\n\nKey Exclusion Criteria:\n\n* Acute asthma worsening (requiring emergency room visit, hospitalization, urgent care, physician visit, or change in asthma medications) or lower respiratory tract infection requiring the use of antibiotics, within 4 weeks prior to Screening Visit.\n* History of life-threatening asthma with admission to the intensive care unit requiring the use of mechanical ventilation within the past 12 months\n* Use of any immunosuppressive or immunomodulatory agents within 12 weeks or an investigational agent within 4 weeks prior to Screening Visit\n* History of any cardiovascular, neurological, hepatic, or renal condition\n* History of smoking within the past 12 months", "healthyVolunteers": false, "sex": "ALL", "minimumAge": "16 Years", "maximumAge": "75 Years", "stdAges": ["CHILD", "ADULT", "OLDER_ADULT"]}, "contactsLocationsModule": {"overallOfficials": [{"name": "Nestor A. Molfino, MD, MSc", "affiliation": "KaloBios Pharmaceuticals, Inc.", "role": "STUDY_CHAIR"}], "locations": [{"city": "Birmingham", "state": "Alabama", "zip": "35216", "country": "United States", "geoPoint": {"lat": 33.52066, "lon": -86.80249}}, {"city": "Fullerton", "state": "California", "zip": "92835", "country": "United States", "geoPoint": {"lat": 33.87029, "lon": -117.92534}}, {"city": "Granada Hills", "state": "California", "zip": "91344", "country": "United States", "geoPoint": {"lat": 34.26472, "lon": -118.52314}}, {"city": "Los Angeles", "state": "California", "zip": "90025", "country": "United States", "geoPoint": {"lat": 34.05223, "lon": -118.24368}}, {"city": "Rancho Mirage", "state": "California", "zip": "92270", "country": "United States", "geoPoint": {"lat": 33.73974, "lon": -116.41279}}, {"city": "Sacramento", "state": "California", "zip": "95819", "country": "United States", "geoPoint": {"lat": 38.58157, "lon": -121.4944}}, {"city": "San Jose", "state": "California", "zip": "95117", "country": "United States", "geoPoint": {"lat": 37.33939, "lon": -121.89496}}, {"city": "Centennial", "state": "Colorado", "zip": "80112", "country": "United States", "geoPoint": {"lat": 39.57916, "lon": -104.87692}}, {"city": "Colorado Springs", "state": "Colorado", "zip": "80907", "country": "United States", "geoPoint": {"lat": 38.83388, "lon": -104.82136}}, {"city": "Denver", "state": "Colorado", "zip": "80206", "country": "United States", "geoPoint": {"lat": 39.73915, "lon": -104.9847}}, {"city": "Waterbury", "state": "Connecticut", "zip": "06708", "country": "United States", "geoPoint": {"lat": 41.55815, "lon": -73.0515}}, {"city": "Miami", "state": "Florida", "zip": "33136", "country": "United States", "geoPoint": {"lat": 25.77427, "lon": -80.19366}}, {"city": "Miami", "state": "Florida", "zip": "33171", "country": "United States", "geoPoint": {"lat": 25.77427, "lon": -80.19366}}, {"city": "Tampa", "state": "Florida", "zip": "33613", "country": "United States", "geoPoint": {"lat": 27.94752, "lon": -82.45843}}, {"city": "Winter Park", "state": "Florida", "zip": "32789", "country": "United States", "geoPoint": {"lat": 28.6, "lon": -81.33924}}, {"city": "Duluth", "state": "Georgia", "zip": "30096", "country": "United States", "geoPoint": {"lat": 34.00288, "lon": -84.14464}}, {"city": "Lawrenceville", "state": "Georgia", "zip": "30046", "country": "United States", "geoPoint": {"lat": 33.95621, "lon": -83.98796}}, {"city": "Savannah", "state": "Georgia", "zip": "31405", "country": "United States", "geoPoint": {"lat": 32.08354, "lon": -81.09983}}, {"city": "Lexington", "state": "Kentucky", "zip": "40536", "country": "United States", "geoPoint": {"lat": 37.98869, "lon": -84.47772}}, {"city": "Ann Arbor", "state": "Michigan", "zip": "48109", "country": "United States", "geoPoint": {"lat": 42.27756, "lon": -83.74088}}, {"city": "St. Louis", "state": "Missouri", "zip": "63110", "country": "United States", "geoPoint": {"lat": 38.62727, "lon": -90.19789}}, {"city": "Reno", "state": "Nevada", "zip": "89502", "country": "United States", "geoPoint": {"lat": 39.52963, "lon": -119.8138}}, {"city": "Summit", "state": "New Jersey", "zip": "07901", "country": "United States", "geoPoint": {"lat": 40.71562, "lon": -74.36468}}, {"city": "Winston-Salem", "state": "North Carolina", "zip": "27157", "country": "United States", "geoPoint": {"lat": 36.09986, "lon": -80.24422}}, {"city": "Oklahoma City", "state": "Oklahoma", "zip": "73120", "country": "United States", "geoPoint": {"lat": 35.46756, "lon": -97.51643}}, {"city": "Oklahoma City", "state": "Oklahoma", "zip": "73131", "country": "United States", "geoPoint": {"lat": 35.46756, "lon": -97.51643}}, {"city": "Warwick", "state": "Rhode Island", "zip": "02886", "country": "United States", "geoPoint": {"lat": 41.7001, "lon": -71.41617}}, {"city": "Charleston", "state": "South Carolina", "zip": "29407", "country": "United States", "geoPoint": {"lat": 32.77657, "lon": -79.93092}}, {"city": "Charleston", "state": "South Carolina", "zip": "29425", "country": "United States", "geoPoint": {"lat": 32.77657, "lon": -79.93092}}, {"city": "Greenville", "state": "South Carolina", "zip": "29615", "country": "United States", "geoPoint": {"lat": 34.85262, "lon": -82.39401}}, {"city": "Arlington", "state": "Texas", "zip": "76012", "country": "United States", "geoPoint": {"lat": 32.73569, "lon": -97.10807}}, {"city": "Sugarland", "state": "Texas", "zip": "77479", "country": "United States", "geoPoint": {"lat": 29.61968, "lon": -95.63495}}, {"city": "Milwaukee", "state": "Wisconsin", "zip": "53226", "country": "United States", "geoPoint": {"lat": 43.0389, "lon": -87.90647}}, {"city": "Cairns", "state": "Queensland", "zip": "4870", "country": "Australia", "geoPoint": {"lat": -16.92304, "lon": 145.76625}}, {"city": "Woolonggabba", "state": "Queensland", "zip": "4102", "country": "Australia"}, {"city": "Bedford Park", "state": "South Australia", "zip": "5042", "country": "Australia", "geoPoint": {"lat": -35.03333, "lon": 138.56667}}, {"city": "Woodville", "state": "South Australia", "zip": "5011", "country": "Australia", "geoPoint": {"lat": -34.88333, "lon": 138.55}}, {"city": "Box Hill", "state": "Victoria", "zip": "3128", "country": "Australia", "geoPoint": {"lat": -37.81887, "lon": 145.12545}}, {"city": "Frankston", "state": "Victoria", "zip": "3199", "country": "Australia", "geoPoint": {"lat": -38.14458, "lon": 145.12291}}, {"city": "Melbourne", "state": "Victoria", "zip": "3050", "country": "Australia", "geoPoint": {"lat": -37.814, "lon": 144.96332}}, {"city": "Nedlands", "state": "Western Australia", "zip": "6009", "country": "Australia", "geoPoint": {"lat": -31.98184, "lon": 115.8073}}, {"city": "Marseille", "zip": "13015", "country": "France", "geoPoint": {"lat": 43.29551, "lon": 5.38958}}, {"city": "Montpellier", "zip": "34295", "country": "France", "geoPoint": {"lat": 43.61092, "lon": 3.87723}}, {"city": "Rennes", "zip": "35033", "country": "France", "geoPoint": {"lat": 48.11198, "lon": -1.67429}}, {"city": "Strasbourg", "zip": "67091", "country": "France", "geoPoint": {"lat": 48.58392, "lon": 7.74553}}, {"city": "Tours", "zip": "37044", "country": "France", "geoPoint": {"lat": 47.38333, "lon": 0.68333}}, {"city": "Bialystok", "state": "Podlaskie", "zip": "15-010", "country": "Poland", "geoPoint": {"lat": 53.13333, "lon": 23.16433}}, {"city": "Mrozy", "state": "Slaskie", "zip": "05-321", "country": "Poland", "geoPoint": {"lat": 52.16609, "lon": 21.80263}}, {"city": "Wilomin", "state": "Slaski", "zip": "05-200", "country": "Poland", "geoPoint": {"lat": 50.9, "lon": 16.03333}}, {"city": "Biala Rawska", "zip": "96-230", "country": "Poland", "geoPoint": {"lat": 51.80779, "lon": 20.47259}}, {"city": "Bydgoszcz", "zip": "85-079", "country": "Poland", "geoPoint": {"lat": 53.1235, "lon": 18.00762}}, {"city": "Krakow", "zip": "31-033", "country": "Poland", "geoPoint": {"lat": 50.06143, "lon": 19.93658}}, {"city": "Krakow", "zip": "31-159", "country": "Poland", "geoPoint": {"lat": 50.06143, "lon": 19.93658}}, {"city": "Lodz", "zip": "90-153", "country": "Poland", "geoPoint": {"lat": 51.75, "lon": 19.46667}}, {"city": "Lublin", "zip": "20-089", "country": "Poland", "geoPoint": {"lat": 51.25, "lon": 22.56667}}, {"city": "Piasta", "zip": "15-044", "country": "Poland"}, {"city": "Dnipropetrovsk", "zip": "49074", "country": "Ukraine", "geoPoint": {"lat": 48.4593, "lon": 35.03864}}, {"city": "Donetsk", "zip": "83099", "country": "Ukraine", "geoPoint": {"lat": 48.023, "lon": 37.80224}}, {"city": "Kharkiv", "zip": "61124", "country": "Ukraine", "geoPoint": {"lat": 49.98081, "lon": 36.25272}}, {"city": "Kyiv", "zip": "03680", "country": "Ukraine", "geoPoint": {"lat": 50.45466, "lon": 30.5238}}, {"city": "Odessa", "zip": "65009", "country": "Ukraine", "geoPoint": {"lat": 46.47747, "lon": 30.73262}}, {"city": "Simferopol", "zip": "95043", "country": "Ukraine", "geoPoint": {"lat": 44.95719, "lon": 34.11079}}, {"city": "Vinnytsya", "zip": "21029", "country": "Ukraine", "geoPoint": {"lat": 49.23278, "lon": 28.48097}}, {"city": "Yalta", "zip": "98600", "country": "Ukraine", "geoPoint": {"lat": 44.50218, "lon": 34.16624}}, {"city": "Zaporizhzhya", "zip": "69035", "country": "Ukraine", "geoPoint": {"lat": 50.60727, "lon": 31.78792}}, {"city": "Wishaw", "state": "Lanarkshire", "zip": "ML2 0DP", "country": "United Kingdom", "geoPoint": {"lat": 55.76667, "lon": -3.91667}}, {"city": "Northwood", "state": "Middlesex", "zip": "HA6 2RN", "country": "United Kingdom"}, {"city": "Bradford", "state": "West Yorkshire", "zip": "BD9 6RJ", "country": "United Kingdom", "geoPoint": {"lat": 53.79391, "lon": -1.75206}}, {"city": "Leeds", "state": "West Yorkshire", "zip": "LS9 7TF", "country": "United Kingdom", "geoPoint": {"lat": 53.79648, "lon": -1.54785}}, {"city": "Southampton", "zip": "SO16 6YD", "country": "United Kingdom", "geoPoint": {"lat": 50.90395, "lon": -1.40428}}]}, "referencesModule": {"references": [{"pmid": "26739717", "type": "DERIVED", "citation": "Molfino NA, Kuna P, Leff JA, Oh CK, Singh D, Chernow M, Sutton B, Yarranton G. Phase 2, randomised placebo-controlled trial to evaluate the efficacy and safety of an anti-GM-CSF antibody (KB003) in patients with inadequately controlled asthma. BMJ Open. 2016 Jan 6;6(1):e007709. doi: 10.1136/bmjopen-2015-007709."}]}}, "resultsSection": {"participantFlowModule": {"recruitmentDetails": "25 July 2012 - 09 June 2013", "groups": [{"id": "FG000", "title": "Anti-GM-CSF Monoclonal Antibody 400mg", "description": "Anti-GM-CSF Monoclonal Antibody 400mg: Anti-GM-CSF Monoclonal Antibody 400mg"}, {"id": "FG001", "title": "Normal Saline", "description": "Placebo: Normal Saline"}], "periods": [{"title": "Overall Study", "milestones": [{"type": "STARTED", "achievements": [{"groupId": "FG000", "numSubjects": "78"}, {"groupId": "FG001", "numSubjects": "82"}]}, {"type": "COMPLETED", "achievements": [{"groupId": "FG000", "numSubjects": "64"}, {"groupId": "FG001", "numSubjects": "64"}]}, {"type": "NOT COMPLETED", "achievements": [{"groupId": "FG000", "numSubjects": "14"}, {"groupId": "FG001", "numSubjects": "18"}]}], "dropWithdraws": [{"type": "Adverse Event", "reasons": [{"groupId": "FG000", "numSubjects": "1"}, {"groupId": "FG001", "numSubjects": "2"}]}, {"type": "Physician Decision", "reasons": [{"groupId": "FG000", "numSubjects": "0"}, {"groupId": "FG001", "numSubjects": "1"}]}, {"type": "Protocol Violation", "reasons": [{"groupId": "FG000", "numSubjects": "6"}, {"groupId": "FG001", "numSubjects": "10"}]}, {"type": "Withdrawal by Subject", "reasons": [{"groupId": "FG000", "numSubjects": "5"}, {"groupId": "FG001", "numSubjects": "4"}]}, {"type": "Non-Compliance", "reasons": [{"groupId": "FG000", "numSubjects": "2"}, {"groupId": "FG001", "numSubjects": "1"}]}]}]}, "baselineCharacteristicsModule": {"groups": [{"id": "BG000", "title": "Anti-GM-CSF Monoclonal Antibody 400mg", "description": "Anti-GM-CSF Monoclonal Antibody 400mg: Anti-GM-CSF Monoclonal Antibody 400mg"}, {"id": "BG001", "title": "Normal Saline", "description": "Placebo: Normal Saline"}, {"id": "BG002", "title": "Total", "description": "Total of all reporting groups"}], "denoms": [{"units": "Participants", "counts": [{"groupId": "BG000", "value": "78"}, {"groupId": "BG001", "value": "82"}, {"groupId": "BG002", "value": "160"}]}], "measures": [{"title": "Age, Continuous", "paramType": "MEAN", "dispersionType": "STANDARD_DEVIATION", "unitOfMeasure": "Years", "classes": [{"categories": [{"measurements": [{"groupId": "BG000", "value": "52.9", "spread": "11.95"}, {"groupId": "BG001", "value": "53.1", "spread": "10.30"}, {"groupId": "BG002", "value": "52.9", "spread": "11.1"}]}]}]}, {"title": "Age, Categorical", "paramType": "COUNT_OF_PARTICIPANTS", "unitOfMeasure": "Participants", "classes": [{"categories": [{"title": "<=18 years", "measurements": [{"groupId": "BG000", "value": "0"}, {"groupId": "BG001", "value": "0"}, {"groupId": "BG002", "value": "0"}]}, {"title": "Between 18 and 65 years", "measurements": [{"groupId": "BG000", "value": "62"}, {"groupId": "BG001", "value": "73"}, {"groupId": "BG002", "value": "135"}]}, {"title": ">=65 years", "measurements": [{"groupId": "BG000", "value": "16"}, {"groupId": "BG001", "value": "9"}, {"groupId": "BG002", "value": "25"}]}]}]}, {"title": "Sex: Female, Male", "paramType": "COUNT_OF_PARTICIPANTS", "unitOfMeasure": "Participants", "classes": [{"categories": [{"title": "Female", "measurements": [{"groupId": "BG000", "value": "44"}, {"groupId": "BG001", "value": "48"}, {"groupId": "BG002", "value": "92"}]}, {"title": "Male", "measurements": [{"groupId": "BG000", "value": "34"}, {"groupId": "BG001", "value": "34"}, {"groupId": "BG002", "value": "68"}]}]}]}, {"title": "Race (NIH/OMB)", "paramType": "COUNT_OF_PARTICIPANTS", "unitOfMeasure": "Participants", "classes": [{"categories": [{"title": "American Indian or Alaska Native", "measurements": [{"groupId": "BG000", "value": "0"}, {"groupId": "BG001", "value": "0"}, {"groupId": "BG002", "value": "0"}]}, {"title": "Asian", "measurements": [{"groupId": "BG000", "value": "2"}, {"groupId": "BG001", "value": "3"}, {"groupId": "BG002", "value": "5"}]}, {"title": "Native Hawaiian or Other Pacific Islander", "measurements": [{"groupId": "BG000", "value": "0"}, {"groupId": "BG001", "value": "0"}, {"groupId": "BG002", "value": "0"}]}, {"title": "Black or African American", "measurements": [{"groupId": "BG000", "value": "7"}, {"groupId": "BG001", "value": "9"}, {"groupId": "BG002", "value": "16"}]}, {"title": "White", "measurements": [{"groupId": "BG000", "value": "69"}, {"groupId": "BG001", "value": "69"}, {"groupId": "BG002", "value": "138"}]}, {"title": "More than one race", "measurements": [{"groupId": "BG000", "value": "0"}, {"groupId": "BG001", "value": "0"}, {"groupId": "BG002", "value": "0"}]}, {"title": "Unknown or Not Reported", "measurements": [{"groupId": "BG000", "value": "0"}, {"groupId": "BG001", "value": "1"}, {"groupId": "BG002", "value": "1"}]}]}]}, {"title": "Ethnicity (NIH/OMB)", "paramType": "COUNT_OF_PARTICIPANTS", "unitOfMeasure": "Participants", "classes": [{"categories": [{"title": "Hispanic or Latino", "measurements": [{"groupId": "BG000", "value": "4"}, {"groupId": "BG001", "value": "7"}, {"groupId": "BG002", "value": "11"}]}, {"title": "Not Hispanic or Latino", "measurements": [{"groupId": "BG000", "value": "74"}, {"groupId": "BG001", "value": "75"}, {"groupId": "BG002", "value": "149"}]}, {"title": "Unknown or Not Reported", "measurements": [{"groupId": "BG000", "value": "0"}, {"groupId": "BG001", "value": "0"}, {"groupId": "BG002", "value": "0"}]}]}]}, {"title": "Region of Enrollment", "paramType": "NUMBER", "unitOfMeasure": "participants", "classes": [{"title": "United States", "categories": [{"measurements": [{"groupId": "BG000", "value": "28"}, {"groupId": "BG001", "value": "31"}, {"groupId": "BG002", "value": "59"}]}]}, {"title": "Poland", "categories": [{"measurements": [{"groupId": "BG000", "value": "26"}, {"groupId": "BG001", "value": "19"}, {"groupId": "BG002", "value": "45"}]}]}, {"title": "Ukraine", "categories": [{"measurements": [{"groupId": "BG000", "value": "17"}, {"groupId": "BG001", "value": "17"}, {"groupId": "BG002", "value": "34"}]}]}, {"title": "Australia", "categories": [{"measurements": [{"groupId": "BG000", "value": "6"}, {"groupId": "BG001", "value": "7"}, {"groupId": "BG002", "value": "13"}]}]}, {"title": "France", "categories": [{"measurements": [{"groupId": "BG000", "value": "1"}, {"groupId": "BG001", "value": "4"}, {"groupId": "BG002", "value": "5"}]}]}, {"title": "United Kingdom", "categories": [{"measurements": [{"groupId": "BG000", "value": "0"}, {"groupId": "BG001", "value": "4"}, {"groupId": "BG002", "value": "4"}]}]}]}]}, "outcomeMeasuresModule": {"outcomeMeasures": [{"type": "PRIMARY", "title": "Change in Percent Predicted FEV1 at Week 24", "reportingStatus": "POSTED", "paramType": "MEAN", "dispersionType": "Standard Deviation", "unitOfMeasure": "Percent", "timeFrame": "Baseline to Week 24", "groups": [{"id": "OG000", "title": "Anti-GM-CSF Monoclonal Antibody 400mg", "description": "Anti-GM-CSF Monoclonal Antibody 400mg: Anti-GM-CSF Monoclonal Antibody 400mg"}, {"id": "OG001", "title": "Normal Saline", "description": "Placebo: Normal Saline"}], "denoms": [{"units": "Participants", "counts": [{"groupId": "OG000", "value": "78"}, {"groupId": "OG001", "value": "82"}]}], "classes": [{"categories": [{"measurements": [{"groupId": "OG000", "value": "3.631", "spread": "12.6174"}, {"groupId": "OG001", "value": "2.000", "spread": "8.5251"}]}]}]}, {"type": "SECONDARY", "title": "To Evaluate the Efficacy of KB003 as Measured by Asthma Exacerbation Rate", "reportingStatus": "NOT_POSTED", "timeFrame": "Week 24"}, {"type": "SECONDARY", "title": "To Evaluate the Effect of KB003 on Peak Expiratory Flow (PEF)", "reportingStatus": "NOT_POSTED", "timeFrame": "Week 24"}, {"type": "SECONDARY", "title": "To Evaluate the Safety and Tolerability of KB003 as Measured by Frequency and Severity of AEs, Clinical Safety, Laboratory Abnormalities and Chest Radiographic Assessments", "reportingStatus": "NOT_POSTED", "timeFrame": "Week 24"}]}, "adverseEventsModule": {"frequencyThreshold": "5", "description": "Adverse Event Greater than or Equal to 5%", "eventGroups": [{"id": "EG000", "title": "Anti-GM-CSF Monoclonal Antibody 400mg", "description": "Anti-GM-CSF Monoclonal Antibody 400mg: Anti-GM-CSF Monoclonal Antibody 400mg", "seriousNumAffected": 5, "seriousNumAtRisk": 78, "otherNumAffected": 10, "otherNumAtRisk": 78}, {"id": "EG001", "title": "Normal Saline", "description": "Placebo: Normal Saline", "seriousNumAffected": 2, "seriousNumAtRisk": 82, "otherNumAffected": 15, "otherNumAtRisk": 82}], "seriousEvents": [{"term": "Acute myocardial infarction", "organSystem": "Cardiac disorders", "stats": [{"groupId": "EG000", "numAffected": 1, "numAtRisk": 78}, {"groupId": "EG001", "numAffected": 0, "numAtRisk": 82}]}, {"term": "Thrombosis in device", "organSystem": "General disorders", "stats": [{"groupId": "EG000", "numAffected": 0, "numAtRisk": 78}, {"groupId": "EG001", "numAffected": 1, "numAtRisk": 82}]}, {"term": "Anaphylactic reaction", "organSystem": "Immune system disorders", "stats": [{"groupId": "EG000", "numAffected": 0, "numAtRisk": 78}, {"groupId": "EG001", "numAffected": 1, "numAtRisk": 82}]}, {"term": "Pneumonia", "organSystem": "Infections and infestations", "stats": [{"groupId": "EG000", "numAffected": 2, "numAtRisk": 78}, {"groupId": "EG001", "numAffected": 0, "numAtRisk": 82}]}, {"term": "Appendicitis", "organSystem": "Infections and infestations", "stats": [{"groupId": "EG000", "numAffected": 1, "numAtRisk": 78}, {"groupId": "EG001", "numAffected": 0, "numAtRisk": 82}]}, {"term": "Arthritis bacterial", "organSystem": "Infections and infestations", "stats": [{"groupId": "EG000", "numAffected": 0, "numAtRisk": 78}, {"groupId": "EG001", "numAffected": 1, "numAtRisk": 82}]}, {"term": "Suicide attempt", "organSystem": "Psychiatric disorders", "stats": [{"groupId": "EG000", "numAffected": 1, "numAtRisk": 78}, {"groupId": "EG001", "numAffected": 0, "numAtRisk": 82}]}, {"term": "Hypoxia", "organSystem": "Respiratory, thoracic and mediastinal disorders", "stats": [{"groupId": "EG000", "numAffected": 1, "numAtRisk": 78}, {"groupId": "EG001", "numAffected": 0, "numAtRisk": 82}]}, {"term": "Diarrhea", "organSystem": "Gastrointestinal disorders", "stats": [{"groupId": "EG000", "numAffected": 0, "numAtRisk": 78}, {"groupId": "EG001", "numAffected": 1, "numAtRisk": 82}]}], "otherEvents": [{"term": "Nasopharyngitis", "organSystem": "Infections and infestations", "stats": [{"groupId": "EG000", "numAffected": 5, "numAtRisk": 78}, {"groupId": "EG001", "numAffected": 4, "numAtRisk": 82}]}, {"term": "Upper respiratory tract infection", "organSystem": "Infections and infestations", "stats": [{"groupId": "EG000", "numAffected": 3, "numAtRisk": 78}, {"groupId": "EG001", "numAffected": 6, "numAtRisk": 82}]}, {"term": "Headache", "organSystem": "Nervous system disorders", "stats": [{"groupId": "EG000", "numAffected": 3, "numAtRisk": 78}, {"groupId": "EG001", "numAffected": 5, "numAtRisk": 82}]}]}, "moreInfoModule": {"certainAgreement": {"piSponsorEmployee": false, "restrictiveAgreement": false}, "pointOfContact": {"title": "Nestor Molfino, MD", "organization": "KaloBios Pharmaceuticals Inc.", "email": "nmolfino@kalobios.com", "phone": "650-243-3100"}}}, "derivedSection": {"miscInfoModule": {"versionHolder": "2024-06-24"}, "conditionBrowseModule": {"meshes": [{"id": "D000001249", "term": "Asthma"}], "ancestors": [{"id": "D000001982", "term": "Bronchial Diseases"}, {"id": "D000012140", "term": "Respiratory Tract Diseases"}, {"id": "D000008173", "term": "Lung Diseases, Obstructive"}, {"id": "D000008171", "term": "Lung Diseases"}, {"id": "D000012130", "term": "Respiratory Hypersensitivity"}, {"id": "D000006969", "term": "Hypersensitivity, Immediate"}, {"id": "D000006967", "term": "Hypersensitivity"}, {"id": "D000007154", "term": "Immune System Diseases"}], "browseLeaves": [{"id": "M4556", "name": "Asthma", "asFound": "Asthma", "relevance": "HIGH"}, {"id": "M5258", "name": "Bronchial Diseases", "relevance": "LOW"}, {"id": "M14977", "name": "Respiratory Tract Diseases", "relevance": "LOW"}, {"id": "M11168", "name": "Lung Diseases", "relevance": "LOW"}, {"id": "M11170", "name": "Lung Diseases, Obstructive", "relevance": "LOW"}, {"id": "M10018", "name": "Hypersensitivity", "relevance": "LOW"}, {"id": "M14967", "name": "Respiratory Hypersensitivity", "relevance": "LOW"}, {"id": "M10020", "name": "Hypersensitivity, Immediate", "relevance": "LOW"}, {"id": "M10200", "name": "Immune System Diseases", "relevance": "LOW"}], "browseBranches": [{"abbrev": "BC08", "name": "Respiratory Tract (Lung and Bronchial) Diseases"}, {"abbrev": "BC20", "name": "Immune System Diseases"}, {"abbrev": "All", "name": "All Conditions"}]}, "interventionBrowseModule": {"meshes": [{"id": "D000000906", "term": "Antibodies"}, {"id": "D000000911", "term": "Antibodies, Monoclonal"}], "ancestors": [{"id": "D000007155", "term": "Immunologic Factors"}, {"id": "D000045505", "term": "Physiological Effects of Drugs"}], "browseLeaves": [{"id": "M10184", "name": "Immunoglobulins", "relevance": "LOW"}, {"id": "M4225", "name": "Antibodies", "asFound": "Use", "relevance": "HIGH"}, {"id": "M4230", "name": "Antibodies, Monoclonal", "asFound": "Tumor", "relevance": "HIGH"}, {"id": "M10201", "name": "Immunologic Factors", "relevance": "LOW"}], "browseBranches": [{"abbrev": "All", "name": "All Drugs and Chemicals"}]}}, "hasResults": true}