{"protocolSection": {"identificationModule": {"nctId": "NCT03521934", "orgStudyIdInfo": {"id": "EFC15156"}, "secondaryIdInfos": [{"id": "2017-003510-16", "type": "EUDRACT_NUMBER"}, {"id": "U1111-1190-7891", "type": "OTHER", "domain": "UTN"}], "organization": {"fullName": "Lexicon Pharmaceuticals", "class": "INDUSTRY"}, "briefTitle": "Effect of Sotagliflozin on Cardiovascular Events in Participants With Type 2 Diabetes Post Worsening Heart Failure (SOLOIST-WHF Trial)", "officialTitle": "A Randomized, Double-blind, Placebo-controlled, Parallel-group, Multicenter Study to Evaluate the Effects of Sotagliflozin on Clinical Outcomes in Hemodynamically Stable Patients With Type 2 Diabetes POST Worsening Heart Failure"}, "statusModule": {"statusVerifiedDate": "2022-09", "overallStatus": "TERMINATED", "whyStopped": "Study terminated due to business decision", "expandedAccessInfo": {"hasExpandedAccess": false}, "startDateStruct": {"date": "2018-06-15", "type": "ACTUAL"}, "primaryCompletionDateStruct": {"date": "2020-06-05", "type": "ACTUAL"}, "completionDateStruct": {"date": "2020-06-05", "type": "ACTUAL"}, "studyFirstSubmitDate": "2018-04-30", "studyFirstSubmitQcDate": "2018-04-30", "studyFirstPostDateStruct": {"date": "2018-05-11", "type": "ACTUAL"}, "resultsFirstSubmitDate": "2022-09-30", "resultsFirstSubmitQcDate": "2022-09-30", "resultsFirstPostDateStruct": {"date": "2022-10-28", "type": "ACTUAL"}, "dispFirstSubmitDate": "2020-10-23", "dispFirstSubmitQcDate": "2020-10-23", "dispFirstPostDateStruct": {"date": "2020-10-28", "type": "ACTUAL"}, "lastUpdateSubmitDate": "2022-09-30", "lastUpdatePostDateStruct": {"date": "2022-10-28", "type": "ACTUAL"}}, "sponsorCollaboratorsModule": {"responsibleParty": {"type": "SPONSOR"}, "leadSponsor": {"name": "Lexicon Pharmaceuticals", "class": "INDUSTRY"}, "collaborators": [{"name": "Sanofi", "class": "INDUSTRY"}]}, "oversightModule": {"oversightHasDmc": true, "isFdaRegulatedDrug": true, "isFdaRegulatedDevice": false}, "descriptionModule": {"briefSummary": "Primary Objective:\n\nTo compare the effect of sotagliflozin to placebo on the total occurrences of cardiovascular (CV) death, hospitalization for heart failure (HHF), and urgent visit for heart failure (HF) in hemodynamically stable participants after admission for worsening heart failure (WHF)\n\nSecondary Objectives:\n\nTo compare the effects of sotagliflozin to placebo on:\n\n* The total occurrences of HHF and urgent visit for HF\n* The occurrence of CV death\n* The occurrence of all-cause mortality\n* The total occurrences of CV death, HHF, urgent visit for HF, non-fatal myocardial infarction (MI), and non-fatal stroke\n* Change in Kansas City Cardiomyopathy Questionnaire-12(KCCQ-12) score\n* Change in estimated glomerular filtration rate (eGFR)", "detailedDescription": "The estimated study duration for a given participants will be approximately 3 to 24 months."}, "conditionsModule": {"conditions": ["Heart Failure", "Type 2 Diabetes Mellitus"]}, "designModule": {"studyType": "INTERVENTIONAL", "phases": ["PHASE3"], "designInfo": {"allocation": "RANDOMIZED", "interventionModel": "PARALLEL", "primaryPurpose": "TREATMENT", "maskingInfo": {"masking": "QUADRUPLE", "whoMasked": ["PARTICIPANT", "CARE_PROVIDER", "INVESTIGATOR", "OUTCOMES_ASSESSOR"]}}, "enrollmentInfo": {"count": 1222, "type": "ACTUAL"}}, "armsInterventionsModule": {"armGroups": [{"label": "Sotagliflozin", "type": "EXPERIMENTAL", "description": "Sotagliflozin 200 mg tablet once daily, with possible up-titration in the first 8 months to 400 mg, for up to 21.2 months.", "interventionNames": ["Drug: Sotagliflozin"]}, {"label": "Placebo", "type": "PLACEBO_COMPARATOR", "description": "Matching placebo to sotagliflozin 200 mg once daily, with possible up-titration in the first 8 months to matching placebo to sotagliflozin 400 mg, for up to 21.6 months.", "interventionNames": ["Drug: Placebo"]}], "interventions": [{"type": "DRUG", "name": "Sotagliflozin", "description": "Pharmaceutical form: tablet\n\nRoute of administration: oral", "armGroupLabels": ["Sotagliflozin"], "otherNames": ["SAR439954"]}, {"type": "DRUG", "name": "Placebo", "description": "Pharmaceutical form: tablet\n\nRoute of administration: oral", "armGroupLabels": ["Placebo"]}]}, "outcomesModule": {"primaryOutcomes": [{"measure": "Number of Total Occurrences of Cardiovascular (CV) Death, Hospitalizations for Heart Failure (HHF) and Urgent Visits for Heart Failure (HF)", "description": "Combined endpoint of the total number of occurrences (first and potentially subsequent) of CV death, HHF, and urgent HF visits after randomization. Events that occurred during the study were calculated as the total number of events per 100 person-years of follow-up.", "timeFrame": "Up to 21.9 months"}], "secondaryOutcomes": [{"measure": "Total Number of Occurrences of HHF and Urgent HF Visits", "description": "Combined endpoint of the total occurrences (first and potentially subsequent) of HHF and urgent HF visits after randomization. Events that occurred during the study were calculated as the total number of events per 100 person-years of follow-up.", "timeFrame": "Up to 21.9 months"}, {"measure": "Total Number of Deaths From Cardiovascular Causes", "description": "Number of events that occurred during the study were calculated as the total number of events per 100 person-years of follow-up.", "timeFrame": "Up to 21.9 months"}, {"measure": "Total Number of Occurrences of CV Death, HHF, Non-fatal Myocardial Infarction and Non-fatal Stroke", "description": "Combined endpoint of the total number of occurrences (first and potentially subsequent) of CV death, HHF, non-fatal stroke, and non-fatal myocardial infarction after randomisation. Events that occurred during the study were calculated as the total number of events per 100 person-years of follow-up.", "timeFrame": "Up to 21.9 months"}, {"measure": "Total Number of Occurrences of HHF, Urgent HF Visit, CV Death, and HF While Hospitalized", "description": "Combined endpoint of the total number of occurrences (first and potentially subsequent) after randomisation of HHF, urgent HF visits, CV Death and HF while hospitalised. Events that occurred during the study were calculated as the total number of events per 100 person-years of follow-up.", "timeFrame": "Up to 21.9 months"}, {"measure": "Total Number of Deaths From Any Cause", "description": "Number of events that occurred during the study were calculated as the total number of events per 100 person-years of follow-up.", "timeFrame": "Up to 21.9 months"}, {"measure": "Change From Baseline in Kansas City Cardiomyopathy Questionnaire-12 (KCCQ-12) Scores at Month 4", "description": "KCCQ-12 is a 12 question questionnaire, participants completed questionnaire about how heart failure affected their life over the past 2 weeks. The scale has 4 domains: symptom frequency, physical limitation, social limitations and quality of life for a total possible transformed score of 0 to 100 where 100 denotes the highest health status. A positive change from baseline indicates improvement. An analysis of covariance (ANCOVA) model was used for analysis.", "timeFrame": "Baseline to Month 4"}, {"measure": "Change From Baseline in Estimated Glomerular Filtration Rate (eGFR)", "description": "eGFR is a test for renal function. A blood sample was collected and was sent to a central laboratory. eGFR was calculated by the Modification of Diet in Renal Disease (MDRD) equation reported as milliliters/minute/1.73 meter squared (mL/min/1.73 m\\^2). A mixed model for repeated measures (MMRM) was used for analysis.", "timeFrame": "Baseline up to 21.9 months"}]}, "eligibilityModule": {"eligibilityCriteria": "Inclusion criteria:\n\n* Type 2 Diabetes Mellitus.\n* Admitted to the hospital, or urgent heart failure visit for worsening heart failure.\n* Prior diagnosis of heart failure (\\> 3 months).\n* Prior chronic treatment for heart failure with a loop diuretic (eg furosemide, torsemide, bumetanide) for \\> 30 days.\n* Randomized when hemodynamically stable, prior to hospital discharge or within 3 days of discharge.\n* Brain natriuretic peptide (BNP) \u2265150 picograms per milliliter (pg/mL) (\u2265450 pg/mL for participants with atrial fibrillation) or N-terminal B-type natriuretic peptide \u2265600 pg/mL (\u22651800 pg/mL for participants with atrial fibrillation).\n* Participants with Left Ventricular Ejection Fraction \\<40% should be on beta-blockers and renin-angiotensin-aldosterone system (RAAS) inhibitors as per local guidelines unless contraindicated.\n* Signed written informed consent.\n\nExclusion criteria:\n\n* Age \\< 18 years or \\> 85 years.\n* Worsening heart failure attributed to other causes such as pulmonary embolism, stroke, heart attack.\n* Cardiac surgery or coronary procedure within 1 month or planned during study.\n* Lower extremity complications (such as skin ulcer, infection, osteomyelitis, and gangrene) identified during screening and requiring treatment at randomization.\n* Planning to start a sodium-glucose linked transporter-2 (SGLT2) inhibitor during the study.\n* Acute coronary syndromes within 3 months prior to Randomization.\n* Hemodynamically significant uncorrected primary valvular disease.\n* Significant pulmonary disease contributing substantially to the participant's dyspnea.\n* End stage Heart Failure.\n* History of diabetic ketoacidosis (DKA) or nonketotic hyperosmolar coma within 3 months prior to screening.\n* History of stroke within 3 months prior to randomization.\n* History of dialysis within 1 year prior to randomization.\n* History of solid organ transplant or on a transplant list (if heart transplant, defined as status 1 transplant).\n* Severe kidney disease as defined by glomerular filtration rate (eGFR) \\<30 milliliter per minute per 1.72 meter square (mL/min/1.73 m\\^2).\n* Pregnancy.\n\nThe above information is not intended to contain all considerations relevant to a participant's potential participation in a clinical trial.", "healthyVolunteers": false, "sex": "ALL", "minimumAge": "18 Years", "maximumAge": "85 Years", "stdAges": ["ADULT", "OLDER_ADULT"]}, "contactsLocationsModule": {"overallOfficials": [{"name": "Suman Wason, MD", "affiliation": "Lexicon Pharmaceuticals, Inc.", "role": "STUDY_DIRECTOR"}], "locations": [{"facility": "Investigational Site Number 8400128", "city": "Alexander City", "state": "Alabama", "zip": "35010", "country": "United States", "geoPoint": {"lat": 32.94401, "lon": -85.95385}}, {"facility": "Investigational Site Number 8400109", "city": "Cottonwood", "state": "Arizona", "zip": "86326", "country": "United States", "geoPoint": {"lat": 34.73919, "lon": -112.00988}}, {"facility": "Investigational Site Number 8400032", "city": "Little Rock", "state": "Arkansas", "zip": "72205", "country": "United States", "geoPoint": {"lat": 34.74648, "lon": -92.28959}}, {"facility": "Investigational Site Number 8400080", "city": "Little Rock", "state": "Arkansas", "zip": "72205", "country": "United States", "geoPoint": {"lat": 34.74648, "lon": -92.28959}}, {"facility": "Investigational Site Number 8400075", "city": "Bakersfield", "state": "California", "zip": "93309", "country": "United States", "geoPoint": {"lat": 35.37329, "lon": -119.01871}}, {"facility": "Investigational Site Number 8400069", "city": "Fresno", "state": "California", "zip": "93701", "country": "United States", "geoPoint": {"lat": 36.74773, "lon": -119.77237}}, {"facility": "Investigational Site Number 8400008", "city": "Los Angeles", "state": "California", "zip": "90024", "country": "United States", "geoPoint": {"lat": 34.05223, "lon": -118.24368}}, {"facility": "Investigational Site Number 8400063", "city": "Los Angeles", "state": "California", "zip": "90073", "country": "United States", "geoPoint": {"lat": 34.05223, "lon": -118.24368}}, {"facility": "Investigational Site Number 8400127", "city": "National City", "state": "California", "zip": "91950", "country": "United States", "geoPoint": {"lat": 32.67811, "lon": -117.0992}}, {"facility": "Investigational Site Number 8400007", "city": "Redondo Beach", "state": "California", "zip": "90277", "country": "United States", "geoPoint": {"lat": 33.84918, "lon": -118.38841}}, {"facility": "Investigational Site Number 8400036", "city": "Stockton", "state": "California", "zip": "95204", "country": "United States", "geoPoint": {"lat": 37.9577, "lon": -121.29078}}, {"facility": "Investigational Site Number 8400033", "city": "Sylmar", "state": "California", "zip": "91342", "country": "United States", "geoPoint": {"lat": 34.30778, "lon": -118.44925}}, {"facility": "Investigational Site Number 8400049", "city": "Torrance", "state": "California", "zip": "90502", "country": "United States", "geoPoint": {"lat": 33.83585, "lon": -118.34063}}, {"facility": "Investigational Site Number 8400028", "city": "Walnut Creek", "state": "California", "zip": "94598", "country": "United States", "geoPoint": {"lat": 37.90631, "lon": -122.06496}}, {"facility": "Investigational Site Number 8400029", "city": "Bridgeport", "state": "Connecticut", "zip": "06606", "country": "United States", "geoPoint": {"lat": 41.16704, "lon": -73.20483}}, {"facility": "Investigational Site Number 8400037", "city": "New Haven", "state": "Connecticut", "zip": "06519", "country": "United States", "geoPoint": {"lat": 41.30815, "lon": -72.92816}}, {"facility": "Investigational Site Number 8400046", "city": "DeLand", "state": "Florida", "zip": "32720", "country": "United States", "geoPoint": {"lat": 29.02832, "lon": -81.30312}}, {"facility": "Investigational Site Number 8400009", "city": "Gainesville", "state": "Florida", "zip": "32608", "country": "United States", "geoPoint": {"lat": 29.65163, "lon": -82.32483}}, {"facility": "Investigational Site Number 8400079", "city": "Homestead", "state": "Florida", "zip": "33033", "country": "United States", "geoPoint": {"lat": 25.46872, "lon": -80.47756}}, {"facility": "Investigational Site Number 8400031", "city": "Jacksonville", "state": "Florida", "zip": "32207", "country": "United States", "geoPoint": {"lat": 30.33218, "lon": -81.65565}}, {"facility": "Investigational Site Number 8400022", "city": "Jacksonville", "state": "Florida", "zip": "32216", "country": "United States", "geoPoint": {"lat": 30.33218, "lon": -81.65565}}, {"facility": "Investigational Site Number 8400098", "city": "Lake Mary", "state": "Florida", "zip": "32746", "country": "United States", "geoPoint": {"lat": 28.75888, "lon": -81.31784}}, {"facility": "Investigational Site Number 8400058", "city": "Miami Beach", "state": "Florida", "zip": "33140", "country": "United States", "geoPoint": {"lat": 25.79065, "lon": -80.13005}}, {"facility": "Investigational Site Number 8400105", "city": "Orlando", "state": "Florida", "zip": "32806", "country": "United States", "geoPoint": {"lat": 28.53834, "lon": -81.37924}}, {"facility": "Investigational Site Number 8400082", "city": "Pensacola", "state": "Florida", "zip": "32504", "country": "United States", "geoPoint": {"lat": 30.42131, "lon": -87.21691}}, {"facility": "Investigational Site Number 8400057", "city": "Port Charlotte", "state": "Florida", "zip": "33952", "country": "United States", "geoPoint": {"lat": 26.97617, "lon": -82.09064}}, {"facility": "Investigational Site Number 8400006", "city": "Sarasota", "state": "Florida", "zip": "34239", "country": "United States", "geoPoint": {"lat": 27.33643, "lon": -82.53065}}, {"facility": "Investigational Site Number 8400035", "city": "Tampa", "state": "Florida", "zip": "33609", "country": "United States", "geoPoint": {"lat": 27.94752, "lon": -82.45843}}, {"facility": "Investigational Site Number 8400042", "city": "Tampa", "state": "Florida", "zip": "33612", "country": "United States", "geoPoint": {"lat": 27.94752, "lon": -82.45843}}, {"facility": "Investigational Site Number 8400004", "city": "Wellington", "state": "Florida", "zip": "33449", "country": "United States", "geoPoint": {"lat": 26.65868, "lon": -80.24144}}, {"facility": "Investigational Site Number 8400073", "city": "Atlanta", "state": "Georgia", "zip": "30322-1020", "country": "United States", "geoPoint": {"lat": 33.749, "lon": -84.38798}}, {"facility": "Investigational Site Number 8400118", "city": "Tucker", "state": "Georgia", "zip": "30084", "country": "United States", "geoPoint": {"lat": 33.85455, "lon": -84.21714}}, {"facility": "Investigational Site Number 8400067", "city": "Arlington Heights", "state": "Illinois", "zip": "60005", "country": "United States", "geoPoint": {"lat": 42.08836, "lon": -87.98063}}, {"facility": "Investigational Site Number 8400043", "city": "Chicago", "state": "Illinois", "zip": "60637", "country": "United States", "geoPoint": {"lat": 41.85003, "lon": -87.65005}}, {"facility": "Investigational Site Number 8400072", "city": "Elk Grove Village", "state": "Illinois", "zip": "60007", "country": "United States", "geoPoint": {"lat": 42.00392, "lon": -87.97035}}, {"facility": "Investigational Site Number 8400055", "city": "Indianapolis", "state": "Indiana", "zip": "46060", "country": "United States", "geoPoint": {"lat": 39.76838, "lon": -86.15804}}, {"facility": "Investigational Site Number 8400020", "city": "Muncie", "state": "Indiana", "zip": "47303-3400", "country": "United States", "geoPoint": {"lat": 40.19338, "lon": -85.38636}}, {"facility": "Investigational Site Number 8400122", "city": "Richmond", "state": "Indiana", "zip": "47374", "country": "United States", "geoPoint": {"lat": 39.82894, "lon": -84.89024}}, {"facility": "Investigational Site Number 8400091", "city": "Waterloo", "state": "Iowa", "zip": "50702", "country": "United States", "geoPoint": {"lat": 42.49276, "lon": -92.34296}}, {"facility": "Investigational Site Number 8400030", "city": "Covington", "state": "Louisiana", "zip": "70433", "country": "United States", "geoPoint": {"lat": 30.47549, "lon": -90.10042}}, {"facility": "Investigational Site Number 8400065", "city": "Annapolis", "state": "Maryland", "zip": "21401", "country": "United States", "geoPoint": {"lat": 38.97845, "lon": -76.49218}}, {"facility": "Investigational Site Number 8400012", "city": "Boston", "state": "Massachusetts", "zip": "02118", "country": "United States", "geoPoint": {"lat": 42.35843, "lon": -71.05977}}, {"facility": "Investigational Site Number 8400001", "city": "Cambridge", "state": "Massachusetts", "zip": "02135", "country": "United States", "geoPoint": {"lat": 42.3751, "lon": -71.10561}}, {"facility": "Investigational Site Number 8400077", "city": "Detroit", "state": "Michigan", "zip": "48202", "country": "United States", "geoPoint": {"lat": 42.33143, "lon": -83.04575}}, {"facility": "Investigational Site Number 8400062", "city": "Kalamazoo", "state": "Michigan", "zip": "49009", "country": "United States", "geoPoint": {"lat": 42.29171, "lon": -85.58723}}, {"facility": "Investigational Site Number 8400017", "city": "Kalamazoo", "state": "Michigan", "zip": "49048", "country": "United States", "geoPoint": {"lat": 42.29171, "lon": -85.58723}}, {"facility": "Investigational Site Number 8400107", "city": "Duluth", "state": "Minnesota", "zip": "55805", "country": "United States", "geoPoint": {"lat": 46.78327, "lon": -92.10658}}, {"facility": "Investigational Site Number 8400056", "city": "Jackson", "state": "Mississippi", "zip": "39216", "country": "United States", "geoPoint": {"lat": 32.29876, "lon": -90.18481}}, {"facility": "Investigational Site Number 8400019", "city": "Columbia", "state": "Missouri", "zip": "65201", "country": "United States", "geoPoint": {"lat": 38.95171, "lon": -92.33407}}, {"facility": "Investigational Site Number 8400103", "city": "Lee's Summit", "state": "Missouri", "zip": "64064", "country": "United States", "geoPoint": {"lat": 38.91084, "lon": -94.38217}}, {"facility": "Investigational Site Number 8400132", "city": "Grand Island", "state": "Nebraska", "zip": "68803", "country": "United States", "geoPoint": {"lat": 40.92501, "lon": -98.34201}}, {"facility": "Investigational Site Number 8400130", "city": "Lincoln", "state": "Nebraska", "zip": "68506", "country": "United States", "geoPoint": {"lat": 40.8, "lon": -96.66696}}, {"facility": "Investigational Site Number 8400083", "city": "Omaha", "state": "Nebraska", "zip": "68124", "country": "United States", "geoPoint": {"lat": 41.25626, "lon": -95.94043}}, {"facility": "Investigational Site Number 8400071", "city": "Omaha", "state": "Nebraska", "zip": "68198", "country": "United States", "geoPoint": {"lat": 41.25626, "lon": -95.94043}}, {"facility": "Investigational Site Number 8400015", "city": "Ridgewood", "state": "New Jersey", "zip": "07450-2736", "country": "United States", "geoPoint": {"lat": 40.97926, "lon": -74.11653}}, {"facility": "Investigational Site Number 8400050", "city": "Voorhees", "state": "New Jersey", "zip": "08043", "country": "United States", "geoPoint": {"lat": 40.48122, "lon": -74.48321}}, {"facility": "Investigational Site Number 8400131", "city": "Albuquerque", "state": "New Mexico", "zip": "87131", "country": "United States", "geoPoint": {"lat": 35.08449, "lon": -106.65114}}, {"facility": "Investigational Site Number 8400097", "city": "Bronx", "state": "New York", "zip": "10457", "country": "United States", "geoPoint": {"lat": 40.84985, "lon": -73.86641}}, {"facility": "Investigational Site Number 8400061", "city": "Bronx", "state": "New York", "zip": "10468-3904", "country": "United States", "geoPoint": {"lat": 40.84985, "lon": -73.86641}}, {"facility": "Investigational Site Number 8400051", "city": "Brooklyn", "state": "New York", "zip": "11203", "country": "United States", "geoPoint": {"lat": 40.6501, "lon": -73.94958}}, {"facility": "Investigational Site Number 8400111", "city": "Buffalo", "state": "New York", "zip": "14215", "country": "United States", "geoPoint": {"lat": 42.88645, "lon": -78.87837}}, {"facility": "Investigational Site Number 8400045", "city": "Greensboro", "state": "North Carolina", "zip": "27401", "country": "United States", "geoPoint": {"lat": 36.07264, "lon": -79.79198}}, {"facility": "Investigational Site Number 8400085", "city": "Raleigh", "state": "North Carolina", "zip": "27610", "country": "United States", "geoPoint": {"lat": 35.7721, "lon": -78.63861}}, {"facility": "Investigational Site Number 8400078", "city": "Winston-Salem", "state": "North Carolina", "zip": "27157", "country": "United States", "geoPoint": {"lat": 36.09986, "lon": -80.24422}}, {"facility": "Investigational Site Number 8400087", "city": "Cincinnati", "state": "Ohio", "zip": "45220", "country": "United States", "geoPoint": {"lat": 39.12713, "lon": -84.51435}}, {"facility": "Investigational Site Number 8400047", "city": "Cincinnati", "state": "Ohio", "zip": "45267", "country": "United States", "geoPoint": {"lat": 39.12713, "lon": -84.51435}}, {"facility": "Investigational Site Number 8400095", "city": "Maumee", "state": "Ohio", "zip": "43537", "country": "United States", "geoPoint": {"lat": 41.56283, "lon": -83.65382}}, {"facility": "Investigational Site Number 8400099", "city": "Toledo", "state": "Ohio", "zip": "43699", "country": "United States", "geoPoint": {"lat": 41.66394, "lon": -83.55521}}, {"facility": "Investigational Site Number 8400121", "city": "Zanesville", "state": "Ohio", "zip": "43701", "country": "United States", "geoPoint": {"lat": 39.94035, "lon": -82.01319}}, {"facility": "Investigational Site Number 8400054", "city": "Arlington", "state": "Oregon", "zip": "19001", "country": "United States", "geoPoint": {"lat": 45.7168, "lon": -120.20088}}, {"facility": "Investigational Site Number 8400134", "city": "Doylestown", "state": "Pennsylvania", "zip": "18901", "country": "United States", "geoPoint": {"lat": 40.31011, "lon": -75.12989}}, {"facility": "Investigational Site Number 8400044", "city": "Natrona Heights", "state": "Pennsylvania", "zip": "15065", "country": "United States", "geoPoint": {"lat": 40.6234, "lon": -79.72977}}, {"facility": "Investigational Site Number 8400115", "city": "Philadelphia", "state": "Pennsylvania", "zip": "19104", "country": "United States", "geoPoint": {"lat": 39.95233, "lon": -75.16379}}, {"facility": "Investigational Site Number 8400039", "city": "Sayre", "state": "Pennsylvania", "zip": "18840", "country": "United States", "geoPoint": {"lat": 41.97896, "lon": -76.5155}}, {"facility": "Investigational Site Number 8400114", "city": "Providence", "state": "Rhode Island", "zip": "02903", "country": "United States", "geoPoint": {"lat": 41.82399, "lon": -71.41283}}, {"facility": "Investigational Site Number 8400100", "city": "Warwick", "state": "Rhode Island", "zip": "02886", "country": "United States", "geoPoint": {"lat": 41.7001, "lon": -71.41617}}, {"facility": "Investigational Site Number 8400059", "city": "Charleston", "state": "South Carolina", "zip": "29425", "country": "United States", "geoPoint": {"lat": 32.77657, "lon": -79.93092}}, {"facility": "Investigational Site Number 8400092", "city": "Columbia", "state": "South Carolina", "zip": "29203", "country": "United States", "geoPoint": {"lat": 34.00071, "lon": -81.03481}}, {"facility": "Investigational Site Number 8400104", "city": "Greenville", "state": "South Carolina", "zip": "29605", "country": "United States", "geoPoint": {"lat": 34.85262, "lon": -82.39401}}, {"facility": "Investigational Site Number 8400040", "city": "Rapid City", "state": "South Dakota", "zip": "57701", "country": "United States", "geoPoint": {"lat": 44.08054, "lon": -103.23101}}, {"facility": "Investigational Site Number 8400088", "city": "Greenville", "state": "Tennessee", "zip": "30000", "country": "United States", "geoPoint": {"lat": 36.297, "lon": -86.88833}}, {"facility": "Investigational Site Number 8400089", "city": "Memphis", "state": "Tennessee", "zip": "38104", "country": "United States", "geoPoint": {"lat": 35.14953, "lon": -90.04898}}, {"facility": "Investigational Site Number 8400053", "city": "Nashville", "state": "Tennessee", "zip": "37212", "country": "United States", "geoPoint": {"lat": 36.16589, "lon": -86.78444}}, {"facility": "Investigational Site Number 8400041", "city": "Brownsville", "state": "Texas", "zip": "78521", "country": "United States", "geoPoint": {"lat": 25.90175, "lon": -97.49748}}, {"facility": "Investigational Site Number 8400074", "city": "Dallas", "state": "Texas", "zip": "75226", "country": "United States", "geoPoint": {"lat": 32.78306, "lon": -96.80667}}, {"facility": "Investigational Site Number 8400016", "city": "Houston", "state": "Texas", "zip": "77030", "country": "United States", "geoPoint": {"lat": 29.76328, "lon": -95.36327}}, {"facility": "Investigational Site Number 8400123", "city": "McKinney", "state": "Texas", "zip": "75071", "country": "United States", "geoPoint": {"lat": 33.19762, "lon": -96.61527}}, {"facility": "Investigational Site Number 8400101", "city": "New Braunfels", "state": "Texas", "zip": "78130", "country": "United States", "geoPoint": {"lat": 29.703, "lon": -98.12445}}, {"facility": "Investigational Site Number 8400066", "city": "Victoria", "state": "Texas", "zip": "77901", "country": "United States", "geoPoint": {"lat": 28.80527, "lon": -97.0036}}, {"facility": "Investigational Site Number 8400093", "city": "Manassas", "state": "Virginia", "zip": "20109", "country": "United States", "geoPoint": {"lat": 38.75095, "lon": -77.47527}}, {"facility": "Investigational Site Number 8400003", "city": "Richmond", "state": "Virginia", "zip": "23249-0001", "country": "United States", "geoPoint": {"lat": 37.55376, "lon": -77.46026}}, {"facility": "Investigational Site Number 8400126", "city": "Clarksburg", "state": "West Virginia", "zip": "26301", "country": "United States", "geoPoint": {"lat": 39.28065, "lon": -80.34453}}, {"facility": "Investigational Site Number 8400038", "city": "Morgantown", "state": "West Virginia", "zip": "26506", "country": "United States", "geoPoint": {"lat": 39.62953, "lon": -79.9559}}, {"facility": "Investigational Site Number 8400048", "city": "Manitowoc", "state": "Wisconsin", "zip": "54220", "country": "United States", "geoPoint": {"lat": 44.08861, "lon": -87.65758}}, {"facility": "Investigational Site Number 0320031", "city": "Caba", "zip": "1430", "country": "Argentina", "geoPoint": {"lat": -34.61315, "lon": -58.37723}}, {"facility": "Investigational Site Number 0320009", "city": "Caba", "zip": "C1093AAS", "country": "Argentina", "geoPoint": {"lat": -34.61315, "lon": -58.37723}}, {"facility": "Investigational Site Number 0320016", "city": "Capital Federal", "zip": "1405", "country": "Argentina", "geoPoint": {"lat": -34.61315, "lon": -58.37723}}, {"facility": "Investigational Site Number 0320002", "city": "Ciudad De Buenos Aires", "zip": "C1428DCO", "country": "Argentina", "geoPoint": {"lat": -34.61315, "lon": -58.37723}}, {"facility": "Investigational Site Number 0320011", "city": "Cordoba", "zip": "X5000AAX", "country": "Argentina", "geoPoint": {"lat": -31.4135, "lon": -64.18105}}, {"facility": "Investigational Site Number 0320010", "city": "Cordoba", "zip": "X5004BAL", "country": "Argentina", "geoPoint": {"lat": -31.4135, "lon": -64.18105}}, {"facility": "Investigational Site Number 0320022", "city": "Corrientes", "zip": "3400", "country": "Argentina", "geoPoint": {"lat": -27.4806, "lon": -58.8341}}, {"facility": "Investigational Site Number 0320001", "city": "Corrientes", "zip": "W3400AMZ", "country": "Argentina", "geoPoint": {"lat": -27.4806, "lon": -58.8341}}, {"facility": "Investigational Site Number 0320024", "city": "C\u00f3rdoba", "zip": "5000", "country": "Argentina", "geoPoint": {"lat": -31.4135, "lon": -64.18105}}, {"facility": "Investigational Site Number 0320003", "city": "C\u00f3rdoba", "zip": "X5000JHQ", "country": "Argentina", "geoPoint": {"lat": -31.4135, "lon": -64.18105}}, {"facility": "Investigational Site Number 0320025", "city": "C\u00f3rdoba", "zip": "X5006IKK", "country": "Argentina", "geoPoint": {"lat": -31.4135, "lon": -64.18105}}, {"facility": "Investigational Site Number 0320029", "city": "La Plata", "zip": "B1900AXI", "country": "Argentina", "geoPoint": {"lat": -34.92145, "lon": -57.95453}}, {"facility": "Investigational Site Number 0320007", "city": "La Plata", "zip": "B1906ESC", "country": "Argentina", "geoPoint": {"lat": -34.92145, "lon": -57.95453}}, {"facility": "Investigational Site Number 0320006", "city": "Merlo", "zip": "B1722COV", "country": "Argentina", "geoPoint": {"lat": -32.34288, "lon": -65.01396}}, {"facility": "Investigational Site Number 0320005", "city": "Moron", "zip": "B1708CGU", "country": "Argentina", "geoPoint": {"lat": -34.6509, "lon": -58.61956}}, {"facility": "Investigational Site Number 0320012", "city": "Olivos", "zip": "1638", "country": "Argentina", "geoPoint": {"lat": -34.50747, "lon": -58.48703}}, {"facility": "Investigational Site Number 0320023", "city": "Quilmes", "zip": "1878", "country": "Argentina", "geoPoint": {"lat": -34.72904, "lon": -58.26374}}, {"facility": "Investigational Site Number 0320018", "city": "Rosario", "zip": "2000", "country": "Argentina", "geoPoint": {"lat": -32.94682, "lon": -60.63932}}, {"facility": "Investigational Site Number 0320013", "city": "Rosario", "zip": "S2000DSR", "country": "Argentina", "geoPoint": {"lat": -32.94682, "lon": -60.63932}}, {"facility": "Investigational Site Number 0320008", "city": "Salta", "zip": "4400", "country": "Argentina", "geoPoint": {"lat": -24.7859, "lon": -65.41166}}, {"facility": "Investigational Site Number 0320020", "city": "San Martin", "zip": "B1685CSQ", "country": "Argentina", "geoPoint": {"lat": -33.08103, "lon": -68.46814}}, {"facility": "Investigational Site Number 0320028", "city": "San Miguel De Tucuman", "zip": "T4000IFL", "country": "Argentina", "geoPoint": {"lat": -26.82414, "lon": -65.2226}}, {"facility": "Investigational Site Number 0320019", "city": "San Miguel De Tucuman", "zip": "T4000NIL", "country": "Argentina", "geoPoint": {"lat": -26.82414, "lon": -65.2226}}, {"facility": "Investigational Site Number 0320017", "city": "Santa Fe", "zip": "S3000EOZ", "country": "Argentina", "geoPoint": {"lat": -31.63333, "lon": -60.7}}, {"facility": "Investigational Site Number 0320015", "city": "Santa Fe", "zip": "S3000FWO", "country": "Argentina", "geoPoint": {"lat": -31.63333, "lon": -60.7}}, {"facility": "Investigational Site Number 0320030", "city": "Tucuman", "zip": "T4000JCU", "country": "Argentina", "geoPoint": {"lat": -26.82414, "lon": -65.2226}}, {"facility": "Investigational Site Number 0320004", "city": "Villa Belgrano", "zip": "X5021FPQ", "country": "Argentina"}, {"facility": "Investigational Site Number 0320014", "city": "Villa Maria", "zip": "X5900JKA", "country": "Argentina", "geoPoint": {"lat": -32.40751, "lon": -63.24016}}, {"facility": "Investigational Site Number 0360007", "city": "Murdoch", "zip": "6150", "country": "Australia", "geoPoint": {"lat": -32.06987, "lon": 115.83757}}, {"facility": "Investigational Site Number 0360001", "city": "Wollongong", "zip": "2500", "country": "Australia", "geoPoint": {"lat": -34.424, "lon": 150.89345}}, {"facility": "Investigational Site Number 0400006", "city": "Braunau", "zip": "5280", "country": "Austria"}, {"facility": "Investigational Site Number 0400002", "city": "Feldkirch", "zip": "6800", "country": "Austria", "geoPoint": {"lat": 47.23306, "lon": 9.6}}, {"facility": "Investigational Site Number 0400007", "city": "Graz", "zip": "8036", "country": "Austria", "geoPoint": {"lat": 47.06667, "lon": 15.45}}, {"facility": "Investigational Site Number 0400005", "city": "Linz", "zip": "4010", "country": "Austria", "geoPoint": {"lat": 48.30639, "lon": 14.28611}}, {"facility": "Investigational Site Number 0400004", "city": "Salzburg", "zip": "5020", "country": "Austria", "geoPoint": {"lat": 47.79941, "lon": 13.04399}}, {"facility": "Investigational Site Number 0400003", "city": "Wien", "zip": "1090", "country": "Austria", "geoPoint": {"lat": 48.20849, "lon": 16.37208}}, {"facility": "Investigational Site Number 0400001", "city": "Wien", "zip": "1160", "country": "Austria", "geoPoint": {"lat": 48.20849, "lon": 16.37208}}, {"facility": "Investigational Site Number 0560002", "city": "Aalst", "zip": "9300", "country": "Belgium", "geoPoint": {"lat": 50.93604, "lon": 4.0355}}, {"facility": "Investigational Site Number 0560007", "city": "Gent", "zip": "9000", "country": "Belgium", "geoPoint": {"lat": 51.05, "lon": 3.71667}}, {"facility": "Investigational Site Number 0560004", "city": "Kortrijk", "zip": "8500", "country": "Belgium", "geoPoint": {"lat": 50.82803, "lon": 3.26487}}, {"facility": "Investigational Site Number 0560001", "city": "Leuven", "zip": "3000", "country": "Belgium", "geoPoint": {"lat": 50.87959, "lon": 4.70093}}, {"facility": "Investigational Site Number 0560003", "city": "Li\u00e8ge", "zip": "4000", "country": "Belgium", "geoPoint": {"lat": 50.63373, "lon": 5.56749}}, {"facility": "Investigational Site Number 0560005", "city": "Mol", "zip": "2400", "country": "Belgium", "geoPoint": {"lat": 51.19188, "lon": 5.11662}}, {"facility": "Investigational Site Number 0560006", "city": "Mons", "zip": "7000", "country": "Belgium", "geoPoint": {"lat": 50.45413, "lon": 3.95229}}, {"facility": "Investigational Site Number 0560008", "city": "Roeselare", "zip": "8800", "country": "Belgium", "geoPoint": {"lat": 50.94653, "lon": 3.12269}}, {"facility": "Investigational Site Number 0760009", "city": "Belo Horizonte", "zip": "30110-908", "country": "Brazil", "geoPoint": {"lat": -19.92083, "lon": -43.93778}}, {"facility": "Investigational Site Number 0760024", "city": "Belo Horizonte", "zip": "30150-221", "country": "Brazil", "geoPoint": {"lat": -19.92083, "lon": -43.93778}}, {"facility": "Investigational Site Number 0760002", "city": "Blumenau", "zip": "89020-430", "country": "Brazil", "geoPoint": {"lat": -26.91944, "lon": -49.06611}}, {"facility": "Investigational Site Number 0760011", "city": "Brasilia", "zip": "70390-903", "country": "Brazil", "geoPoint": {"lat": -15.77972, "lon": -47.92972}}, {"facility": "Investigational Site Number 0760005", "city": "Campinas", "zip": "13060-080", "country": "Brazil", "geoPoint": {"lat": -22.90556, "lon": -47.06083}}, {"facility": "Investigational Site Number 0760006", "city": "Campinas", "zip": "13092-111", "country": "Brazil", "geoPoint": {"lat": -22.90556, "lon": -47.06083}}, {"facility": "Investigational Site Number 0760023", "city": "Fortaleza", "zip": "60840-285", "country": "Brazil", "geoPoint": {"lat": -3.71722, "lon": -38.54306}}, {"facility": "Investigational Site Number 0760018", "city": "Goiania", "zip": "74210050", "country": "Brazil", "geoPoint": {"lat": -16.67861, "lon": -49.25389}}, {"facility": "Investigational Site Number 0760010", "city": "Passo Fundo", "zip": "99010-180", "country": "Brazil", "geoPoint": {"lat": -28.26278, "lon": -52.40667}}, {"facility": "Investigational Site Number 0760003", "city": "Porto Alegre", "zip": "90020-090", "country": "Brazil", "geoPoint": {"lat": -30.03306, "lon": -51.23}}, {"facility": "Investigational Site Number 0760020", "city": "Porto Alegre", "zip": "90035 003", "country": "Brazil", "geoPoint": {"lat": -30.03306, "lon": -51.23}}, {"facility": "Investigational Site Number 0760021", "city": "Porto Alegre", "zip": "90610-000", "country": "Brazil", "geoPoint": {"lat": -30.03306, "lon": -51.23}}, {"facility": "Investigational Site Number 0760007", "city": "Porto Alegre", "zip": "90620-001", "country": "Brazil", "geoPoint": {"lat": -30.03306, "lon": -51.23}}, {"facility": "Investigational Site Number 0760013", "city": "Porto Alegre", "zip": "91350-250", "country": "Brazil", "geoPoint": {"lat": -30.03306, "lon": -51.23}}, {"facility": "Investigational Site Number 0760004", "city": "Recife", "zip": "52051-380", "country": "Brazil", "geoPoint": {"lat": -8.05389, "lon": -34.88111}}, {"facility": "Investigational Site Number 0760001", "city": "Sao Jose Do Rio Preto", "zip": "15090-000", "country": "Brazil", "geoPoint": {"lat": -20.81972, "lon": -49.37944}}, {"facility": "Investigational Site Number 0760012", "city": "Sao Paulo", "zip": "04012-909", "country": "Brazil", "geoPoint": {"lat": -23.5475, "lon": -46.63611}}, {"facility": "Investigational Site Number 0760008", "city": "Sao Paulo", "zip": "05403-000", "country": "Brazil", "geoPoint": {"lat": -23.5475, "lon": -46.63611}}, {"facility": "Investigational Site Number 0760017", "city": "Votuporanga", "zip": "15500-003", "country": "Brazil", "geoPoint": {"lat": -20.42278, "lon": -49.97278}}, {"facility": "Investigational Site Number 1240013", "city": "Cambridge", "zip": "N1R 6V6", "country": "Canada", "geoPoint": {"lat": 43.3601, "lon": -80.31269}}, {"facility": "Investigational Site Number 1240006", "city": "Granby", "zip": "J2G 1T7", "country": "Canada", "geoPoint": {"lat": 45.40008, "lon": -72.73243}}, {"facility": "Investigational Site Number 1240015", "city": "Halifax", "zip": "B3H 3A7", "country": "Canada", "geoPoint": {"lat": 44.64533, "lon": -63.57239}}, {"facility": "Investigational Site Number 1240002", "city": "Montreal", "zip": "H1T 1C8", "country": "Canada", "geoPoint": {"lat": 45.50884, "lon": -73.58781}}, {"facility": "Investigational Site Number 1240019", "city": "Montreal", "zip": "H3G 1A4", "country": "Canada", "geoPoint": {"lat": 45.50884, "lon": -73.58781}}, {"facility": "Investigational Site Number 1240018", "city": "Montreal", "zip": "H4A 3J1", "country": "Canada", "geoPoint": {"lat": 45.50884, "lon": -73.58781}}, {"facility": "Investigational Site Number 1240004", "city": "Peterborough", "zip": "K9J 0B2", "country": "Canada", "geoPoint": {"lat": 44.30012, "lon": -78.31623}}, {"facility": "Investigational Site Number 1240014", "city": "Quebec", "zip": "G1V 4G5", "country": "Canada", "geoPoint": {"lat": 46.81228, "lon": -71.21454}}, {"facility": "Investigational Site Number 1240007", "city": "Scarborough", "zip": "M1B 4Z8", "country": "Canada", "geoPoint": {"lat": 43.77223, "lon": -79.25666}}, {"facility": "Investigational Site Number 1240005", "city": "Sherbrooke", "zip": "J1G 2E8", "country": "Canada", "geoPoint": {"lat": 45.40008, "lon": -71.89908}}, {"facility": "Investigational Site Number 1240011", "city": "Toronto", "zip": "M5B 1W8", "country": "Canada", "geoPoint": {"lat": 43.70011, "lon": -79.4163}}, {"facility": "Investigational Site Number 1240001", "city": "Toronto", "zip": "M5G 2C4", "country": "Canada", "geoPoint": {"lat": 43.70011, "lon": -79.4163}}, {"facility": "Investigational Site Number 1240009", "city": "Trois-Rivi\u00e8res", "zip": "G9A 5C5", "country": "Canada", "geoPoint": {"lat": 46.34515, "lon": -72.5477}}, {"facility": "Investigational Site Number 1520009", "city": "Concepci\u00f3n", "country": "Chile", "geoPoint": {"lat": -36.82699, "lon": -73.04977}}, {"facility": "Investigational Site Number 1520011", "city": "Santiago", "zip": "80004005", "country": "Chile", "geoPoint": {"lat": -33.45694, "lon": -70.64827}}, {"facility": "Investigational Site Number 1520006", "city": "Santiago", "zip": "8053095", "country": "Chile", "geoPoint": {"lat": -33.45694, "lon": -70.64827}}, {"facility": "Investigational Site Number 1520003", "city": "Santiago", "zip": "8380456", "country": "Chile", "geoPoint": {"lat": -33.45694, "lon": -70.64827}}, {"facility": "Investigational Site Number 1520004", "city": "Santiago", "country": "Chile", "geoPoint": {"lat": -33.45694, "lon": -70.64827}}, {"facility": "Investigational Site Number 1520005", "city": "Santiago", "country": "Chile", "geoPoint": {"lat": -33.45694, "lon": -70.64827}}, {"facility": "Investigational Site Number 1520012", "city": "Santiago", "country": "Chile", "geoPoint": {"lat": -33.45694, "lon": -70.64827}}, {"facility": "Investigational Site Number 1520013", "city": "Santiago", "country": "Chile", "geoPoint": {"lat": -33.45694, "lon": -70.64827}}, {"facility": "Investigational Site Number 1520002", "city": "Temuco", "country": "Chile", "geoPoint": {"lat": -38.73965, "lon": -72.59842}}, {"facility": "Investigational Site Number 1520010", "city": "Vina Del Mar", "country": "Chile", "geoPoint": {"lat": -33.02457, "lon": -71.55183}}, {"facility": "Investigational Site Number 1520001", "city": "Vi\u00f1a Del Mar", "country": "Chile", "geoPoint": {"lat": -33.02457, "lon": -71.55183}}, {"facility": "Investigational Site Number 2030001", "city": "Brno", "zip": "62500", "country": "Czechia", "geoPoint": {"lat": 49.19522, "lon": 16.60796}}, {"facility": "Investigational Site Number 2030003", "city": "Brno", "zip": "63600", "country": "Czechia", "geoPoint": {"lat": 49.19522, "lon": 16.60796}}, {"facility": "Investigational Site Number 2030004", "city": "Brno", "zip": "65691", "country": "Czechia", "geoPoint": {"lat": 49.19522, "lon": 16.60796}}, {"facility": "Investigational Site Number 2030014", "city": "Kolin 3", "zip": "28002", "country": "Czechia", "geoPoint": {"lat": 50.02806, "lon": 15.1998}}, {"facility": "Investigational Site Number 2030010", "city": "Kromeriz", "zip": "76701", "country": "Czechia", "geoPoint": {"lat": 49.29785, "lon": 17.39312}}, {"facility": "Investigational Site Number 2030005", "city": "Liberec", "zip": "46063", "country": "Czechia", "geoPoint": {"lat": 50.76711, "lon": 15.05619}}, {"facility": "Investigational Site Number 2030013", "city": "Mestec Kralove", "zip": "28903", "country": "Czechia", "geoPoint": {"lat": 50.20718, "lon": 15.29758}}, {"facility": "Investigational Site Number 2030018", "city": "Praha 10", "zip": "10100", "country": "Czechia", "geoPoint": {"lat": 50.08804, "lon": 14.42076}}, {"facility": "Investigational Site Number 2030002", "city": "Praha 2", "zip": "12808", "country": "Czechia", "geoPoint": {"lat": 50.08804, "lon": 14.42076}}, {"facility": "Investigational Site Number 2030007", "city": "Praha 5 - Motol", "zip": "15006", "country": "Czechia", "geoPoint": {"lat": 50.08804, "lon": 14.42076}}, {"facility": "Investigational Site Number 2030017", "city": "Praha 5", "zip": "15030", "country": "Czechia", "geoPoint": {"lat": 50.08804, "lon": 14.42076}}, {"facility": "Investigational Site Number 2030011", "city": "Prerov", "zip": "75152", "country": "Czechia", "geoPoint": {"lat": 49.45511, "lon": 17.4509}}, {"facility": "Investigational Site Number 2030015", "city": "Pribram I", "zip": "26101", "country": "Czechia"}, {"facility": "Investigational Site Number 2030006", "city": "Slany", "zip": "27401", "country": "Czechia", "geoPoint": {"lat": 50.23046, "lon": 14.08693}}, {"facility": "Investigational Site Number 2080003", "city": "Aarhus N", "zip": "8200", "country": "Denmark", "geoPoint": {"lat": 56.15674, "lon": 10.21076}}, {"facility": "Investigational Site Number 2080002", "city": "Glostrup", "zip": "2600", "country": "Denmark", "geoPoint": {"lat": 55.6666, "lon": 12.40377}}, {"facility": "Investigational Site Number 2080001", "city": "Herlev", "zip": "2730", "country": "Denmark", "geoPoint": {"lat": 55.72366, "lon": 12.43998}}, {"facility": "Investigational Site Number 2080005", "city": "K\u00f8benhavn Nv", "zip": "2400", "country": "Denmark", "geoPoint": {"lat": 55.67594, "lon": 12.56553}}, {"facility": "Investigational Site Number 2080004", "city": "\u00c5lborg", "zip": "9100", "country": "Denmark"}, {"facility": "Investigational Site Number 2460004", "city": "Espoo", "zip": "02740", "country": "Finland", "geoPoint": {"lat": 60.2052, "lon": 24.6522}}, {"facility": "Investigational Site Number 2460001", "city": "Helsinki", "zip": "00029 HUS", "country": "Finland", "geoPoint": {"lat": 60.16952, "lon": 24.93545}}, {"facility": "Investigational Site Number 2460002", "city": "Jyv\u00e4skyl\u00e4", "zip": "40620", "country": "Finland", "geoPoint": {"lat": 62.24147, "lon": 25.72088}}, {"facility": "Investigational Site Number 2460003", "city": "Oulu", "zip": "90220", "country": "Finland", "geoPoint": {"lat": 65.01236, "lon": 25.46816}}, {"facility": "Investigational Site Number 2460005", "city": "Sein\u00e4joki", "zip": "60220", "country": "Finland", "geoPoint": {"lat": 62.79446, "lon": 22.82822}}, {"facility": "Investigational Site Number 2500009", "city": "Chambray Les Tours", "zip": "37170", "country": "France", "geoPoint": {"lat": 47.33537, "lon": 0.70286}}, {"facility": "Investigational Site Number 2500008", "city": "La Tronche", "zip": "38700", "country": "France", "geoPoint": {"lat": 45.20429, "lon": 5.73645}}, {"facility": "Investigational Site Number 2500004", "city": "Le Chesnay", "zip": "78150", "country": "France", "geoPoint": {"lat": 48.8222, "lon": 2.12213}}, {"facility": "Investigational Site Number 2500002", "city": "Le Coudray", "zip": "28360", "country": "France", "geoPoint": {"lat": 48.42115, "lon": 1.50057}}, {"facility": "Investigational Site Number 2500001", "city": "Lille", "zip": "59037", "country": "France", "geoPoint": {"lat": 50.63297, "lon": 3.05858}}, {"facility": "Investigational Site Number 2500007", "city": "Nantes Cedex 1", "zip": "44093", "country": "France", "geoPoint": {"lat": 47.21725, "lon": -1.55336}}, {"facility": "Investigational Site Number 2500012", "city": "Nice Cedex 1", "zip": "06002", "country": "France", "geoPoint": {"lat": 43.70313, "lon": 7.26608}}, {"facility": "Investigational Site Number 2500003", "city": "Paris Cedex 18", "zip": "75877", "country": "France", "geoPoint": {"lat": 48.85341, "lon": 2.3488}}, {"facility": "Investigational Site Number 2500006", "city": "Paris", "zip": "75015", "country": "France", "geoPoint": {"lat": 48.85341, "lon": 2.3488}}, {"facility": "Investigational Site Number 2500005", "city": "Toulouse Cedex 9", "zip": "31059", "country": "France", "geoPoint": {"lat": 43.60426, "lon": 1.44367}}, {"facility": "Investigational Site Number 2500013", "city": "Vandoeuvre-Les-Nancy Cedex", "zip": "54511", "country": "France", "geoPoint": {"lat": 48.65, "lon": 6.18333}}, {"facility": "Investigational Site Number 2760020", "city": "Bad Nauheim", "zip": "61231", "country": "Germany", "geoPoint": {"lat": 50.36463, "lon": 8.73859}}, {"facility": "Investigational Site Number 2760016", "city": "Bad Oeynhausen", "zip": "32545", "country": "Germany", "geoPoint": {"lat": 52.20699, "lon": 8.80365}}, {"facility": "Investigational Site Number 2760013", "city": "Berlin", "zip": "12203", "country": "Germany", "geoPoint": {"lat": 52.52437, "lon": 13.41053}}, {"facility": "Investigational Site Number 2760019", "city": "Berlin", "zip": "13347", "country": "Germany", "geoPoint": {"lat": 52.52437, "lon": 13.41053}}, {"facility": "Investigational Site Number 2760001", "city": "Berlin", "zip": "13353", "country": "Germany", "geoPoint": {"lat": 52.52437, "lon": 13.41053}}, {"facility": "Investigational Site Number 2760002", "city": "Berlin", "zip": "13353", "country": "Germany", "geoPoint": {"lat": 52.52437, "lon": 13.41053}}, {"facility": "Investigational Site Number 2760025", "city": "Bielefeld", "zip": "33604", "country": "Germany", "geoPoint": {"lat": 52.03333, "lon": 8.53333}}, {"facility": "Investigational Site Number 2760005", "city": "Bonn", "zip": "53115", "country": "Germany", "geoPoint": {"lat": 50.73438, "lon": 7.09549}}, {"facility": "Investigational Site Number 2760021", "city": "Bremen", "zip": "28277", "country": "Germany", "geoPoint": {"lat": 53.07516, "lon": 8.80777}}, {"facility": "Investigational Site Number 2760035", "city": "Coburg", "zip": "96450", "country": "Germany", "geoPoint": {"lat": 50.25937, "lon": 10.96384}}, {"facility": "Investigational Site Number 2760032", "city": "Dortmund", "zip": "44137", "country": "Germany", "geoPoint": {"lat": 51.51494, "lon": 7.466}}, {"facility": "Investigational Site Number 2760006", "city": "Dortmund", "zip": "44379", "country": "Germany", "geoPoint": {"lat": 51.51494, "lon": 7.466}}, {"facility": "Investigational Site Number 2760029", "city": "Erfurt", "zip": "99097", "country": "Germany", "geoPoint": {"lat": 50.9787, "lon": 11.03283}}, {"facility": "Investigational Site Number 2760018", "city": "Essen", "zip": "45138", "country": "Germany", "geoPoint": {"lat": 51.45657, "lon": 7.01228}}, {"facility": "Investigational Site Number 2760033", "city": "Frankfurt Am Main", "zip": "65929", "country": "Germany", "geoPoint": {"lat": 50.11552, "lon": 8.68417}}, {"facility": "Investigational Site Number 2760009", "city": "Greifswald", "zip": "17475", "country": "Germany", "geoPoint": {"lat": 54.09311, "lon": 13.38786}}, {"facility": "Investigational Site Number 2760022", "city": "Heidelberg", "zip": "69115", "country": "Germany", "geoPoint": {"lat": 49.40768, "lon": 8.69079}}, {"facility": "Investigational Site Number 2760031", "city": "Heidelberg", "zip": "69120", "country": "Germany", "geoPoint": {"lat": 49.40768, "lon": 8.69079}}, {"facility": "Investigational Site Number 2760027", "city": "K\u00f6ln", "zip": "50733", "country": "Germany", "geoPoint": {"lat": 50.93333, "lon": 6.95}}, {"facility": "Investigational Site Number 2760034", "city": "Lahr", "zip": "77933", "country": "Germany", "geoPoint": {"lat": 48.34042, "lon": 7.86886}}, {"facility": "Investigational Site Number 2760030", "city": "Langen", "zip": "63225", "country": "Germany", "geoPoint": {"lat": 49.98955, "lon": 8.66852}}, {"facility": "Investigational Site Number 2760014", "city": "Leverkusen", "zip": "51375", "country": "Germany", "geoPoint": {"lat": 51.0303, "lon": 6.98432}}, {"facility": "Investigational Site Number 2760036", "city": "Limburg", "zip": "65549", "country": "Germany", "geoPoint": {"lat": 48.03138, "lon": 12.18221}}, {"facility": "Investigational Site Number 2760012", "city": "Ludwigshafen", "zip": "67063", "country": "Germany", "geoPoint": {"lat": 49.48121, "lon": 8.44641}}, {"facility": "Investigational Site Number 2760028", "city": "Merseburg", "zip": "06217", "country": "Germany", "geoPoint": {"lat": 51.35478, "lon": 11.98923}}, {"facility": "Investigational Site Number 2760011", "city": "Rotenburg An Der Fulda", "zip": "36199", "country": "Germany", "geoPoint": {"lat": 50.99556, "lon": 9.72838}}, {"facility": "Investigational Site Number 2760015", "city": "R\u00fcsselsheim", "zip": "65428", "country": "Germany", "geoPoint": {"lat": 49.98955, "lon": 8.42251}}, {"facility": "Investigational Site Number 2760007", "city": "Witten", "zip": "58455", "country": "Germany", "geoPoint": {"lat": 51.44362, "lon": 7.35258}}, {"facility": "Investigational Site Number 2760026", "city": "W\u00fcrzburg", "zip": "97080", "country": "Germany", "geoPoint": {"lat": 49.79391, "lon": 9.95121}}, {"facility": "Investigational Site Number 3000012", "city": "Athens", "zip": "11526", "country": "Greece", "geoPoint": {"lat": 37.97945, "lon": 23.71622}}, {"facility": "Investigational Site Number 3000004", "city": "Athens", "zip": "11527", "country": "Greece", "geoPoint": {"lat": 37.97945, "lon": 23.71622}}, {"facility": "Investigational Site Number 3000002", "city": "Chalkida", "zip": "34 100", "country": "Greece", "geoPoint": {"lat": 38.46354, "lon": 23.60284}}, {"facility": "Investigational Site Number 3000009", "city": "Elefsina", "zip": "19600", "country": "Greece", "geoPoint": {"lat": 38.04135, "lon": 23.54295}}, {"facility": "Investigational Site Number 3000003", "city": "Haidari", "zip": "12462", "country": "Greece"}, {"facility": "Investigational Site Number 3000005", "city": "Heraklion", "zip": "71110", "country": "Greece", "geoPoint": {"lat": 35.32787, "lon": 25.14341}}, {"facility": "Investigational Site Number 3000007", "city": "Ioannina", "zip": "455 00", "country": "Greece", "geoPoint": {"lat": 39.66486, "lon": 20.85189}}, {"facility": "Investigational Site Number 3000006", "city": "Larissa", "zip": "41110", "country": "Greece", "geoPoint": {"lat": 39.63689, "lon": 22.41761}}, {"facility": "Investigational Site Number 3000001", "city": "N. Ionia", "zip": "14233", "country": "Greece"}, {"facility": "Investigational Site Number 3000008", "city": "Thessaloniki", "zip": "546 36", "country": "Greece", "geoPoint": {"lat": 40.64361, "lon": 22.93086}}, {"facility": "Investigational Site Number 3480018", "city": "Beretty\u00f3\u00fajfalu", "zip": "4100", "country": "Hungary", "geoPoint": {"lat": 47.21667, "lon": 21.55}}, {"facility": "Investigational Site Number 3480012", "city": "Budapest", "zip": "1023", "country": "Hungary", "geoPoint": {"lat": 47.49801, "lon": 19.03991}}, {"facility": "Investigational Site Number 3480016", "city": "Budapest", "zip": "1085", "country": "Hungary", "geoPoint": {"lat": 47.49801, "lon": 19.03991}}, {"facility": "Investigational Site Number 3480010", "city": "Budapest", "zip": "1096", "country": "Hungary", "geoPoint": {"lat": 47.49801, "lon": 19.03991}}, {"facility": "Investigational Site Number 3480019", "city": "Budapest", "zip": "1115", "country": "Hungary", "geoPoint": {"lat": 47.49801, "lon": 19.03991}}, {"facility": "Investigational Site Number 3480001", "city": "Budapest", "zip": "1122", "country": "Hungary", "geoPoint": {"lat": 47.49801, "lon": 19.03991}}, {"facility": "Investigational Site Number 3480015", "city": "Budapest", "zip": "1125", "country": "Hungary", "geoPoint": {"lat": 47.49801, "lon": 19.03991}}, {"facility": "Investigational Site Number 3480011", "city": "Budapest", "zip": "1134", "country": "Hungary", "geoPoint": {"lat": 47.49801, "lon": 19.03991}}, {"facility": "Investigational Site Number 3480014", "city": "Budapest", "zip": "1145", "country": "Hungary", "geoPoint": {"lat": 47.49801, "lon": 19.03991}}, {"facility": "Investigational Site Number 3480005", "city": "Budapest", "zip": "1204", "country": "Hungary", "geoPoint": {"lat": 47.49801, "lon": 19.03991}}, {"facility": "Investigational Site Number 3480007", "city": "Debrecen", "zip": "4032", "country": "Hungary", "geoPoint": {"lat": 47.53333, "lon": 21.63333}}, {"facility": "Investigational Site Number 3480002", "city": "Domb\u00f3v\u00e1r", "zip": "7200", "country": "Hungary", "geoPoint": {"lat": 46.37657, "lon": 18.13696}}, {"facility": "Investigational Site Number 3480017", "city": "Gyula", "zip": "5700", "country": "Hungary", "geoPoint": {"lat": 46.65, "lon": 21.28333}}, {"facility": "Investigational Site Number 3480008", "city": "H\u00f3dmez\u00f6v\u00e1s\u00e1rhely", "zip": "6800", "country": "Hungary", "geoPoint": {"lat": 46.41667, "lon": 20.33333}}, {"facility": "Investigational Site Number 3480020", "city": "Kistarcsa", "zip": "2143", "country": "Hungary", "geoPoint": {"lat": 47.54757, "lon": 19.26247}}, {"facility": "Investigational Site Number 3480009", "city": "Kom\u00e1rom", "zip": "2921", "country": "Hungary", "geoPoint": {"lat": 47.74318, "lon": 18.11913}}, {"facility": "Investigational Site Number 3480013", "city": "P\u00e9cs", "zip": "7624", "country": "Hungary", "geoPoint": {"lat": 46.08333, "lon": 18.23333}}, {"facility": "Investigational Site Number 3480003", "city": "Szekesfehervar", "zip": "8000", "country": "Hungary", "geoPoint": {"lat": 47.18995, "lon": 18.41034}}, {"facility": "Investigational Site Number 3480006", "city": "Zalaegerszeg", "zip": "8900", "country": "Hungary", "geoPoint": {"lat": 46.84, "lon": 16.84389}}, {"facility": "Investigational Site Number 3760013", "city": "Ashkelon", "zip": "78278", "country": "Israel", "geoPoint": {"lat": 31.66926, "lon": 34.57149}}, {"facility": "Investigational Site Number 3760004", "city": "Hadera", "zip": "38100", "country": "Israel", "geoPoint": {"lat": 32.44192, "lon": 34.9039}}, {"facility": "Investigational Site Number 3760005", "city": "Haifa", "zip": "31096", "country": "Israel", "geoPoint": {"lat": 32.81841, "lon": 34.9885}}, {"facility": "Investigational Site Number 3760006", "city": "Jerusalem", "zip": "91031", "country": "Israel", "geoPoint": {"lat": 31.76904, "lon": 35.21633}}, {"facility": "Investigational Site Number 3760003", "city": "Jerusalem", "zip": "91120", "country": "Israel", "geoPoint": {"lat": 31.76904, "lon": 35.21633}}, {"facility": "Investigational Site Number 3760008", "city": "Jerusalem", "country": "Israel", "geoPoint": {"lat": 31.76904, "lon": 35.21633}}, {"facility": "Investigational Site Number 3760010", "city": "Nahariya", "zip": "22100", "country": "Israel", "geoPoint": {"lat": 33.00892, "lon": 35.09814}}, {"facility": "Investigational Site Number 3760002", "city": "Petah-Tikva", "zip": "49100", "country": "Israel", "geoPoint": {"lat": 32.08707, "lon": 34.88747}}, {"facility": "Investigational Site Number 3760011", "city": "Rehovot", "zip": "76100", "country": "Israel", "geoPoint": {"lat": 31.89421, "lon": 34.81199}}, {"facility": "Investigational Site Number 3760009", "city": "Safed", "zip": "13100", "country": "Israel", "geoPoint": {"lat": 32.96465, "lon": 35.496}}, {"facility": "Investigational Site Number 3760001", "city": "Tel Aviv", "zip": "64239", "country": "Israel", "geoPoint": {"lat": 32.08088, "lon": 34.78057}}, {"facility": "Investigational Site Number 3760012", "city": "Tiberias", "zip": "15208", "country": "Israel", "geoPoint": {"lat": 32.79221, "lon": 35.53124}}, {"facility": "Investigational Site Number 3800006", "city": "Arzignano (Vi)", "zip": "36071", "country": "Italy"}, {"facility": "Investigational Site Number 3800011", "city": "Brescia", "zip": "25123", "country": "Italy", "geoPoint": {"lat": 45.53558, "lon": 10.21472}}, {"facility": "Investigational Site Number 3800017", "city": "Brescia", "zip": "25124", "country": "Italy", "geoPoint": {"lat": 45.53558, "lon": 10.21472}}, {"facility": "Investigational Site Number 3800005", "city": "Cortona", "zip": "52044", "country": "Italy", "geoPoint": {"lat": 43.27467, "lon": 11.98533}}, {"facility": "Investigational Site Number 3800009", "city": "Ferrara", "zip": "44124", "country": "Italy", "geoPoint": {"lat": 44.83804, "lon": 11.62057}}, {"facility": "Investigational Site Number 3800020", "city": "Gallipoli", "zip": "73014", "country": "Italy", "geoPoint": {"lat": 40.05594, "lon": 17.99088}}, {"facility": "Investigational Site Number 3800003", "city": "Legnago", "zip": "37045", "country": "Italy", "geoPoint": {"lat": 45.19365, "lon": 11.30227}}, {"facility": "Investigational Site Number 3800023", "city": "Milano", "zip": "20122", "country": "Italy", "geoPoint": {"lat": 45.46427, "lon": 9.18951}}, {"facility": "Investigational Site Number 3800002", "city": "Milano", "zip": "20138", "country": "Italy", "geoPoint": {"lat": 45.46427, "lon": 9.18951}}, {"facility": "Investigational Site Number 3800012", "city": "Milano", "zip": "20138", "country": "Italy", "geoPoint": {"lat": 45.46427, "lon": 9.18951}}, {"facility": "Investigational Site Number 3800008", "city": "Milano", "zip": "20162", "country": "Italy", "geoPoint": {"lat": 45.46427, "lon": 9.18951}}, {"facility": "Investigational Site Number 3800013", "city": "Monza", "zip": "20052", "country": "Italy", "geoPoint": {"lat": 45.58005, "lon": 9.27246}}, {"facility": "Investigational Site Number 3800022", "city": "Napoli", "zip": "80131", "country": "Italy", "geoPoint": {"lat": 40.85216, "lon": 14.26811}}, {"facility": "Investigational Site Number 3800018", "city": "Pavia", "zip": "27100", "country": "Italy", "geoPoint": {"lat": 45.19205, "lon": 9.15917}}, {"facility": "Investigational Site Number 3800004", "city": "Perugia", "zip": "06132", "country": "Italy", "geoPoint": {"lat": 43.1122, "lon": 12.38878}}, {"facility": "Investigational Site Number 3800016", "city": "Pozzilli", "zip": "86077", "country": "Italy", "geoPoint": {"lat": 41.51142, "lon": 14.06252}}, {"facility": "Investigational Site Number 3800014", "city": "Rimini", "zip": "47900", "country": "Italy", "geoPoint": {"lat": 44.05755, "lon": 12.56528}}, {"facility": "Investigational Site Number 3800010", "city": "Roma", "zip": "00153", "country": "Italy", "geoPoint": {"lat": 41.89193, "lon": 12.51133}}, {"facility": "Investigational Site Number 3800021", "city": "Roma", "zip": "00189", "country": "Italy", "geoPoint": {"lat": 41.89193, "lon": 12.51133}}, {"facility": "Investigational Site Number 3800019", "city": "Scorrano", "zip": "73020", "country": "Italy", "geoPoint": {"lat": 40.09018, "lon": 18.29993}}, {"facility": "Investigational Site Number 3800007", "city": "Udine", "zip": "33100", "country": "Italy", "geoPoint": {"lat": 46.0693, "lon": 13.23715}}, {"facility": "Investigational Site Number 4100008", "city": "Bucheon-Si", "zip": "14754", "country": "Korea, Republic of", "geoPoint": {"lat": 37.49889, "lon": 126.78306}}, {"facility": "Investigational Site Number 4100010", "city": "Busan", "zip": "49267", "country": "Korea, Republic of", "geoPoint": {"lat": 35.10278, "lon": 129.04028}}, {"facility": "Investigational Site Number 4100004", "city": "Daegu", "zip": "42472", "country": "Korea, Republic of", "geoPoint": {"lat": 35.87028, "lon": 128.59111}}, {"facility": "Investigational Site Number 4100001", "city": "Hwaseong-Si", "zip": "18450", "country": "Korea, Republic of", "geoPoint": {"lat": 37.20682, "lon": 126.8169}}, {"facility": "Investigational Site Number 4100003", "city": "Incheon", "zip": "22332", "country": "Korea, Republic of", "geoPoint": {"lat": 37.45646, "lon": 126.70515}}, {"facility": "Investigational Site Number 4100005", "city": "Seongnam-Si", "zip": "13620", "country": "Korea, Republic of", "geoPoint": {"lat": 37.43861, "lon": 127.13778}}, {"facility": "Investigational Site Number 4100002", "city": "Seoul", "zip": "03080", "country": "Korea, Republic of", "geoPoint": {"lat": 37.566, "lon": 126.9784}}, {"facility": "Investigational Site Number 4100007", "city": "Seoul", "zip": "03722", "country": "Korea, Republic of", "geoPoint": {"lat": 37.566, "lon": 126.9784}}, {"facility": "Investigational Site Number 4100011", "city": "Seoul", "zip": "05030", "country": "Korea, Republic of", "geoPoint": {"lat": 37.566, "lon": 126.9784}}, {"facility": "Investigational Site Number 4100009", "city": "Seoul", "zip": "06351", "country": "Korea, Republic of", "geoPoint": {"lat": 37.566, "lon": 126.9784}}, {"facility": "Investigational Site Number 4280004", "city": "Daugavpils", "zip": "LV-5417", "country": "Latvia", "geoPoint": {"lat": 55.88333, "lon": 26.53333}}, {"facility": "Investigational Site Number 4280002", "city": "Liepaja", "zip": "LV-3414", "country": "Latvia", "geoPoint": {"lat": 56.51667, "lon": 21.01667}}, {"facility": "Investigational Site Number 4280001", "city": "Riga", "zip": "LV-1002", "country": "Latvia", "geoPoint": {"lat": 56.946, "lon": 24.10589}}, {"facility": "Investigational Site Number 4280003", "city": "Riga", "zip": "LV-1038", "country": "Latvia", "geoPoint": {"lat": 56.946, "lon": 24.10589}}, {"facility": "Investigational Site Number 4400002", "city": "Kaunas", "zip": "50161", "country": "Lithuania", "geoPoint": {"lat": 54.90272, "lon": 23.90961}}, {"facility": "Investigational Site Number 4400005", "city": "Kaunas", "zip": "50161", "country": "Lithuania", "geoPoint": {"lat": 54.90272, "lon": 23.90961}}, {"facility": "Investigational Site Number 4400004", "city": "Klaipeda", "zip": "LT-92288", "country": "Lithuania", "geoPoint": {"lat": 55.70888, "lon": 21.14311}}, {"facility": "Investigational Site Number 4400006", "city": "Siauliai", "zip": "LT-76231", "country": "Lithuania", "geoPoint": {"lat": 55.93333, "lon": 23.31667}}, {"facility": "Investigational Site Number 4400001", "city": "Vilnius", "zip": "08661", "country": "Lithuania", "geoPoint": {"lat": 54.68916, "lon": 25.2798}}, {"facility": "Investigational Site Number 4400003", "city": "Vilnius", "zip": "08661", "country": "Lithuania", "geoPoint": {"lat": 54.68916, "lon": 25.2798}}, {"facility": "Investigational Site Number 5280003", "city": "Amsterdam", "zip": "1034 CS", "country": "Netherlands", "geoPoint": {"lat": 52.37403, "lon": 4.88969}}, {"facility": "Investigational Site Number 5280001", "city": "Breda", "zip": "4819 EV", "country": "Netherlands", "geoPoint": {"lat": 51.58656, "lon": 4.77596}}, {"facility": "Investigational Site Number 5280007", "city": "Delft", "zip": "2625 AD", "country": "Netherlands", "geoPoint": {"lat": 52.00667, "lon": 4.35556}}, {"facility": "Investigational Site Number 5280002", "city": "Doetinchem", "zip": "7009 BL", "country": "Netherlands", "geoPoint": {"lat": 51.965, "lon": 6.28889}}, {"facility": "Investigational Site Number 5280004", "city": "Hertogenbosch", "zip": "5223 GZ 's", "country": "Netherlands", "geoPoint": {"lat": 51.27, "lon": 5.59167}}, {"facility": "Investigational Site Number 5280006", "city": "Rotterdam", "zip": "3045 PM", "country": "Netherlands", "geoPoint": {"lat": 51.9225, "lon": 4.47917}}, {"facility": "Investigational Site Number 5280008", "city": "Sneek", "zip": "8601", "country": "Netherlands", "geoPoint": {"lat": 53.03297, "lon": 5.6589}}, {"facility": "Investigational Site Number 5280005", "city": "Veldhoven", "zip": "5504 DB", "country": "Netherlands", "geoPoint": {"lat": 51.41833, "lon": 5.40278}}, {"facility": "Investigational Site Number 5540007", "city": "Auckland", "zip": "1023", "country": "New Zealand", "geoPoint": {"lat": -36.84853, "lon": 174.76349}}, {"facility": "Investigational Site Number 5540006", "city": "Christchurch", "zip": "8011", "country": "New Zealand", "geoPoint": {"lat": -43.53333, "lon": 172.63333}}, {"facility": "Investigational Site Number 5540002", "city": "Hamilton", "zip": "3204", "country": "New Zealand", "geoPoint": {"lat": -37.78333, "lon": 175.28333}}, {"facility": "Investigational Site Number 5540004", "city": "Lower Hutt", "country": "New Zealand", "geoPoint": {"lat": -41.21667, "lon": 174.91667}}, {"facility": "Investigational Site Number 5540005", "city": "New Plymouth", "country": "New Zealand", "geoPoint": {"lat": -39.06667, "lon": 174.08333}}, {"facility": "Investigational Site Number 5540003", "city": "Rotorua", "zip": "3010", "country": "New Zealand", "geoPoint": {"lat": -38.13874, "lon": 176.24516}}, {"facility": "Investigational Site Number 6160007", "city": "Bialystok", "zip": "15-276", "country": "Poland", "geoPoint": {"lat": 53.13333, "lon": 23.16433}}, {"facility": "Investigational Site Number 6160017", "city": "Gdansk", "zip": "80-462", "country": "Poland", "geoPoint": {"lat": 54.35205, "lon": 18.64637}}, {"facility": "Investigational Site Number 6160002", "city": "Grodzisk Mazowiecki", "zip": "05-825", "country": "Poland", "geoPoint": {"lat": 52.10387, "lon": 20.6337}}, {"facility": "Investigational Site Number 6160014", "city": "Katowice", "zip": "40-635", "country": "Poland", "geoPoint": {"lat": 50.25841, "lon": 19.02754}}, {"facility": "Investigational Site Number 6160021", "city": "Krakow", "zip": "30-693", "country": "Poland", "geoPoint": {"lat": 50.06143, "lon": 19.93658}}, {"facility": "Investigational Site Number 6160001", "city": "Krakow", "zip": "31 -202", "country": "Poland", "geoPoint": {"lat": 50.06143, "lon": 19.93658}}, {"facility": "Investigational Site Number 6160003", "city": "Krakow", "zip": "31-501", "country": "Poland", "geoPoint": {"lat": 50.06143, "lon": 19.93658}}, {"facility": "Investigational Site Number 6160012", "city": "Krakow", "country": "Poland", "geoPoint": {"lat": 50.06143, "lon": 19.93658}}, {"facility": "Investigational Site Number 6160011", "city": "Leczna", "zip": "21-010", "country": "Poland", "geoPoint": {"lat": 51.30121, "lon": 22.88135}}, {"facility": "Investigational Site Number 6160016", "city": "Lubin", "zip": "59-301", "country": "Poland", "geoPoint": {"lat": 51.40089, "lon": 16.20149}}, {"facility": "Investigational Site Number 6160005", "city": "Miechow", "zip": "32-200", "country": "Poland", "geoPoint": {"lat": 50.35648, "lon": 20.02788}}, {"facility": "Investigational Site Number 6160022", "city": "Poznan", "zip": "61-848", "country": "Poland", "geoPoint": {"lat": 52.40692, "lon": 16.92993}}, {"facility": "Investigational Site Number 6160006", "city": "Torun", "zip": "87-100", "country": "Poland", "geoPoint": {"lat": 53.01375, "lon": 18.59814}}, {"facility": "Investigational Site Number 6160013", "city": "Warszawa", "zip": "00-685", "country": "Poland", "geoPoint": {"lat": 52.22977, "lon": 21.01178}}, {"facility": "Investigational Site Number 6160004", "city": "Warszawa", "zip": "03-242", "country": "Poland", "geoPoint": {"lat": 52.22977, "lon": 21.01178}}, {"facility": "Investigational Site Number 6160020", "city": "Warszawa", "zip": "04-073", "country": "Poland", "geoPoint": {"lat": 52.22977, "lon": 21.01178}}, {"facility": "Investigational Site Number 6160024", "city": "Warszawa", "zip": "04-349", "country": "Poland", "geoPoint": {"lat": 52.22977, "lon": 21.01178}}, {"facility": "Investigational Site Number 6160008", "city": "Warszawa", "zip": "04-628", "country": "Poland", "geoPoint": {"lat": 52.22977, "lon": 21.01178}}, {"facility": "Investigational Site Number 6160015", "city": "Zamosc", "zip": "22-400", "country": "Poland", "geoPoint": {"lat": 50.72314, "lon": 23.25196}}, {"facility": "Investigational Site Number 6200012", "city": "Braga", "zip": "4710-243", "country": "Portugal", "geoPoint": {"lat": 41.55032, "lon": -8.42005}}, {"facility": "Investigational Site Number 6200001", "city": "Coimbra", "zip": "3000-075", "country": "Portugal", "geoPoint": {"lat": 40.20564, "lon": -8.41955}}, {"facility": "Investigational Site Number 6200011", "city": "Guilhufe - Penafiel", "zip": "4564-007", "country": "Portugal"}, {"facility": "Investigational Site Number 6200004", "city": "Guimar\u00e3es", "zip": "4810-061", "country": "Portugal", "geoPoint": {"lat": 41.44443, "lon": -8.29619}}, {"facility": "Investigational Site Number 6200006", "city": "Lisboa", "zip": "1449-005", "country": "Portugal", "geoPoint": {"lat": 38.71667, "lon": -9.13333}}, {"facility": "Investigational Site Number 6200002", "city": "Lisboa", "zip": "1500-650", "country": "Portugal", "geoPoint": {"lat": 38.71667, "lon": -9.13333}}, {"facility": "Investigational Site Number 6200008", "city": "Porto", "zip": "4099-001", "country": "Portugal", "geoPoint": {"lat": 41.14961, "lon": -8.61099}}, {"facility": "Investigational Site Number 6200007", "city": "Vila Franca De Xira", "zip": "2600-009", "country": "Portugal", "geoPoint": {"lat": 38.95525, "lon": -8.98966}}, {"facility": "Investigational Site Number 6200003", "city": "Vila Nova Gaia", "zip": "4434-502", "country": "Portugal"}, {"facility": "Investigational Site Number 6200005", "city": "Vila Real", "zip": "5000-508", "country": "Portugal", "geoPoint": {"lat": 41.30062, "lon": -7.74413}}, {"facility": "Investigational Site Number 6420014", "city": "Arad", "zip": "310037", "country": "Romania", "geoPoint": {"lat": 46.18333, "lon": 21.31667}}, {"facility": "Investigational Site Number 6420006", "city": "Baia Mare", "zip": "430031", "country": "Romania", "geoPoint": {"lat": 47.65529, "lon": 23.57381}}, {"facility": "Investigational Site Number 6420015", "city": "Braila", "zip": "810325", "country": "Romania", "geoPoint": {"lat": 45.26667, "lon": 27.98333}}, {"facility": "Investigational Site Number 6420013", "city": "Bucharest", "zip": "010825", "country": "Romania", "geoPoint": {"lat": 44.43225, "lon": 26.10626}}, {"facility": "Investigational Site Number 6420019", "city": "Bucuresti", "zip": "014461", "country": "Romania", "geoPoint": {"lat": 44.42802, "lon": 26.09665}}, {"facility": "Investigational Site Number 6420011", "city": "Bucuresti", "zip": "020125", "country": "Romania", "geoPoint": {"lat": 44.42802, "lon": 26.09665}}, {"facility": "Investigational Site Number 6420008", "city": "Bucuresti", "zip": "022322", "country": "Romania", "geoPoint": {"lat": 44.42802, "lon": 26.09665}}, {"facility": "Investigational Site Number 6420007", "city": "Bucuresti", "zip": "050659", "country": "Romania", "geoPoint": {"lat": 44.42802, "lon": 26.09665}}, {"facility": "Investigational Site Number 6420002", "city": "Cluj Napoca", "zip": "400001", "country": "Romania", "geoPoint": {"lat": 46.76667, "lon": 23.6}}, {"facility": "Investigational Site Number 6420003", "city": "Cluj Napoca", "zip": "400347", "country": "Romania", "geoPoint": {"lat": 46.76667, "lon": 23.6}}, {"facility": "Investigational Site Number 6420016", "city": "Craiova", "zip": "200642", "country": "Romania", "geoPoint": {"lat": 44.31667, "lon": 23.8}}, {"facility": "Investigational Site Number 6420005", "city": "Oradea", "zip": "410169", "country": "Romania", "geoPoint": {"lat": 47.0458, "lon": 21.91833}}, {"facility": "Investigational Site Number 6420004", "city": "Oradea", "zip": "410469", "country": "Romania", "geoPoint": {"lat": 47.0458, "lon": 21.91833}}, {"facility": "Investigational Site Number 6420018", "city": "Satu Mare", "zip": "440156", "country": "Romania", "geoPoint": {"lat": 47.79926, "lon": 22.86255}}, {"facility": "Investigational Site Number 6420001", "city": "Targu Mures", "zip": "540103", "country": "Romania", "geoPoint": {"lat": 46.54245, "lon": 24.55747}}, {"facility": "Investigational Site Number 6420012", "city": "Tg-Mures", "zip": "540136", "country": "Romania"}, {"facility": "Investigational Site Number 6420009", "city": "Timisoara", "zip": "300079", "country": "Romania", "geoPoint": {"lat": 45.75372, "lon": 21.22571}}, {"facility": "Investigational Site Number 6420010", "city": "Timisoara", "zip": "300723", "country": "Romania", "geoPoint": {"lat": 45.75372, "lon": 21.22571}}, {"facility": "Investigational Site Number 6430026", "city": "Ivanovo", "zip": "153012", "country": "Russian Federation", "geoPoint": {"lat": 56.99719, "lon": 40.97139}}, {"facility": "Investigational Site Number 6430023", "city": "Kazan", "zip": "420087", "country": "Russian Federation", "geoPoint": {"lat": 55.78874, "lon": 49.12214}}, {"facility": "Investigational Site Number 6430002", "city": "Kemerovo", "zip": "650002", "country": "Russian Federation", "geoPoint": {"lat": 55.33333, "lon": 86.08333}}, {"facility": "Investigational Site Number 6430006", "city": "Kemerovo", "zip": "650002", "country": "Russian Federation", "geoPoint": {"lat": 55.33333, "lon": 86.08333}}, {"facility": "Investigational Site Number 6430005", "city": "Moscow", "zip": "109240", "country": "Russian Federation", "geoPoint": {"lat": 55.75222, "lon": 37.61556}}, {"facility": "Investigational Site Number 6430004", "city": "Moscow", "zip": "111539", "country": "Russian Federation", "geoPoint": {"lat": 55.75222, "lon": 37.61556}}, {"facility": "Investigational Site Number 6430022", "city": "Moscow", "zip": "117292", "country": "Russian Federation", "geoPoint": {"lat": 55.75222, "lon": 37.61556}}, {"facility": "Investigational Site Number 6430024", "city": "Moscow", "zip": "119192", "country": "Russian Federation", "geoPoint": {"lat": 55.75222, "lon": 37.61556}}, {"facility": "Investigational Site Number 6430001", "city": "Moscow", "zip": "121552", "country": "Russian Federation", "geoPoint": {"lat": 55.75222, "lon": 37.61556}}, {"facility": "Investigational Site Number 6430003", "city": "Moscow", "zip": "121552", "country": "Russian Federation", "geoPoint": {"lat": 55.75222, "lon": 37.61556}}, {"facility": "Investigational Site Number 6430010", "city": "Moscow", "zip": "121552", "country": "Russian Federation", "geoPoint": {"lat": 55.75222, "lon": 37.61556}}, {"facility": "Investigational Site Number 6430018", "city": "Nizhniy Novgorod", "zip": "603005", "country": "Russian Federation", "geoPoint": {"lat": 56.32867, "lon": 44.00205}}, {"facility": "Investigational Site Number 6430013", "city": "Rostov-Na-Donu", "zip": "344068", "country": "Russian Federation", "geoPoint": {"lat": 47.23135, "lon": 39.72328}}, {"facility": "Investigational Site Number 6430011", "city": "Saint-Petersburg", "zip": "198205", "country": "Russian Federation", "geoPoint": {"lat": 59.93863, "lon": 30.31413}}, {"facility": "Investigational Site Number 6430017", "city": "Sochi", "zip": "354057", "country": "Russian Federation", "geoPoint": {"lat": 43.59917, "lon": 39.72569}}, {"facility": "Investigational Site Number 6430025", "city": "St-Petersburg", "zip": "193312", "country": "Russian Federation", "geoPoint": {"lat": 59.93863, "lon": 30.31413}}, {"facility": "Investigational Site Number 6430007", "city": "St-Petersburg", "zip": "195067", "country": "Russian Federation", "geoPoint": {"lat": 59.93863, "lon": 30.31413}}, {"facility": "Investigational Site Number 6430012", "city": "St-Petersburg", "zip": "197341", "country": "Russian Federation", "geoPoint": {"lat": 59.93863, "lon": 30.31413}}, {"facility": "Investigational Site Number 6430009", "city": "St-Petersburg", "zip": "199106", "country": "Russian Federation", "geoPoint": {"lat": 59.93863, "lon": 30.31413}}, {"facility": "Investigational Site Number 6430016", "city": "Tomsk", "zip": "634012", "country": "Russian Federation", "geoPoint": {"lat": 56.49771, "lon": 84.97437}}, {"facility": "Investigational Site Number 7030003", "city": "Bratislava 3 - Kramare", "zip": "833 05", "country": "Slovakia"}, {"facility": "Investigational Site Number 7030004", "city": "Bratislava 37", "zip": "833 48", "country": "Slovakia", "geoPoint": {"lat": 48.14816, "lon": 17.10674}}, {"facility": "Investigational Site Number 7030001", "city": "Bratislava", "zip": "813 69", "country": "Slovakia", "geoPoint": {"lat": 48.14816, "lon": 17.10674}}, {"facility": "Investigational Site Number 7030010", "city": "Brezno", "zip": "97742", "country": "Slovakia", "geoPoint": {"lat": 48.80431, "lon": 19.63631}}, {"facility": "Investigational Site Number 7030009", "city": "Dolny Kubin", "zip": "02614", "country": "Slovakia", "geoPoint": {"lat": 49.20983, "lon": 19.30341}}, {"facility": "Investigational Site Number 7030002", "city": "Kosice", "zip": "040 01", "country": "Slovakia", "geoPoint": {"lat": 48.71395, "lon": 21.25808}}, {"facility": "Investigational Site Number 7030011", "city": "Nitra", "zip": "950 01", "country": "Slovakia", "geoPoint": {"lat": 48.30763, "lon": 18.08453}}, {"facility": "Investigational Site Number 7030008", "city": "Trnava", "zip": "91775", "country": "Slovakia", "geoPoint": {"lat": 48.37741, "lon": 17.58723}}, {"facility": "Investigational Site Number 7240016", "city": "Alicante", "zip": "03010", "country": "Spain", "geoPoint": {"lat": 38.34517, "lon": -0.48149}}, {"facility": "Investigational Site Number 7240015", "city": "Badalona", "zip": "08916", "country": "Spain", "geoPoint": {"lat": 41.45004, "lon": 2.24741}}, {"facility": "Investigational Site Number 7240020", "city": "Hospitalet De Llobregat", "zip": "08907", "country": "Spain", "geoPoint": {"lat": 41.35967, "lon": 2.10028}}, {"facility": "Investigational Site Number 7240006", "city": "La Coru\u00f1a", "zip": "15006", "country": "Spain", "geoPoint": {"lat": 43.37135, "lon": -8.396}}, {"facility": "Investigational Site Number 7240005", "city": "Las Palmas De Gran Canaria", "zip": "35020", "country": "Spain", "geoPoint": {"lat": 28.09973, "lon": -15.41343}}, {"facility": "Investigational Site Number 7240021", "city": "Madrid", "zip": "28031", "country": "Spain", "geoPoint": {"lat": 40.4165, "lon": -3.70256}}, {"facility": "Investigational Site Number 7240008", "city": "Madrid", "zip": "28040", "country": "Spain", "geoPoint": {"lat": 40.4165, "lon": -3.70256}}, {"facility": "Investigational Site Number 7240022", "city": "Manises", "zip": "46940", "country": "Spain", "geoPoint": {"lat": 39.49139, "lon": -0.46349}}, {"facility": "Investigational Site Number 7240007", "city": "Murcia", "zip": "30120", "country": "Spain", "geoPoint": {"lat": 37.98704, "lon": -1.13004}}, {"facility": "Investigational Site Number 7240004", "city": "M\u00e1laga", "zip": "29010", "country": "Spain", "geoPoint": {"lat": 36.72016, "lon": -4.42034}}, {"facility": "Investigational Site Number 7240014", "city": "Olot", "zip": "17800", "country": "Spain", "geoPoint": {"lat": 42.18096, "lon": 2.49012}}, {"facility": "Investigational Site Number 7240009", "city": "San Sebasti\u00e1n De Los Reyes", "zip": "28702", "country": "Spain", "geoPoint": {"lat": 40.55555, "lon": -3.62733}}, {"facility": "Investigational Site Number 7240003", "city": "Sanl\u00facar De Barrameda", "zip": "11540", "country": "Spain", "geoPoint": {"lat": 36.77808, "lon": -6.3515}}, {"facility": "Investigational Site Number 7240001", "city": "Sevilla", "zip": "41014", "country": "Spain", "geoPoint": {"lat": 37.38283, "lon": -5.97317}}, {"facility": "Investigational Site Number 7240019", "city": "Sevilla", "zip": "41071", "country": "Spain", "geoPoint": {"lat": 37.38283, "lon": -5.97317}}, {"facility": "Investigational Site Number 7240012", "city": "Valencia", "zip": "46010", "country": "Spain", "geoPoint": {"lat": 39.46975, "lon": -0.37739}}, {"facility": "Investigational Site Number 7240011", "city": "Valencia", "zip": "46014", "country": "Spain", "geoPoint": {"lat": 39.46975, "lon": -0.37739}}, {"facility": "Investigational Site Number 7240010", "city": "Valencia", "zip": "46026", "country": "Spain", "geoPoint": {"lat": 39.46975, "lon": -0.37739}}, {"facility": "Investigational Site Number 7240002", "city": "Villamart\u00edn", "zip": "11650", "country": "Spain", "geoPoint": {"lat": 36.85979, "lon": -5.64485}}, {"facility": "Investigational Site Number 7240013", "city": "Zaragoza", "zip": "50009", "country": "Spain", "geoPoint": {"lat": 41.65606, "lon": -0.87734}}, {"facility": "Investigational Site Number 7240018", "city": "\u00dabeda", "zip": "23400", "country": "Spain", "geoPoint": {"lat": 38.01328, "lon": -3.3705}}, {"facility": "Investigational Site Number 7520004", "city": "J\u00f6nk\u00f6ping", "zip": "551 85", "country": "Sweden", "geoPoint": {"lat": 57.78145, "lon": 14.15618}}, {"facility": "Investigational Site Number 7520002", "city": "Malm\u00f6", "zip": "205 02", "country": "Sweden", "geoPoint": {"lat": 55.60587, "lon": 13.00073}}, {"facility": "Investigational Site Number 7520006", "city": "Skellefte\u00e5", "zip": "931 86", "country": "Sweden", "geoPoint": {"lat": 64.75067, "lon": 20.95279}}, {"facility": "Investigational Site Number 7520007", "city": "Stockholm", "zip": "118 83", "country": "Sweden", "geoPoint": {"lat": 59.33258, "lon": 18.0649}}, {"facility": "Investigational Site Number 7520008", "city": "Stockholm", "zip": "14186", "country": "Sweden", "geoPoint": {"lat": 59.33258, "lon": 18.0649}}, {"facility": "Investigational Site Number 7520001", "city": "Stockholm", "zip": "171 76", "country": "Sweden", "geoPoint": {"lat": 59.33258, "lon": 18.0649}}, {"facility": "Investigational Site Number 7560001", "city": "Basel", "zip": "4031", "country": "Switzerland", "geoPoint": {"lat": 47.55839, "lon": 7.57327}}, {"facility": "Investigational Site Number 7560003", "city": "Lugano", "zip": "6900", "country": "Switzerland", "geoPoint": {"lat": 46.01008, "lon": 8.96004}}, {"facility": "Investigational Site Number 7920008", "city": "Antalya", "zip": "07059", "country": "Turkey", "geoPoint": {"lat": 36.90812, "lon": 30.69556}}, {"facility": "Investigational Site Number 7920006", "city": "Corum", "zip": "19200", "country": "Turkey", "geoPoint": {"lat": 40.54889, "lon": 34.95333}}, {"facility": "Investigational Site Number 7920005", "city": "Eskisehir", "zip": "26480", "country": "Turkey", "geoPoint": {"lat": 39.77667, "lon": 30.52056}}, {"facility": "Investigational Site Number 7920002", "city": "Haseki/ Istanbul", "zip": "34034", "country": "Turkey"}, {"facility": "Investigational Site Number 7920011", "city": "Istanbul", "zip": "34098", "country": "Turkey", "geoPoint": {"lat": 41.01384, "lon": 28.94966}}, {"facility": "Investigational Site Number 7920012", "city": "Izmir", "zip": "35340", "country": "Turkey", "geoPoint": {"lat": 38.41273, "lon": 27.13838}}, {"facility": "Investigational Site Number 7920003", "city": "Kocaeli", "zip": "41300", "country": "Turkey", "geoPoint": {"lat": 39.62497, "lon": 27.51145}}, {"facility": "Investigational Site Number 7920004", "city": "Mersin", "zip": "33169", "country": "Turkey", "geoPoint": {"lat": 36.79526, "lon": 34.61792}}, {"facility": "Investigational Site Number 7920001", "city": "Sivas", "zip": "58140", "country": "Turkey", "geoPoint": {"lat": 39.74833, "lon": 37.01611}}, {"facility": "Investigational Site Number 7920010", "city": "Trabzon", "zip": "61040", "country": "Turkey", "geoPoint": {"lat": 41.005, "lon": 39.72694}}, {"facility": "Investigational Site Number 8260005", "city": "Bournemouth", "zip": "BH7 7DW", "country": "United Kingdom", "geoPoint": {"lat": 50.72048, "lon": -1.8795}}, {"facility": "Investigational Site Number 8260010", "city": "Bristol", "zip": "BS10 5NB", "country": "United Kingdom", "geoPoint": {"lat": 51.45523, "lon": -2.59665}}, {"facility": "Investigational Site Number 8260008", "city": "Chelmsford", "zip": "CM1 7ET", "country": "United Kingdom", "geoPoint": {"lat": 51.73575, "lon": 0.46958}}, {"facility": "Investigational Site Number 8260009", "city": "Hull", "zip": "HU16 5JQ", "country": "United Kingdom", "geoPoint": {"lat": 53.7446, "lon": -0.33525}}, {"facility": "Investigational Site Number 8260002", "city": "Newcastle", "zip": "NE1 4LP", "country": "United Kingdom", "geoPoint": {"lat": 54.97328, "lon": -1.61396}}, {"facility": "Investigational Site Number 8260001", "city": "Oldham", "zip": "OL1 2JH", "country": "United Kingdom", "geoPoint": {"lat": 53.54051, "lon": -2.1183}}, {"facility": "Investigational Site Number 8260003", "city": "Swansea", "zip": "SA6 6NL", "country": "United Kingdom", "geoPoint": {"lat": 51.62079, "lon": -3.94323}}, {"facility": "Investigational Site Number 8260006", "city": "Swindon", "zip": "SN3 6BB", "country": "United Kingdom", "geoPoint": {"lat": 51.55797, "lon": -1.78116}}, {"facility": "Investigational Site Number 8260004", "city": "Torquay", "zip": "TQ2 7AA", "country": "United Kingdom", "geoPoint": {"lat": 50.46198, "lon": -3.5252}}, {"facility": "Investigational Site Number 8260007", "city": "York", "zip": "YO31 8HE", "country": "United Kingdom", "geoPoint": {"lat": 53.95763, "lon": -1.08271}}]}, "referencesModule": {"references": [{"pmid": "34152828", "type": "DERIVED", "citation": "Szarek M, Bhatt DL, Steg PG, Cannon CP, Leiter LA, McGuire DK, Lewis JB, Riddle MC, Voors AA, Metra M, Lund LH, Komajda M, Testani JM, Wilcox CS, Ponikowski P, Lopes RD, Banks P, Tesfaye E, Ezekowitz JA, Verma S, Pitt B; SOLOIST-WHF committees and investigators. Effect of Sotagliflozin on Total Hospitalizations in Patients With Type 2 Diabetes and Worsening Heart Failure : A Randomized Trial. Ann Intern Med. 2021 Aug;174(8):1065-1072. doi: 10.7326/M21-0651. Epub 2021 Jun 22."}, {"pmid": "33200892", "type": "DERIVED", "citation": "Bhatt DL, Szarek M, Steg PG, Cannon CP, Leiter LA, McGuire DK, Lewis JB, Riddle MC, Voors AA, Metra M, Lund LH, Komajda M, Testani JM, Wilcox CS, Ponikowski P, Lopes RD, Verma S, Lapuerta P, Pitt B; SOLOIST-WHF Trial Investigators. Sotagliflozin in Patients with Diabetes and Recent Worsening Heart Failure. N Engl J Med. 2021 Jan 14;384(2):117-128. doi: 10.1056/NEJMoa2030183. Epub 2020 Nov 16."}]}, "ipdSharingStatementModule": {"ipdSharing": "YES", "description": "Qualified researchers may request access to patient level data and related study documents including the clinical study report, study protocol with any amendments, blank case report form, statistical analysis plan, and dataset specifications. Patient level data will be anonymized and study documents will be redacted to protect the privacy of trial participants."}}, "resultsSection": {"participantFlowModule": {"preAssignmentDetails": "Participants with a diagnosis of Type 2 Diabetes post Worsening Heart Failure were enrolled equally in 1 of 2 treatment groups, sotagliflozin or placebo.", "recruitmentDetails": "Participants took part in the study at 306 investigative sites in North America, Latin America, Western Europe, Eastern Europe, and the Rest of the World from 15 June 2018 to 05 June 2020.", "groups": [{"id": "FG000", "title": "Sotagliflozin", "description": "Sotagliflozin 200 mg tablet once daily, with possible up-titration in the first 8 months to 400 mg, for up to 21.2 months."}, {"id": "FG001", "title": "Placebo", "description": "Matching placebo to sotagliflozin 200 mg once daily, with possible up-titration in the first 8 months to matching placebo to sotagliflozin 400 mg, for up to 21.6 months."}], "periods": [{"title": "Overall Study", "milestones": [{"type": "STARTED", "achievements": [{"groupId": "FG000", "numSubjects": "608"}, {"groupId": "FG001", "numSubjects": "614"}]}, {"type": "Randomized and Treated", "achievements": [{"groupId": "FG000", "numSubjects": "605"}, {"groupId": "FG001", "numSubjects": "611"}]}, {"type": "COMPLETED", "achievements": [{"groupId": "FG000", "numSubjects": "0"}, {"groupId": "FG001", "numSubjects": "0"}]}, {"type": "NOT COMPLETED", "achievements": [{"groupId": "FG000", "numSubjects": "608"}, {"groupId": "FG001", "numSubjects": "614"}]}], "dropWithdraws": [{"type": "Death", "reasons": [{"groupId": "FG000", "numSubjects": "65"}, {"groupId": "FG001", "numSubjects": "73"}]}, {"type": "Withdrawal by Subject", "reasons": [{"groupId": "FG000", "numSubjects": "18"}, {"groupId": "FG001", "numSubjects": "23"}]}, {"type": "Site Terminated by Sponsor", "reasons": [{"groupId": "FG000", "numSubjects": "39"}, {"groupId": "FG001", "numSubjects": "35"}]}, {"type": "Study Terminated by Sponsor", "reasons": [{"groupId": "FG000", "numSubjects": "483"}, {"groupId": "FG001", "numSubjects": "477"}]}, {"type": "Reason not Specified", "reasons": [{"groupId": "FG000", "numSubjects": "3"}, {"groupId": "FG001", "numSubjects": "6"}]}]}]}, "baselineCharacteristicsModule": {"populationDescription": "Intent-to-treat (ITT) population included all randomized participants.", "groups": [{"id": "BG000", "title": "Sotagliflozin", "description": "Sotagliflozin 200 mg tablet once daily, with possible up-titration in the first 8 months to 400 mg, for up to 21.2 months."}, {"id": "BG001", "title": "Placebo", "description": "Matching placebo to sotagliflozin 200 mg once daily, with possible up-titration in the first 8 months to matching placebo to sotagliflozin 400 mg, for up to 21.6 months."}, {"id": "BG002", "title": "Total", "description": "Total of all reporting groups"}], "denoms": [{"units": "Participants", "counts": [{"groupId": "BG000", "value": "608"}, {"groupId": "BG001", "value": "614"}, {"groupId": "BG002", "value": "1222"}]}], "measures": [{"title": "Age, Continuous", "paramType": "MEAN", "dispersionType": "STANDARD_DEVIATION", "unitOfMeasure": "years", "classes": [{"categories": [{"measurements": [{"groupId": "BG000", "value": "68.6", "spread": "9.5"}, {"groupId": "BG001", "value": "69.3", "spread": "8.8"}, {"groupId": "BG002", "value": "68.9", "spread": "9.1"}]}]}]}, {"title": "Sex: Female, Male", "paramType": "COUNT_OF_PARTICIPANTS", "unitOfMeasure": "Participants", "classes": [{"categories": [{"title": "Female", "measurements": [{"groupId": "BG000", "value": "198"}, {"groupId": "BG001", "value": "214"}, {"groupId": "BG002", "value": "412"}]}, {"title": "Male", "measurements": [{"groupId": "BG000", "value": "410"}, {"groupId": "BG001", "value": "400"}, {"groupId": "BG002", "value": "810"}]}]}]}, {"title": "Ethnicity (NIH/OMB)", "paramType": "COUNT_OF_PARTICIPANTS", "unitOfMeasure": "Participants", "classes": [{"categories": [{"title": "Hispanic or Latino", "measurements": [{"groupId": "BG000", "value": "163"}, {"groupId": "BG001", "value": "157"}, {"groupId": "BG002", "value": "320"}]}, {"title": "Not Hispanic or Latino", "measurements": [{"groupId": "BG000", "value": "438"}, {"groupId": "BG001", "value": "455"}, {"groupId": "BG002", "value": "893"}]}, {"title": "Unknown or Not Reported", "measurements": [{"groupId": "BG000", "value": "7"}, {"groupId": "BG001", "value": "2"}, {"groupId": "BG002", "value": "9"}]}]}]}, {"title": "Race (NIH/OMB)", "paramType": "COUNT_OF_PARTICIPANTS", "unitOfMeasure": "Participants", "classes": [{"categories": [{"title": "American Indian or Alaska Native", "measurements": [{"groupId": "BG000", "value": "0"}, {"groupId": "BG001", "value": "0"}, {"groupId": "BG002", "value": "0"}]}, {"title": "Asian", "measurements": [{"groupId": "BG000", "value": "8"}, {"groupId": "BG001", "value": "7"}, {"groupId": "BG002", "value": "15"}]}, {"title": "Native Hawaiian or Other Pacific Islander", "measurements": [{"groupId": "BG000", "value": "1"}, {"groupId": "BG001", "value": "3"}, {"groupId": "BG002", "value": "4"}]}, {"title": "Black or African American", "measurements": [{"groupId": "BG000", "value": "25"}, {"groupId": "BG001", "value": "25"}, {"groupId": "BG002", "value": "50"}]}, {"title": "White", "measurements": [{"groupId": "BG000", "value": "567"}, {"groupId": "BG001", "value": "572"}, {"groupId": "BG002", "value": "1139"}]}, {"title": "More than one race", "measurements": [{"groupId": "BG000", "value": "1"}, {"groupId": "BG001", "value": "1"}, {"groupId": "BG002", "value": "2"}]}, {"title": "Unknown or Not Reported", "measurements": [{"groupId": "BG000", "value": "6"}, {"groupId": "BG001", "value": "6"}, {"groupId": "BG002", "value": "12"}]}]}]}]}, "outcomeMeasuresModule": {"outcomeMeasures": [{"type": "PRIMARY", "title": "Number of Total Occurrences of Cardiovascular (CV) Death, Hospitalizations for Heart Failure (HHF) and Urgent Visits for Heart Failure (HF)", "description": "Combined endpoint of the total number of occurrences (first and potentially subsequent) of CV death, HHF, and urgent HF visits after randomization. Events that occurred during the study were calculated as the total number of events per 100 person-years of follow-up.", "populationDescription": "ITT population includes all randomized participants.", "reportingStatus": "POSTED", "paramType": "NUMBER", "unitOfMeasure": "events per 100-person years", "timeFrame": "Up to 21.9 months", "groups": [{"id": "OG000", "title": "Sotagliflozin", "description": "Sotagliflozin 200 mg tablet once daily, with possible up-titration in the first 8 months to 400 mg, for up to 21.2 months."}, {"id": "OG001", "title": "Placebo", "description": "Matching placebo to sotagliflozin 200 mg once daily, with possible up-titration in the first 8 months to matching placebo to sotagliflozin 400 mg, for up to 21.6 months."}], "denoms": [{"units": "Participants", "counts": [{"groupId": "OG000", "value": "608"}, {"groupId": "OG001", "value": "614"}]}], "classes": [{"categories": [{"measurements": [{"groupId": "OG000", "value": "51"}, {"groupId": "OG001", "value": "76.3"}]}]}], "analyses": [{"groupIds": ["OG000", "OG001"], "groupDescription": "The estimates of the hazard ratio (HR) and corresponding 2-sided 95% confidence interval (CI) was to be provided by a marginal Cox proportional hazard model stratified by region and ejection fraction, with non-cardiovascular (non-CV) death treated as a competing event.", "nonInferiorityType": "SUPERIORITY", "pValue": "< 0.001", "statisticalMethod": "Cox proportional hazards model", "paramType": "Hazard Ratio (HR)", "paramValue": "0.67", "ciPctValue": "95", "ciNumSides": "TWO_SIDED", "ciLowerLimit": "0.52", "ciUpperLimit": "0.85"}]}, {"type": "SECONDARY", "title": "Total Number of Occurrences of HHF and Urgent HF Visits", "description": "Combined endpoint of the total occurrences (first and potentially subsequent) of HHF and urgent HF visits after randomization. Events that occurred during the study were calculated as the total number of events per 100 person-years of follow-up.", "populationDescription": "ITT population includes all randomized participants.", "reportingStatus": "POSTED", "paramType": "NUMBER", "unitOfMeasure": "events per 100-person years", "timeFrame": "Up to 21.9 months", "groups": [{"id": "OG000", "title": "Sotagliflozin", "description": "Sotagliflozin 200 mg tablet once daily, with possible up-titration in the first 8 months to 400 mg, for up to 21.2 months."}, {"id": "OG001", "title": "Placebo", "description": "Matching placebo to sotagliflozin 200 mg once daily, with possible up-titration in the first 8 months to matching placebo to sotagliflozin 400 mg, for up to 21.6 months."}], "denoms": [{"units": "Participants", "counts": [{"groupId": "OG000", "value": "608"}, {"groupId": "OG001", "value": "614"}]}], "classes": [{"categories": [{"measurements": [{"groupId": "OG000", "value": "40.4"}, {"groupId": "OG001", "value": "63.9"}]}]}], "analyses": [{"groupIds": ["OG000", "OG001"], "groupDescription": "The estimates of the HR and corresponding 2-sided 95% CI was to be provided by a marginal Cox proportional hazard model stratified by region and ejection fraction, with non-CV death treated as a competing event.", "nonInferiorityType": "SUPERIORITY", "pValue": "< 0.001", "statisticalMethod": "Cox proportional hazards model", "paramType": "Hazard Ratio (HR)", "paramValue": "0.64", "ciPctValue": "95", "ciNumSides": "TWO_SIDED", "ciLowerLimit": "0.49", "ciUpperLimit": "0.83"}]}, {"type": "SECONDARY", "title": "Total Number of Deaths From Cardiovascular Causes", "description": "Number of events that occurred during the study were calculated as the total number of events per 100 person-years of follow-up.", "populationDescription": "ITT population includes all randomized participants.", "reportingStatus": "POSTED", "paramType": "NUMBER", "unitOfMeasure": "events per 100-person years", "timeFrame": "Up to 21.9 months", "groups": [{"id": "OG000", "title": "Sotagliflozin", "description": "Sotagliflozin 200 mg tablet once daily, with possible up-titration in the first 8 months to 400 mg, for up to 21.2 months."}, {"id": "OG001", "title": "Placebo", "description": "Matching placebo to sotagliflozin 200 mg once daily, with possible up-titration in the first 8 months to matching placebo to sotagliflozin 400 mg, for up to 21.6 months."}], "denoms": [{"units": "Participants", "counts": [{"groupId": "OG000", "value": "608"}, {"groupId": "OG001", "value": "614"}]}], "classes": [{"categories": [{"measurements": [{"groupId": "OG000", "value": "10.6"}, {"groupId": "OG001", "value": "12.5"}]}]}], "analyses": [{"groupIds": ["OG000", "OG001"], "groupDescription": "The estimates of the HR and corresponding 2-sided 95% CI was to be provided by a marginal Cox proportional hazard model stratified by region and ejection fraction, with non-CV death treated as a competing event.", "nonInferiorityType": "SUPERIORITY", "pValue": "= 0.36", "statisticalMethod": "Cox proportional hazards model", "paramType": "Hazard Ratio (HR)", "paramValue": "0.84", "ciPctValue": "95", "ciNumSides": "TWO_SIDED", "ciLowerLimit": "0.58", "ciUpperLimit": "1.22"}]}, {"type": "SECONDARY", "title": "Total Number of Occurrences of CV Death, HHF, Non-fatal Myocardial Infarction and Non-fatal Stroke", "description": "Combined endpoint of the total number of occurrences (first and potentially subsequent) of CV death, HHF, non-fatal stroke, and non-fatal myocardial infarction after randomisation. Events that occurred during the study were calculated as the total number of events per 100 person-years of follow-up.", "populationDescription": "ITT population includes all randomized participants.", "reportingStatus": "POSTED", "paramType": "NUMBER", "unitOfMeasure": "events per 100-person years", "timeFrame": "Up to 21.9 months", "groups": [{"id": "OG000", "title": "Sotagliflozin", "description": "Sotagliflozin 200 mg tablet once daily, with possible up-titration in the first 8 months to 400 mg, for up to 21.2 months."}, {"id": "OG001", "title": "Placebo", "description": "Matching placebo to sotagliflozin 200 mg once daily, with possible up-titration in the first 8 months to matching placebo to sotagliflozin 400 mg, for up to 21.6 months."}], "denoms": [{"units": "Participants", "counts": [{"groupId": "OG000", "value": "608"}, {"groupId": "OG001", "value": "614"}]}], "classes": [{"categories": [{"measurements": [{"groupId": "OG000", "value": "51.4"}, {"groupId": "OG001", "value": "71.0"}]}]}], "analyses": [{"groupIds": ["OG000", "OG001"], "groupDescription": "The estimates of the HR and corresponding 2-sided 95% CI was to be provided by a marginal Cox proportional hazard model stratified by region and ejection fraction, with non-CV death treated as a competing event.", "nonInferiorityType": "SUPERIORITY", "paramType": "Hazard Ratio (HR)", "paramValue": "0.72", "ciPctValue": "95", "ciNumSides": "TWO_SIDED", "ciLowerLimit": "0.56", "ciUpperLimit": "0.92"}]}, {"type": "SECONDARY", "title": "Total Number of Occurrences of HHF, Urgent HF Visit, CV Death, and HF While Hospitalized", "description": "Combined endpoint of the total number of occurrences (first and potentially subsequent) after randomisation of HHF, urgent HF visits, CV Death and HF while hospitalised. Events that occurred during the study were calculated as the total number of events per 100 person-years of follow-up.", "populationDescription": "ITT population includes all randomized participants.", "reportingStatus": "POSTED", "paramType": "NUMBER", "unitOfMeasure": "events per 100-person years", "timeFrame": "Up to 21.9 months", "groups": [{"id": "OG000", "title": "Sotagliflozin", "description": "Sotagliflozin 200 mg tablet once daily, with possible up-titration in the first 8 months to 400 mg, for up to 21.2 months."}, {"id": "OG001", "title": "Placebo", "description": "Matching placebo to sotagliflozin 200 mg once daily, with possible up-titration in the first 8 months to matching placebo to sotagliflozin 400 mg, for up to 21.6 months."}], "denoms": [{"units": "Participants", "counts": [{"groupId": "OG000", "value": "608"}, {"groupId": "OG001", "value": "614"}]}], "classes": [{"categories": [{"measurements": [{"groupId": "OG000", "value": "54.7"}, {"groupId": "OG001", "value": "80.6"}]}]}], "analyses": [{"groupIds": ["OG000", "OG001"], "groupDescription": "The estimates of the HR and corresponding 2-sided 95% CI was to be provided by a marginal Cox proportional hazard model stratified by region and ejection fraction, with non-CV death treated as a competing event.", "nonInferiorityType": "SUPERIORITY", "paramType": "Hazard Ratio (HR)", "paramValue": "0.68", "ciPctValue": "95", "ciNumSides": "TWO_SIDED", "ciLowerLimit": "0.54", "ciUpperLimit": "0.86"}]}, {"type": "SECONDARY", "title": "Total Number of Deaths From Any Cause", "description": "Number of events that occurred during the study were calculated as the total number of events per 100 person-years of follow-up.", "populationDescription": "ITT population includes all randomized participants.", "reportingStatus": "POSTED", "paramType": "NUMBER", "unitOfMeasure": "events per 100-person years", "timeFrame": "Up to 21.9 months", "groups": [{"id": "OG000", "title": "Sotagliflozin", "description": "Sotagliflozin 200 mg tablet once daily, with possible up-titration in the first 8 months to 400 mg, for up to 21.2 months."}, {"id": "OG001", "title": "Placebo", "description": "Matching placebo to sotagliflozin 200 mg once daily, with possible up-titration in the first 8 months to matching placebo to sotagliflozin 400 mg, for up to 21.6 months."}], "denoms": [{"units": "Participants", "counts": [{"groupId": "OG000", "value": "608"}, {"groupId": "OG001", "value": "614"}]}], "classes": [{"categories": [{"measurements": [{"groupId": "OG000", "value": "13.5"}, {"groupId": "OG001", "value": "16.3"}]}]}], "analyses": [{"groupIds": ["OG000", "OG001"], "groupDescription": "The estimates of the HR and corresponding 2-sided 95% CI was to be provided by a marginal Cox proportional hazard model stratified by region and ejection fraction.", "nonInferiorityType": "SUPERIORITY", "paramType": "Hazard Ratio (HR)", "paramValue": "0.82", "ciPctValue": "95", "ciNumSides": "TWO_SIDED", "ciLowerLimit": "0.59", "ciUpperLimit": "1.14"}]}, {"type": "SECONDARY", "title": "Change From Baseline in Kansas City Cardiomyopathy Questionnaire-12 (KCCQ-12) Scores at Month 4", "description": "KCCQ-12 is a 12 question questionnaire, participants completed questionnaire about how heart failure affected their life over the past 2 weeks. The scale has 4 domains: symptom frequency, physical limitation, social limitations and quality of life for a total possible transformed score of 0 to 100 where 100 denotes the highest health status. A positive change from baseline indicates improvement. An analysis of covariance (ANCOVA) model was used for analysis.", "populationDescription": "ITT population includes all randomized participants.", "reportingStatus": "POSTED", "paramType": "LEAST_SQUARES_MEAN", "dispersionType": "Standard Error", "unitOfMeasure": "score on a scale", "timeFrame": "Baseline to Month 4", "groups": [{"id": "OG000", "title": "Sotagliflozin", "description": "Sotagliflozin 200 mg tablet once daily, with possible up-titration in the first 8 months to 400 mg, for up to 21.2 months."}, {"id": "OG001", "title": "Placebo", "description": "Matching placebo to sotagliflozin 200 mg once daily, with possible up-titration in the first 8 months to matching placebo to sotagliflozin 400 mg, for up to 21.6 months."}], "denoms": [{"units": "Participants", "counts": [{"groupId": "OG000", "value": "608"}, {"groupId": "OG001", "value": "614"}]}], "classes": [{"categories": [{"measurements": [{"groupId": "OG000", "value": "17.7", "spread": "0.41"}, {"groupId": "OG001", "value": "13.6", "spread": "0.41"}]}]}], "analyses": [{"groupIds": ["OG000", "OG001"], "groupDescription": "The change from baseline to Month 4 was analyzed using an ANCOVA model with treatment groups as factor and baseline KCCQ-12 score and randomization stratification factors as covariates.", "nonInferiorityType": "SUPERIORITY", "paramType": "Hazard Ratio (HR)", "paramValue": "4.1", "ciPctValue": "95", "ciNumSides": "TWO_SIDED", "ciLowerLimit": "1.3", "ciUpperLimit": "7"}]}, {"type": "SECONDARY", "title": "Change From Baseline in Estimated Glomerular Filtration Rate (eGFR)", "description": "eGFR is a test for renal function. A blood sample was collected and was sent to a central laboratory. eGFR was calculated by the Modification of Diet in Renal Disease (MDRD) equation reported as milliliters/minute/1.73 meter squared (mL/min/1.73 m\\^2). A mixed model for repeated measures (MMRM) was used for analysis.", "populationDescription": "ITT population includes all randomized participants.", "reportingStatus": "POSTED", "paramType": "LEAST_SQUARES_MEAN", "dispersionType": "Standard Error", "unitOfMeasure": "mL/min/1.73 m^2", "timeFrame": "Baseline up to 21.9 months", "groups": [{"id": "OG000", "title": "Sotagliflozin", "description": "Sotagliflozin 200 mg tablet once daily, with possible up-titration in the first 8 months to 400 mg, for up to 21.2 months."}, {"id": "OG001", "title": "Placebo", "description": "Matching placebo to sotagliflozin 200 mg once daily, with possible up-titration in the first 8 months to matching placebo to sotagliflozin 400 mg, for up to 21.6 months."}], "denoms": [{"units": "Participants", "counts": [{"groupId": "OG000", "value": "608"}, {"groupId": "OG001", "value": "614"}]}], "classes": [{"categories": [{"measurements": [{"groupId": "OG000", "value": "-0.34", "spread": "1.33"}, {"groupId": "OG001", "value": "-0.18", "spread": "1.33"}]}]}], "analyses": [{"groupIds": ["OG000", "OG001"], "groupDescription": "Rate of decline in eGFR observed over time was analyzed by MMRM with absolute change in eGFR from baseline as the outcome, a random effect for intercept, and fixed effects for treatment, baseline value, and time.", "nonInferiorityType": "SUPERIORITY", "paramType": "Difference in Least Squares Means", "paramValue": "-0.16", "ciPctValue": "95", "ciNumSides": "TWO_SIDED", "ciLowerLimit": "-1.3", "ciUpperLimit": "0.98"}]}]}, "adverseEventsModule": {"frequencyThreshold": "5", "timeFrame": "First dose of study drug up to 10 days after the last dose of study drug (Up to 21.9 months)", "description": "Number of Deaths (All causes) is based on all randomized participants (n=608,614). Adverse Events are based on the Safety population that included all randomized participants who received at least one dose of study drug (n=605,611).", "eventGroups": [{"id": "EG000", "title": "Sotagliflozin", "description": "Sotagliflozin 200 mg tablet once daily, with possible up-titration in the first 8 months to 400 mg, for up to 21.2 months.", "deathsNumAffected": 65, "deathsNumAtRisk": 608, "seriousNumAffected": 235, "seriousNumAtRisk": 605, "otherNumAffected": 101, "otherNumAtRisk": 605}, {"id": "EG001", "title": "Placebo", "description": "Matching placebo to sotagliflozin 200 mg once daily, with possible up-titration in the first 8 months to matching placebo to sotagliflozin 400 mg, for up to 21.6 months.", "deathsNumAffected": 76, "deathsNumAtRisk": 614, "seriousNumAffected": 251, "seriousNumAtRisk": 611, "otherNumAffected": 90, "otherNumAtRisk": 611}], "seriousEvents": [{"term": "Aortic rupture", "organSystem": "Vascular disorders", "sourceVocabulary": "23.0", "assessmentType": "SYSTEMATIC_ASSESSMENT", "stats": [{"groupId": "EG000", "numAffected": 0, "numAtRisk": 605}, {"groupId": "EG001", "numAffected": 1, "numAtRisk": 611}]}, {"term": "Arteriosclerosis", "organSystem": "Vascular disorders", "sourceVocabulary": "23.0", "assessmentType": "SYSTEMATIC_ASSESSMENT", "stats": [{"groupId": "EG000", "numAffected": 1, "numAtRisk": 605}, {"groupId": "EG001", "numAffected": 0, "numAtRisk": 611}]}, {"term": "Circulatory collapse", "organSystem": "Vascular disorders", "sourceVocabulary": "23.0", "assessmentType": "SYSTEMATIC_ASSESSMENT", "stats": [{"groupId": "EG000", "numAffected": 1, "numAtRisk": 605}, {"groupId": "EG001", "numAffected": 0, "numAtRisk": 611}]}, {"term": "Deep vein thrombosis", "organSystem": "Vascular disorders", "sourceVocabulary": "23.0", "assessmentType": "SYSTEMATIC_ASSESSMENT", "stats": [{"groupId": "EG000", "numAffected": 0, "numAtRisk": 605}, {"groupId": "EG001", "numAffected": 1, "numAtRisk": 611}]}, {"term": "Hypertension", "organSystem": "Vascular disorders", "sourceVocabulary": "23.0", "assessmentType": "SYSTEMATIC_ASSESSMENT", "stats": [{"groupId": "EG000", "numAffected": 0, "numAtRisk": 605}, {"groupId": "EG001", "numAffected": 2, "numAtRisk": 611}]}, {"term": "Hypertensive crisis", "organSystem": "Vascular disorders", "sourceVocabulary": "23.0", "assessmentType": "SYSTEMATIC_ASSESSMENT", "stats": [{"groupId": "EG000", "numAffected": 0, "numAtRisk": 605}, {"groupId": "EG001", "numAffected": 2, "numAtRisk": 611}]}, {"term": "Hypotension", "organSystem": "Vascular disorders", "sourceVocabulary": "23.0", "assessmentType": "SYSTEMATIC_ASSESSMENT", "stats": [{"groupId": "EG000", "numAffected": 6, "numAtRisk": 605}, {"groupId": "EG001", "numAffected": 1, "numAtRisk": 611}]}, {"term": "Hypovolaemic shock", "organSystem": "Vascular disorders", "sourceVocabulary": "23.0", "assessmentType": "SYSTEMATIC_ASSESSMENT", "stats": [{"groupId": "EG000", "numAffected": 0, "numAtRisk": 605}, {"groupId": "EG001", "numAffected": 1, "numAtRisk": 611}]}, {"term": "Orthostatic hypotension", "organSystem": "Vascular disorders", "sourceVocabulary": "23.0", "assessmentType": "SYSTEMATIC_ASSESSMENT", "stats": [{"groupId": "EG000", "numAffected": 0, "numAtRisk": 605}, {"groupId": "EG001", "numAffected": 1, "numAtRisk": 611}]}, {"term": "Peripheral arterial occlusive disease", "organSystem": "Vascular disorders", "sourceVocabulary": "23.0", "assessmentType": "SYSTEMATIC_ASSESSMENT", "stats": [{"groupId": "EG000", "numAffected": 1, "numAtRisk": 605}, {"groupId": "EG001", "numAffected": 5, "numAtRisk": 611}]}, {"term": "Peripheral artery occlusion", "organSystem": "Vascular disorders", "sourceVocabulary": "23.0", "assessmentType": "SYSTEMATIC_ASSESSMENT", "stats": [{"groupId": "EG000", "numAffected": 1, "numAtRisk": 605}, {"groupId": "EG001", "numAffected": 0, "numAtRisk": 611}]}, {"term": "Peripheral artery thrombosis", "organSystem": "Vascular disorders", "sourceVocabulary": "23.0", "assessmentType": "SYSTEMATIC_ASSESSMENT", "stats": [{"groupId": "EG000", "numAffected": 1, "numAtRisk": 605}, {"groupId": "EG001", "numAffected": 1, "numAtRisk": 611}]}, {"term": "Peripheral ischaemia", "organSystem": "Vascular disorders", "sourceVocabulary": "23.0", "assessmentType": "SYSTEMATIC_ASSESSMENT", "stats": [{"groupId": "EG000", "numAffected": 2, "numAtRisk": 605}, {"groupId": "EG001", "numAffected": 0, "numAtRisk": 611}]}, {"term": "Shock haemorrhagic", "organSystem": "Vascular disorders", "sourceVocabulary": "23.0", "assessmentType": "SYSTEMATIC_ASSESSMENT", "stats": [{"groupId": "EG000", "numAffected": 0, "numAtRisk": 605}, {"groupId": "EG001", "numAffected": 1, "numAtRisk": 611}]}, {"term": "Aortic valve replacement", "organSystem": "Surgical and medical procedures", "sourceVocabulary": "23.0", "assessmentType": "SYSTEMATIC_ASSESSMENT", "stats": [{"groupId": "EG000", "numAffected": 0, "numAtRisk": 605}, {"groupId": "EG001", "numAffected": 1, "numAtRisk": 611}]}, {"term": "Cardiac pacemaker insertion", "organSystem": "Surgical and medical procedures", "sourceVocabulary": "23.0", "assessmentType": "SYSTEMATIC_ASSESSMENT", "stats": [{"groupId": "EG000", "numAffected": 1, "numAtRisk": 605}, {"groupId": "EG001", "numAffected": 0, "numAtRisk": 611}]}, {"term": "Cardiac rehabilitation therapy", "organSystem": "Surgical and medical procedures", "sourceVocabulary": "23.0", "assessmentType": "SYSTEMATIC_ASSESSMENT", "stats": [{"groupId": "EG000", "numAffected": 1, "numAtRisk": 605}, {"groupId": "EG001", "numAffected": 1, "numAtRisk": 611}]}, {"term": "Cardiac resynchronisation therapy", "organSystem": "Surgical and medical procedures", "sourceVocabulary": "23.0", "assessmentType": "SYSTEMATIC_ASSESSMENT", "stats": [{"groupId": "EG000", "numAffected": 1, "numAtRisk": 605}, {"groupId": "EG001", "numAffected": 0, "numAtRisk": 611}]}, {"term": "Percutaneous coronary intervention", "organSystem": "Surgical and medical procedures", "sourceVocabulary": "23.0", "assessmentType": "SYSTEMATIC_ASSESSMENT", "stats": [{"groupId": "EG000", "numAffected": 0, "numAtRisk": 605}, {"groupId": "EG001", "numAffected": 1, "numAtRisk": 611}]}, {"term": "Therapeutic procedure", "organSystem": "Surgical and medical procedures", "sourceVocabulary": "23.0", "assessmentType": "SYSTEMATIC_ASSESSMENT", "stats": [{"groupId": "EG000", "numAffected": 1, "numAtRisk": 605}, {"groupId": "EG001", "numAffected": 0, "numAtRisk": 611}]}, {"term": "Breast cancer", "organSystem": "Neoplasms benign, malignant and unspecified (incl cysts and polyps)", "sourceVocabulary": "23.0", "assessmentType": "SYSTEMATIC_ASSESSMENT", "stats": [{"groupId": "EG000", "numAffected": 1, "numAtRisk": 605}, {"groupId": "EG001", "numAffected": 1, "numAtRisk": 611}]}, {"term": "Colon adenoma", "organSystem": "Neoplasms benign, malignant and unspecified (incl cysts and polyps)", "sourceVocabulary": "23.0", "assessmentType": "SYSTEMATIC_ASSESSMENT", "stats": [{"groupId": "EG000", "numAffected": 1, "numAtRisk": 605}, {"groupId": "EG001", "numAffected": 0, "numAtRisk": 611}]}, {"term": "Colon cancer", "organSystem": "Neoplasms benign, malignant and unspecified (incl cysts and polyps)", "sourceVocabulary": "23.0", "assessmentType": "SYSTEMATIC_ASSESSMENT", "stats": [{"groupId": "EG000", "numAffected": 1, "numAtRisk": 605}, {"groupId": "EG001", "numAffected": 0, "numAtRisk": 611}]}, {"term": "Kaposi's sarcoma", "organSystem": "Neoplasms benign, malignant and unspecified (incl cysts and polyps)", "sourceVocabulary": "23.0", "assessmentType": "SYSTEMATIC_ASSESSMENT", "stats": [{"groupId": "EG000", "numAffected": 0, "numAtRisk": 605}, {"groupId": "EG001", "numAffected": 1, "numAtRisk": 611}]}, {"term": "Lung adenocarcinoma", "organSystem": "Neoplasms benign, malignant and unspecified (incl cysts and polyps)", "sourceVocabulary": "23.0", "assessmentType": "SYSTEMATIC_ASSESSMENT", "stats": [{"groupId": "EG000", "numAffected": 0, "numAtRisk": 605}, {"groupId": "EG001", "numAffected": 1, "numAtRisk": 611}]}, {"term": "Lung neoplasm", "organSystem": "Neoplasms benign, malignant and unspecified (incl cysts and polyps)", "sourceVocabulary": "23.0", "assessmentType": "SYSTEMATIC_ASSESSMENT", "stats": [{"groupId": "EG000", "numAffected": 1, "numAtRisk": 605}, {"groupId": "EG001", "numAffected": 1, "numAtRisk": 611}]}, {"term": "Pancreatic carcinoma", "organSystem": "Neoplasms benign, malignant and unspecified (incl cysts and polyps)", "sourceVocabulary": "23.0", "assessmentType": "SYSTEMATIC_ASSESSMENT", "stats": [{"groupId": "EG000", "numAffected": 0, "numAtRisk": 605}, {"groupId": "EG001", "numAffected": 1, "numAtRisk": 611}]}, {"term": "Papillary renal cell carcinoma", "organSystem": "Neoplasms benign, malignant and unspecified (incl cysts and polyps)", "sourceVocabulary": "23.0", "assessmentType": "SYSTEMATIC_ASSESSMENT", "stats": [{"groupId": "EG000", "numAffected": 0, "numAtRisk": 605}, {"groupId": "EG001", "numAffected": 1, "numAtRisk": 611}]}, {"term": "Prostate cancer", "organSystem": "Neoplasms benign, malignant and unspecified (incl cysts and polyps)", "sourceVocabulary": "23.0", "assessmentType": "SYSTEMATIC_ASSESSMENT", "stats": [{"groupId": "EG000", "numAffected": 2, "numAtRisk": 605}, {"groupId": "EG001", "numAffected": 0, "numAtRisk": 611}]}, {"term": "Asthenia", "organSystem": "General disorders", "sourceVocabulary": "23.0", "assessmentType": "SYSTEMATIC_ASSESSMENT", "stats": [{"groupId": "EG000", "numAffected": 0, "numAtRisk": 605}, {"groupId": "EG001", "numAffected": 1, "numAtRisk": 611}]}, {"term": "Cardiac death", "organSystem": "General disorders", "sourceVocabulary": "23.0", "assessmentType": "SYSTEMATIC_ASSESSMENT", "stats": [{"groupId": "EG000", "numAffected": 0, "numAtRisk": 605}, {"groupId": "EG001", "numAffected": 1, "numAtRisk": 611}]}, {"term": "Chest pain", "organSystem": "General disorders", "sourceVocabulary": "23.0", "assessmentType": "SYSTEMATIC_ASSESSMENT", "stats": [{"groupId": "EG000", "numAffected": 3, "numAtRisk": 605}, {"groupId": "EG001", "numAffected": 0, "numAtRisk": 611}]}, {"term": "Death", "organSystem": "General disorders", "sourceVocabulary": "23.0", "assessmentType": "SYSTEMATIC_ASSESSMENT", "stats": [{"groupId": "EG000", "numAffected": 2, "numAtRisk": 605}, {"groupId": "EG001", "numAffected": 4, "numAtRisk": 611}]}, {"term": "Fatigue", "organSystem": "General disorders", "sourceVocabulary": "23.0", "assessmentType": "SYSTEMATIC_ASSESSMENT", "stats": [{"groupId": "EG000", "numAffected": 1, "numAtRisk": 605}, {"groupId": "EG001", "numAffected": 0, "numAtRisk": 611}]}, {"term": "Generalised oedema", "organSystem": "General disorders", "sourceVocabulary": "23.0", "assessmentType": "SYSTEMATIC_ASSESSMENT", "stats": [{"groupId": "EG000", "numAffected": 1, "numAtRisk": 605}, {"groupId": "EG001", "numAffected": 0, "numAtRisk": 611}]}, {"term": "Multiple organ dysfunction syndrome", "organSystem": "General disorders", "sourceVocabulary": "23.0", "assessmentType": "SYSTEMATIC_ASSESSMENT", "stats": [{"groupId": "EG000", "numAffected": 1, "numAtRisk": 605}, {"groupId": "EG001", "numAffected": 1, "numAtRisk": 611}]}, {"term": "Nodule", "organSystem": "General disorders", "sourceVocabulary": "23.0", "assessmentType": "SYSTEMATIC_ASSESSMENT", "stats": [{"groupId": "EG000", "numAffected": 0, "numAtRisk": 605}, {"groupId": "EG001", "numAffected": 1, "numAtRisk": 611}]}, {"term": "Non-cardiac chest pain", "organSystem": "General disorders", "sourceVocabulary": "23.0", "assessmentType": "SYSTEMATIC_ASSESSMENT", "stats": [{"groupId": "EG000", "numAffected": 1, "numAtRisk": 605}, {"groupId": "EG001", "numAffected": 3, "numAtRisk": 611}]}, {"term": "Oedema peripheral", "organSystem": "General disorders", "sourceVocabulary": "23.0", "assessmentType": "SYSTEMATIC_ASSESSMENT", "stats": [{"groupId": "EG000", "numAffected": 0, "numAtRisk": 605}, {"groupId": "EG001", "numAffected": 2, "numAtRisk": 611}]}, {"term": "Pyrexia", "organSystem": "General disorders", "sourceVocabulary": "23.0", "assessmentType": "SYSTEMATIC_ASSESSMENT", "stats": [{"groupId": "EG000", "numAffected": 0, "numAtRisk": 605}, {"groupId": "EG001", "numAffected": 3, "numAtRisk": 611}]}, {"term": "Sudden cardiac death", "organSystem": "General disorders", "sourceVocabulary": "23.0", "assessmentType": "SYSTEMATIC_ASSESSMENT", "stats": [{"groupId": "EG000", "numAffected": 7, "numAtRisk": 605}, {"groupId": "EG001", "numAffected": 9, "numAtRisk": 611}]}, {"term": "Sudden death", "organSystem": "General disorders", "sourceVocabulary": "23.0", "assessmentType": "SYSTEMATIC_ASSESSMENT", "stats": [{"groupId": "EG000", "numAffected": 2, "numAtRisk": 605}, {"groupId": "EG001", "numAffected": 2, "numAtRisk": 611}]}, {"term": "Vascular stent thrombosis", "organSystem": "General disorders", "sourceVocabulary": "23.0", "assessmentType": "SYSTEMATIC_ASSESSMENT", "stats": [{"groupId": "EG000", "numAffected": 0, "numAtRisk": 605}, {"groupId": "EG001", "numAffected": 1, "numAtRisk": 611}]}, {"term": "Acute psychosis", "organSystem": "Psychiatric disorders", "sourceVocabulary": "23.0", "assessmentType": "SYSTEMATIC_ASSESSMENT", "stats": [{"groupId": "EG000", "numAffected": 1, "numAtRisk": 605}, {"groupId": "EG001", "numAffected": 0, "numAtRisk": 611}]}, {"term": "Anxiety", "organSystem": "Psychiatric disorders", "sourceVocabulary": "23.0", "assessmentType": "SYSTEMATIC_ASSESSMENT", "stats": [{"groupId": "EG000", "numAffected": 1, "numAtRisk": 605}, {"groupId": "EG001", "numAffected": 0, "numAtRisk": 611}]}, {"term": "Depression", "organSystem": "Psychiatric disorders", "sourceVocabulary": "23.0", "assessmentType": "SYSTEMATIC_ASSESSMENT", "stats": [{"groupId": "EG000", "numAffected": 0, "numAtRisk": 605}, {"groupId": "EG001", "numAffected": 3, "numAtRisk": 611}]}, {"term": "Drug abuse", "organSystem": "Psychiatric disorders", "sourceVocabulary": "23.0", "assessmentType": "SYSTEMATIC_ASSESSMENT", "stats": [{"groupId": "EG000", "numAffected": 1, "numAtRisk": 605}, {"groupId": "EG001", "numAffected": 0, "numAtRisk": 611}]}, {"term": "Psychotic disorder", "organSystem": "Psychiatric disorders", "sourceVocabulary": "23.0", "assessmentType": "SYSTEMATIC_ASSESSMENT", "stats": [{"groupId": "EG000", "numAffected": 1, "numAtRisk": 605}, {"groupId": "EG001", "numAffected": 0, "numAtRisk": 611}]}, {"term": "Suicidal ideation", "organSystem": "Psychiatric disorders", "sourceVocabulary": "23.0", "assessmentType": "SYSTEMATIC_ASSESSMENT", "stats": [{"groupId": "EG000", "numAffected": 1, "numAtRisk": 605}, {"groupId": "EG001", "numAffected": 0, "numAtRisk": 611}]}, {"term": "Cardiac valve replacement complication", "organSystem": "Injury, poisoning and procedural complications", "sourceVocabulary": "23.0", "assessmentType": "SYSTEMATIC_ASSESSMENT", "stats": [{"groupId": "EG000", "numAffected": 0, "numAtRisk": 605}, {"groupId": "EG001", "numAffected": 2, "numAtRisk": 611}]}, {"term": "Concussion", "organSystem": "Injury, poisoning and procedural complications", "sourceVocabulary": "23.0", "assessmentType": "SYSTEMATIC_ASSESSMENT", "stats": [{"groupId": "EG000", "numAffected": 0, "numAtRisk": 605}, {"groupId": "EG001", "numAffected": 1, "numAtRisk": 611}]}, {"term": "Craniocerebral injury", "organSystem": "Injury, poisoning and procedural complications", "sourceVocabulary": "23.0", "assessmentType": "SYSTEMATIC_ASSESSMENT", "stats": [{"groupId": "EG000", "numAffected": 2, "numAtRisk": 605}, {"groupId": "EG001", "numAffected": 0, "numAtRisk": 611}]}, {"term": "Fall", "organSystem": "Injury, poisoning and procedural complications", "sourceVocabulary": "23.0", "assessmentType": "SYSTEMATIC_ASSESSMENT", "stats": [{"groupId": "EG000", "numAffected": 4, "numAtRisk": 605}, {"groupId": "EG001", "numAffected": 1, "numAtRisk": 611}]}, {"term": "Femoral neck fracture", "organSystem": "Injury, poisoning and procedural complications", "sourceVocabulary": "23.0", "assessmentType": "SYSTEMATIC_ASSESSMENT", "stats": [{"groupId": "EG000", "numAffected": 1, "numAtRisk": 605}, {"groupId": "EG001", "numAffected": 0, "numAtRisk": 611}]}, {"term": "Femur fracture", "organSystem": "Injury, poisoning and procedural complications", "sourceVocabulary": "23.0", "assessmentType": "SYSTEMATIC_ASSESSMENT", "stats": [{"groupId": "EG000", "numAffected": 1, "numAtRisk": 605}, {"groupId": "EG001", "numAffected": 1, "numAtRisk": 611}]}, {"term": "Foot fracture", "organSystem": "Injury, poisoning and procedural complications", "sourceVocabulary": "23.0", "assessmentType": "SYSTEMATIC_ASSESSMENT", "stats": [{"groupId": "EG000", "numAffected": 1, "numAtRisk": 605}, {"groupId": "EG001", "numAffected": 0, "numAtRisk": 611}]}, {"term": "Foreign body in gastrointestinal tract", "organSystem": "Injury, poisoning and procedural complications", "sourceVocabulary": "23.0", "assessmentType": "SYSTEMATIC_ASSESSMENT", "stats": [{"groupId": "EG000", "numAffected": 1, "numAtRisk": 605}, {"groupId": "EG001", "numAffected": 0, "numAtRisk": 611}]}, {"term": "Hand fracture", "organSystem": "Injury, poisoning and procedural complications", "sourceVocabulary": "23.0", "assessmentType": "SYSTEMATIC_ASSESSMENT", "stats": [{"groupId": "EG000", "numAffected": 0, "numAtRisk": 605}, {"groupId": "EG001", "numAffected": 1, "numAtRisk": 611}]}, {"term": "Hip fracture", "organSystem": "Injury, poisoning and procedural complications", "sourceVocabulary": "23.0", "assessmentType": "SYSTEMATIC_ASSESSMENT", "stats": [{"groupId": "EG000", "numAffected": 1, "numAtRisk": 605}, {"groupId": "EG001", "numAffected": 1, "numAtRisk": 611}]}, {"term": "Humerus fracture", "organSystem": "Injury, poisoning and procedural complications", "sourceVocabulary": "23.0", "assessmentType": "SYSTEMATIC_ASSESSMENT", "stats": [{"groupId": "EG000", "numAffected": 1, "numAtRisk": 605}, {"groupId": "EG001", "numAffected": 1, "numAtRisk": 611}]}, {"term": "Intentional overdose", "organSystem": "Injury, poisoning and procedural complications", "sourceVocabulary": "23.0", "assessmentType": "SYSTEMATIC_ASSESSMENT", "stats": [{"groupId": "EG000", "numAffected": 0, "numAtRisk": 605}, {"groupId": "EG001", "numAffected": 1, "numAtRisk": 611}]}, {"term": "Lower limb fracture", "organSystem": "Injury, poisoning and procedural complications", "sourceVocabulary": "23.0", "assessmentType": "SYSTEMATIC_ASSESSMENT", "stats": [{"groupId": "EG000", "numAffected": 1, "numAtRisk": 605}, {"groupId": "EG001", "numAffected": 0, "numAtRisk": 611}]}, {"term": "Pelvic fracture", "organSystem": "Injury, poisoning and procedural complications", "sourceVocabulary": "23.0", "assessmentType": "SYSTEMATIC_ASSESSMENT", "stats": [{"groupId": "EG000", "numAffected": 1, "numAtRisk": 605}, {"groupId": "EG001", "numAffected": 0, "numAtRisk": 611}]}, {"term": "Periprosthetic fracture", "organSystem": "Injury, poisoning and procedural complications", "sourceVocabulary": "23.0", "assessmentType": "SYSTEMATIC_ASSESSMENT", "stats": [{"groupId": "EG000", "numAffected": 0, "numAtRisk": 605}, {"groupId": "EG001", "numAffected": 1, "numAtRisk": 611}]}, {"term": "Post procedural haemorrhage", "organSystem": "Injury, poisoning and procedural complications", "sourceVocabulary": "23.0", "assessmentType": "SYSTEMATIC_ASSESSMENT", "stats": [{"groupId": "EG000", "numAffected": 1, "numAtRisk": 605}, {"groupId": "EG001", "numAffected": 0, "numAtRisk": 611}]}, {"term": "Rib fracture", "organSystem": "Injury, poisoning and procedural complications", "sourceVocabulary": "23.0", "assessmentType": "SYSTEMATIC_ASSESSMENT", "stats": [{"groupId": "EG000", "numAffected": 1, "numAtRisk": 605}, {"groupId": "EG001", "numAffected": 1, "numAtRisk": 611}]}, {"term": "Subdural haemorrhage", "organSystem": "Injury, poisoning and procedural complications", "sourceVocabulary": "23.0", "assessmentType": "SYSTEMATIC_ASSESSMENT", "stats": [{"groupId": "EG000", "numAffected": 0, "numAtRisk": 605}, {"groupId": "EG001", "numAffected": 1, "numAtRisk": 611}]}, {"term": "Tendon rupture", "organSystem": "Injury, poisoning and procedural complications", "sourceVocabulary": "23.0", "assessmentType": "SYSTEMATIC_ASSESSMENT", "stats": [{"groupId": "EG000", "numAffected": 0, "numAtRisk": 605}, {"groupId": "EG001", "numAffected": 1, "numAtRisk": 611}]}, {"term": "Toxicity to various agents", "organSystem": "Injury, poisoning and procedural complications", "sourceVocabulary": "23.0", "assessmentType": "SYSTEMATIC_ASSESSMENT", "stats": [{"groupId": "EG000", "numAffected": 0, "numAtRisk": 605}, {"groupId": "EG001", "numAffected": 1, "numAtRisk": 611}]}, {"term": "Ulna fracture", "organSystem": "Injury, poisoning and procedural complications", "sourceVocabulary": "23.0", "assessmentType": "SYSTEMATIC_ASSESSMENT", "stats": [{"groupId": "EG000", "numAffected": 1, "numAtRisk": 605}, {"groupId": "EG001", "numAffected": 0, "numAtRisk": 611}]}, {"term": "Alanine aminotransferase increased", "organSystem": "Investigations", "sourceVocabulary": "23.0", "assessmentType": "SYSTEMATIC_ASSESSMENT", "stats": [{"groupId": "EG000", "numAffected": 2, "numAtRisk": 605}, {"groupId": "EG001", "numAffected": 0, "numAtRisk": 611}]}, {"term": "Biopsy prostate", "organSystem": "Investigations", "sourceVocabulary": "23.0", "assessmentType": "SYSTEMATIC_ASSESSMENT", "stats": [{"groupId": "EG000", "numAffected": 1, "numAtRisk": 605}, {"groupId": "EG001", "numAffected": 0, "numAtRisk": 611}]}, {"term": "Blood glucose increased", "organSystem": "Investigations", "sourceVocabulary": "23.0", "assessmentType": "SYSTEMATIC_ASSESSMENT", "stats": [{"groupId": "EG000", "numAffected": 1, "numAtRisk": 605}, {"groupId": "EG001", "numAffected": 0, "numAtRisk": 611}]}, {"term": "Catheterisation cardiac", "organSystem": "Investigations", "sourceVocabulary": "23.0", "assessmentType": "SYSTEMATIC_ASSESSMENT", "stats": [{"groupId": "EG000", "numAffected": 1, "numAtRisk": 605}, {"groupId": "EG001", "numAffected": 0, "numAtRisk": 611}]}, {"term": "Ejection fraction decreased", "organSystem": "Investigations", "sourceVocabulary": "23.0", "assessmentType": "SYSTEMATIC_ASSESSMENT", "stats": [{"groupId": "EG000", "numAffected": 1, "numAtRisk": 605}, {"groupId": "EG001", "numAffected": 0, "numAtRisk": 611}]}, {"term": "Electrocardiogram QT prolonged", "organSystem": "Investigations", "sourceVocabulary": "23.0", "assessmentType": "SYSTEMATIC_ASSESSMENT", "stats": [{"groupId": "EG000", "numAffected": 1, "numAtRisk": 605}, {"groupId": "EG001", "numAffected": 0, "numAtRisk": 611}]}, {"term": "Liver function test increased", "organSystem": "Investigations", "sourceVocabulary": "23.0", "assessmentType": "SYSTEMATIC_ASSESSMENT", "stats": [{"groupId": "EG000", "numAffected": 0, "numAtRisk": 605}, {"groupId": "EG001", "numAffected": 1, "numAtRisk": 611}]}, {"term": "SARS-CoV-2 test positive", "organSystem": "Investigations", "sourceVocabulary": "23.0", "assessmentType": "SYSTEMATIC_ASSESSMENT", "stats": [{"groupId": "EG000", "numAffected": 1, "numAtRisk": 605}, {"groupId": "EG001", "numAffected": 0, "numAtRisk": 611}]}, {"term": "Transaminases increased", "organSystem": "Investigations", "sourceVocabulary": "23.0", "assessmentType": "SYSTEMATIC_ASSESSMENT", "stats": [{"groupId": "EG000", "numAffected": 0, "numAtRisk": 605}, {"groupId": "EG001", "numAffected": 1, "numAtRisk": 611}]}, {"term": "Transplant evaluation", "organSystem": "Investigations", "sourceVocabulary": "23.0", "assessmentType": "SYSTEMATIC_ASSESSMENT", "stats": [{"groupId": "EG000", "numAffected": 1, "numAtRisk": 605}, {"groupId": "EG001", "numAffected": 1, "numAtRisk": 611}]}, {"term": "Acute coronary syndrome", "organSystem": "Cardiac disorders", "sourceVocabulary": "23.0", "assessmentType": "SYSTEMATIC_ASSESSMENT", "stats": [{"groupId": "EG000", "numAffected": 0, "numAtRisk": 605}, {"groupId": "EG001", "numAffected": 1, "numAtRisk": 611}]}, {"term": "Acute left ventricular failure", "organSystem": "Cardiac disorders", "sourceVocabulary": "23.0", "assessmentType": "SYSTEMATIC_ASSESSMENT", "stats": [{"groupId": "EG000", "numAffected": 2, "numAtRisk": 605}, {"groupId": "EG001", "numAffected": 2, "numAtRisk": 611}]}, {"term": "Acute myocardial infarction", "organSystem": "Cardiac disorders", "sourceVocabulary": "23.0", "assessmentType": "SYSTEMATIC_ASSESSMENT", "stats": [{"groupId": "EG000", "numAffected": 4, "numAtRisk": 605}, {"groupId": "EG001", "numAffected": 3, "numAtRisk": 611}]}, {"term": "Angina pectoris", "organSystem": "Cardiac disorders", "sourceVocabulary": "23.0", "assessmentType": "SYSTEMATIC_ASSESSMENT", "stats": [{"groupId": "EG000", "numAffected": 4, "numAtRisk": 605}, {"groupId": "EG001", "numAffected": 3, "numAtRisk": 611}]}, {"term": "Angina unstable", "organSystem": "Cardiac disorders", "sourceVocabulary": "23.0", "assessmentType": "SYSTEMATIC_ASSESSMENT", "stats": [{"groupId": "EG000", "numAffected": 8, "numAtRisk": 605}, {"groupId": "EG001", "numAffected": 1, "numAtRisk": 611}]}, {"term": "Aortic valve stenosis", "organSystem": "Cardiac disorders", "sourceVocabulary": "23.0", "assessmentType": "SYSTEMATIC_ASSESSMENT", "stats": [{"groupId": "EG000", "numAffected": 0, "numAtRisk": 605}, {"groupId": "EG001", "numAffected": 1, "numAtRisk": 611}]}, {"term": "Arrhythmia supraventricular", "organSystem": "Cardiac disorders", "sourceVocabulary": "23.0", "assessmentType": "SYSTEMATIC_ASSESSMENT", "stats": [{"groupId": "EG000", "numAffected": 1, "numAtRisk": 605}, {"groupId": "EG001", "numAffected": 0, "numAtRisk": 611}]}, {"term": "Arteriosclerosis coronary artery", "organSystem": "Cardiac disorders", "sourceVocabulary": "23.0", "assessmentType": "SYSTEMATIC_ASSESSMENT", "stats": [{"groupId": "EG000", "numAffected": 1, "numAtRisk": 605}, {"groupId": "EG001", "numAffected": 0, "numAtRisk": 611}]}, {"term": "Atrial fibrillation", "organSystem": "Cardiac disorders", "sourceVocabulary": "23.0", "assessmentType": "SYSTEMATIC_ASSESSMENT", "stats": [{"groupId": "EG000", "numAffected": 8, "numAtRisk": 605}, {"groupId": "EG001", "numAffected": 8, "numAtRisk": 611}]}, {"term": "Atrial flutter", "organSystem": "Cardiac disorders", "sourceVocabulary": "23.0", "assessmentType": "SYSTEMATIC_ASSESSMENT", "stats": [{"groupId": "EG000", "numAffected": 1, "numAtRisk": 605}, {"groupId": "EG001", "numAffected": 1, "numAtRisk": 611}]}, {"term": "Atrioventricular block", "organSystem": "Cardiac disorders", "sourceVocabulary": "23.0", "assessmentType": "SYSTEMATIC_ASSESSMENT", "stats": [{"groupId": "EG000", "numAffected": 1, "numAtRisk": 605}, {"groupId": "EG001", "numAffected": 1, "numAtRisk": 611}]}, {"term": "Atrioventricular block second degree", "organSystem": "Cardiac disorders", "sourceVocabulary": "23.0", "assessmentType": "SYSTEMATIC_ASSESSMENT", "stats": [{"groupId": "EG000", "numAffected": 1, "numAtRisk": 605}, {"groupId": "EG001", "numAffected": 0, "numAtRisk": 611}]}, {"term": "Bradyarrhythmia", "organSystem": "Cardiac disorders", "sourceVocabulary": "23.0", "assessmentType": "SYSTEMATIC_ASSESSMENT", "stats": [{"groupId": "EG000", "numAffected": 0, "numAtRisk": 605}, {"groupId": "EG001", "numAffected": 1, "numAtRisk": 611}]}, {"term": "Bradycardia", "organSystem": "Cardiac disorders", "sourceVocabulary": "23.0", "assessmentType": "SYSTEMATIC_ASSESSMENT", "stats": [{"groupId": "EG000", "numAffected": 0, "numAtRisk": 605}, {"groupId": "EG001", "numAffected": 1, "numAtRisk": 611}]}, {"term": "Bundle branch block left", "organSystem": "Cardiac disorders", "sourceVocabulary": "23.0", "assessmentType": "SYSTEMATIC_ASSESSMENT", "stats": [{"groupId": "EG000", "numAffected": 0, "numAtRisk": 605}, {"groupId": "EG001", "numAffected": 1, "numAtRisk": 611}]}, {"term": "Cardiac arrest", "organSystem": "Cardiac disorders", "sourceVocabulary": "23.0", "assessmentType": "SYSTEMATIC_ASSESSMENT", "stats": [{"groupId": "EG000", "numAffected": 1, "numAtRisk": 605}, {"groupId": "EG001", "numAffected": 0, "numAtRisk": 611}]}, {"term": "Cardiac failure", "organSystem": "Cardiac disorders", "sourceVocabulary": "23.0", "assessmentType": "SYSTEMATIC_ASSESSMENT", "stats": [{"groupId": "EG000", "numAffected": 80, "numAtRisk": 605}, {"groupId": "EG001", "numAffected": 121, "numAtRisk": 611}]}, {"term": "Cardiac failure acute", "organSystem": "Cardiac disorders", "sourceVocabulary": "23.0", "assessmentType": "SYSTEMATIC_ASSESSMENT", "stats": [{"groupId": "EG000", "numAffected": 12, "numAtRisk": 605}, {"groupId": "EG001", "numAffected": 11, "numAtRisk": 611}]}, {"term": "Cardiac failure chronic", "organSystem": "Cardiac disorders", "sourceVocabulary": "23.0", "assessmentType": "SYSTEMATIC_ASSESSMENT", "stats": [{"groupId": "EG000", "numAffected": 1, "numAtRisk": 605}, {"groupId": "EG001", "numAffected": 8, "numAtRisk": 611}]}, {"term": "Cardiac failure congestive", "organSystem": "Cardiac disorders", "sourceVocabulary": "23.0", "assessmentType": "SYSTEMATIC_ASSESSMENT", "stats": [{"groupId": "EG000", "numAffected": 11, "numAtRisk": 605}, {"groupId": "EG001", "numAffected": 16, "numAtRisk": 611}]}, {"term": "Cardio-respiratory arrest", "organSystem": "Cardiac disorders", "sourceVocabulary": "23.0", "assessmentType": "SYSTEMATIC_ASSESSMENT", "stats": [{"groupId": "EG000", "numAffected": 1, "numAtRisk": 605}, {"groupId": "EG001", "numAffected": 0, "numAtRisk": 611}]}, {"term": "Cardiogenic shock", "organSystem": "Cardiac disorders", "sourceVocabulary": "23.0", "assessmentType": "SYSTEMATIC_ASSESSMENT", "stats": [{"groupId": "EG000", "numAffected": 2, "numAtRisk": 605}, {"groupId": "EG001", "numAffected": 2, "numAtRisk": 611}]}, {"term": "Chronic left ventricular failure", "organSystem": "Cardiac disorders", "sourceVocabulary": "23.0", "assessmentType": "SYSTEMATIC_ASSESSMENT", "stats": [{"groupId": "EG000", "numAffected": 0, "numAtRisk": 605}, {"groupId": "EG001", "numAffected": 1, "numAtRisk": 611}]}, {"term": "Coronary artery disease", "organSystem": "Cardiac disorders", "sourceVocabulary": "23.0", "assessmentType": "SYSTEMATIC_ASSESSMENT", "stats": [{"groupId": "EG000", "numAffected": 2, "numAtRisk": 605}, {"groupId": "EG001", "numAffected": 0, "numAtRisk": 611}]}, {"term": "Coronary artery occlusion", "organSystem": "Cardiac disorders", "sourceVocabulary": "23.0", "assessmentType": "SYSTEMATIC_ASSESSMENT", "stats": [{"groupId": "EG000", "numAffected": 1, "numAtRisk": 605}, {"groupId": "EG001", "numAffected": 0, "numAtRisk": 611}]}, {"term": "Mitral valve incompetence", "organSystem": "Cardiac disorders", "sourceVocabulary": "23.0", "assessmentType": "SYSTEMATIC_ASSESSMENT", "stats": [{"groupId": "EG000", "numAffected": 1, "numAtRisk": 605}, {"groupId": "EG001", "numAffected": 1, "numAtRisk": 611}]}, {"term": "Myocardial infarction", "organSystem": "Cardiac disorders", "sourceVocabulary": "23.0", "assessmentType": "SYSTEMATIC_ASSESSMENT", "stats": [{"groupId": "EG000", "numAffected": 6, "numAtRisk": 605}, {"groupId": "EG001", "numAffected": 9, "numAtRisk": 611}]}, {"term": "Myocardial ischaemia", "organSystem": "Cardiac disorders", "sourceVocabulary": "23.0", "assessmentType": "SYSTEMATIC_ASSESSMENT", "stats": [{"groupId": "EG000", "numAffected": 2, "numAtRisk": 605}, {"groupId": "EG001", "numAffected": 1, "numAtRisk": 611}]}, {"term": "Pericardial effusion", "organSystem": "Cardiac disorders", "sourceVocabulary": "23.0", "assessmentType": "SYSTEMATIC_ASSESSMENT", "stats": [{"groupId": "EG000", "numAffected": 0, "numAtRisk": 605}, {"groupId": "EG001", "numAffected": 2, "numAtRisk": 611}]}, {"term": "Pericarditis", "organSystem": "Cardiac disorders", "sourceVocabulary": "23.0", "assessmentType": "SYSTEMATIC_ASSESSMENT", "stats": [{"groupId": "EG000", "numAffected": 2, "numAtRisk": 605}, {"groupId": "EG001", "numAffected": 0, "numAtRisk": 611}]}, {"term": "Right ventricular failure", "organSystem": "Cardiac disorders", "sourceVocabulary": "23.0", "assessmentType": "SYSTEMATIC_ASSESSMENT", "stats": [{"groupId": "EG000", "numAffected": 1, "numAtRisk": 605}, {"groupId": "EG001", "numAffected": 0, "numAtRisk": 611}]}, {"term": "Sinoatrial block", "organSystem": "Cardiac disorders", "sourceVocabulary": "23.0", "assessmentType": "SYSTEMATIC_ASSESSMENT", "stats": [{"groupId": "EG000", "numAffected": 0, "numAtRisk": 605}, {"groupId": "EG001", "numAffected": 1, "numAtRisk": 611}]}, {"term": "Sinus node dysfunction", "organSystem": "Cardiac disorders", "sourceVocabulary": "23.0", "assessmentType": "SYSTEMATIC_ASSESSMENT", "stats": [{"groupId": "EG000", "numAffected": 1, "numAtRisk": 605}, {"groupId": "EG001", "numAffected": 0, "numAtRisk": 611}]}, {"term": "Tachycardia", "organSystem": "Cardiac disorders", "sourceVocabulary": "23.0", "assessmentType": "SYSTEMATIC_ASSESSMENT", "stats": [{"groupId": "EG000", "numAffected": 0, "numAtRisk": 605}, {"groupId": "EG001", "numAffected": 1, "numAtRisk": 611}]}, {"term": "Ventricular extrasystoles", "organSystem": "Cardiac disorders", "sourceVocabulary": "23.0", "assessmentType": "SYSTEMATIC_ASSESSMENT", "stats": [{"groupId": "EG000", "numAffected": 1, "numAtRisk": 605}, {"groupId": "EG001", "numAffected": 2, "numAtRisk": 611}]}, {"term": "Ventricular fibrillation", "organSystem": "Cardiac disorders", "sourceVocabulary": "23.0", "assessmentType": "SYSTEMATIC_ASSESSMENT", "stats": [{"groupId": "EG000", "numAffected": 1, "numAtRisk": 605}, {"groupId": "EG001", "numAffected": 1, "numAtRisk": 611}]}, {"term": "Ventricular tachycardia", "organSystem": "Cardiac disorders", "sourceVocabulary": "23.0", "assessmentType": "SYSTEMATIC_ASSESSMENT", "stats": [{"groupId": "EG000", "numAffected": 4, "numAtRisk": 605}, {"groupId": "EG001", "numAffected": 4, "numAtRisk": 611}]}, {"term": "Phimosis", "organSystem": "Congenital, familial and genetic disorders", "sourceVocabulary": "23.0", "assessmentType": "SYSTEMATIC_ASSESSMENT", "stats": [{"groupId": "EG000", "numAffected": 1, "numAtRisk": 605}, {"groupId": "EG001", "numAffected": 0, "numAtRisk": 611}]}, {"term": "Anaemia", "organSystem": "Blood and lymphatic system disorders", "sourceVocabulary": "23.0", "assessmentType": "SYSTEMATIC_ASSESSMENT", "stats": [{"groupId": "EG000", "numAffected": 5, "numAtRisk": 605}, {"groupId": "EG001", "numAffected": 2, "numAtRisk": 611}]}, {"term": "Disseminated intravascular coagulation", "organSystem": "Blood and lymphatic system disorders", "sourceVocabulary": "23.0", "assessmentType": "SYSTEMATIC_ASSESSMENT", "stats": [{"groupId": "EG000", "numAffected": 1, "numAtRisk": 605}, {"groupId": "EG001", "numAffected": 0, "numAtRisk": 611}]}, {"term": "Iron deficiency anaemia", "organSystem": "Blood and lymphatic system disorders", "sourceVocabulary": "23.0", "assessmentType": "SYSTEMATIC_ASSESSMENT", "stats": [{"groupId": "EG000", "numAffected": 1, "numAtRisk": 605}, {"groupId": "EG001", "numAffected": 0, "numAtRisk": 611}]}, {"term": "Acute pulmonary oedema", "organSystem": "Respiratory, thoracic and mediastinal disorders", "sourceVocabulary": "23.0", "assessmentType": "SYSTEMATIC_ASSESSMENT", "stats": [{"groupId": "EG000", "numAffected": 2, "numAtRisk": 605}, {"groupId": "EG001", "numAffected": 3, "numAtRisk": 611}]}, {"term": "Acute respiratory failure", "organSystem": "Respiratory, thoracic and mediastinal disorders", "sourceVocabulary": "23.0", "assessmentType": "SYSTEMATIC_ASSESSMENT", "stats": [{"groupId": "EG000", "numAffected": 1, "numAtRisk": 605}, {"groupId": "EG001", "numAffected": 1, "numAtRisk": 611}]}, {"term": "Asthma", "organSystem": "Respiratory, thoracic and mediastinal disorders", "sourceVocabulary": "23.0", "assessmentType": "SYSTEMATIC_ASSESSMENT", "stats": [{"groupId": "EG000", "numAffected": 1, "numAtRisk": 605}, {"groupId": "EG001", "numAffected": 0, "numAtRisk": 611}]}, {"term": "Chronic obstructive pulmonary disease", "organSystem": "Respiratory, thoracic and mediastinal disorders", "sourceVocabulary": "23.0", "assessmentType": "SYSTEMATIC_ASSESSMENT", "stats": [{"groupId": "EG000", "numAffected": 3, "numAtRisk": 605}, {"groupId": "EG001", "numAffected": 4, "numAtRisk": 611}]}, {"term": "Cough", "organSystem": "Respiratory, thoracic and mediastinal disorders", "sourceVocabulary": "23.0", "assessmentType": "SYSTEMATIC_ASSESSMENT", "stats": [{"groupId": "EG000", "numAffected": 1, "numAtRisk": 605}, {"groupId": "EG001", "numAffected": 0, "numAtRisk": 611}]}, {"term": "Dyspnoea", "organSystem": "Respiratory, thoracic and mediastinal disorders", "sourceVocabulary": "23.0", "assessmentType": "SYSTEMATIC_ASSESSMENT", "stats": [{"groupId": "EG000", "numAffected": 2, "numAtRisk": 605}, {"groupId": "EG001", "numAffected": 3, "numAtRisk": 611}]}, {"term": "Dyspnoea exertional", "organSystem": "Respiratory, thoracic and mediastinal disorders", "sourceVocabulary": "23.0", "assessmentType": "SYSTEMATIC_ASSESSMENT", "stats": [{"groupId": "EG000", "numAffected": 0, "numAtRisk": 605}, {"groupId": "EG001", "numAffected": 1, "numAtRisk": 611}]}, {"term": "Hydrothorax", "organSystem": "Respiratory, thoracic and mediastinal disorders", "sourceVocabulary": "23.0", "assessmentType": "SYSTEMATIC_ASSESSMENT", "stats": [{"groupId": "EG000", "numAffected": 1, "numAtRisk": 605}, {"groupId": "EG001", "numAffected": 1, "numAtRisk": 611}]}, {"term": "Hypoxia", "organSystem": "Respiratory, thoracic and mediastinal disorders", "sourceVocabulary": "23.0", "assessmentType": "SYSTEMATIC_ASSESSMENT", "stats": [{"groupId": "EG000", "numAffected": 1, "numAtRisk": 605}, {"groupId": "EG001", "numAffected": 0, "numAtRisk": 611}]}, {"term": "Lung disorder", "organSystem": "Respiratory, thoracic and mediastinal disorders", "sourceVocabulary": "23.0", "assessmentType": "SYSTEMATIC_ASSESSMENT", "stats": [{"groupId": "EG000", "numAffected": 1, "numAtRisk": 605}, {"groupId": "EG001", "numAffected": 0, "numAtRisk": 611}]}, {"term": "Pleural effusion", "organSystem": "Respiratory, thoracic and mediastinal disorders", "sourceVocabulary": "23.0", "assessmentType": "SYSTEMATIC_ASSESSMENT", "stats": [{"groupId": "EG000", "numAffected": 3, "numAtRisk": 605}, {"groupId": "EG001", "numAffected": 0, "numAtRisk": 611}]}, {"term": "Pleuritic pain", "organSystem": "Respiratory, thoracic and mediastinal disorders", "sourceVocabulary": "23.0", "assessmentType": "SYSTEMATIC_ASSESSMENT", "stats": [{"groupId": "EG000", "numAffected": 0, "numAtRisk": 605}, {"groupId": "EG001", "numAffected": 1, "numAtRisk": 611}]}, {"term": "Pneumonia aspiration", "organSystem": "Respiratory, thoracic and mediastinal disorders", "sourceVocabulary": "23.0", "assessmentType": "SYSTEMATIC_ASSESSMENT", "stats": [{"groupId": "EG000", "numAffected": 1, "numAtRisk": 605}, {"groupId": "EG001", "numAffected": 0, "numAtRisk": 611}]}, {"term": "Pulmonary embolism", "organSystem": "Respiratory, thoracic and mediastinal disorders", "sourceVocabulary": "23.0", "assessmentType": "SYSTEMATIC_ASSESSMENT", "stats": [{"groupId": "EG000", "numAffected": 0, "numAtRisk": 605}, {"groupId": "EG001", "numAffected": 6, "numAtRisk": 611}]}, {"term": "Pulmonary oedema", "organSystem": "Respiratory, thoracic and mediastinal disorders", "sourceVocabulary": "23.0", "assessmentType": "SYSTEMATIC_ASSESSMENT", "stats": [{"groupId": "EG000", "numAffected": 2, "numAtRisk": 605}, {"groupId": "EG001", "numAffected": 2, "numAtRisk": 611}]}, {"term": "Respiratory arrest", "organSystem": "Respiratory, thoracic and mediastinal disorders", "sourceVocabulary": "23.0", "assessmentType": "SYSTEMATIC_ASSESSMENT", "stats": [{"groupId": "EG000", "numAffected": 1, "numAtRisk": 605}, {"groupId": "EG001", "numAffected": 0, "numAtRisk": 611}]}, {"term": "Respiratory failure", "organSystem": "Respiratory, thoracic and mediastinal disorders", "sourceVocabulary": "23.0", "assessmentType": "SYSTEMATIC_ASSESSMENT", "stats": [{"groupId": "EG000", "numAffected": 3, "numAtRisk": 605}, {"groupId": "EG001", "numAffected": 3, "numAtRisk": 611}]}, {"term": "Wheezing", "organSystem": "Respiratory, thoracic and mediastinal disorders", "sourceVocabulary": "23.0", "assessmentType": "SYSTEMATIC_ASSESSMENT", "stats": [{"groupId": "EG000", "numAffected": 0, "numAtRisk": 605}, {"groupId": "EG001", "numAffected": 7, "numAtRisk": 611}]}, {"term": "Brain oedema", "organSystem": "Nervous system disorders", "sourceVocabulary": "23.0", "assessmentType": "SYSTEMATIC_ASSESSMENT", "stats": [{"groupId": "EG000", "numAffected": 0, "numAtRisk": 605}, {"groupId": "EG001", "numAffected": 1, "numAtRisk": 611}]}, {"term": "Carotid artery stenosis", "organSystem": "Nervous system disorders", "sourceVocabulary": "23.0", "assessmentType": "SYSTEMATIC_ASSESSMENT", "stats": [{"groupId": "EG000", "numAffected": 1, "numAtRisk": 605}, {"groupId": "EG001", "numAffected": 0, "numAtRisk": 611}]}, {"term": "Cerebral haematoma", "organSystem": "Nervous system disorders", "sourceVocabulary": "23.0", "assessmentType": "SYSTEMATIC_ASSESSMENT", "stats": [{"groupId": "EG000", "numAffected": 1, "numAtRisk": 605}, {"groupId": "EG001", "numAffected": 0, "numAtRisk": 611}]}, {"term": "Cerebral haemorrhage", "organSystem": "Nervous system disorders", "sourceVocabulary": "23.0", "assessmentType": "SYSTEMATIC_ASSESSMENT", "stats": [{"groupId": "EG000", "numAffected": 0, "numAtRisk": 605}, {"groupId": "EG001", "numAffected": 1, "numAtRisk": 611}]}, {"term": "Cerebral infarction", "organSystem": "Nervous system disorders", "sourceVocabulary": "23.0", "assessmentType": "SYSTEMATIC_ASSESSMENT", "stats": [{"groupId": "EG000", "numAffected": 0, "numAtRisk": 605}, {"groupId": "EG001", "numAffected": 1, "numAtRisk": 611}]}, {"term": "Cerebral ischaemia", "organSystem": "Nervous system disorders", "sourceVocabulary": "23.0", "assessmentType": "SYSTEMATIC_ASSESSMENT", "stats": [{"groupId": "EG000", "numAffected": 1, "numAtRisk": 605}, {"groupId": "EG001", "numAffected": 0, "numAtRisk": 611}]}, {"term": "Cerebrovascular accident", "organSystem": "Nervous system disorders", "sourceVocabulary": "23.0", "assessmentType": "SYSTEMATIC_ASSESSMENT", "stats": [{"groupId": "EG000", "numAffected": 5, "numAtRisk": 605}, {"groupId": "EG001", "numAffected": 3, "numAtRisk": 611}]}, {"term": "Cognitive disorder", "organSystem": "Nervous system disorders", "sourceVocabulary": "23.0", "assessmentType": "SYSTEMATIC_ASSESSMENT", "stats": [{"groupId": "EG000", "numAffected": 0, "numAtRisk": 605}, {"groupId": "EG001", "numAffected": 1, "numAtRisk": 611}]}, {"term": "Coma", "organSystem": "Nervous system disorders", "sourceVocabulary": "23.0", "assessmentType": "SYSTEMATIC_ASSESSMENT", "stats": [{"groupId": "EG000", "numAffected": 1, "numAtRisk": 605}, {"groupId": "EG001", "numAffected": 0, "numAtRisk": 611}]}, {"term": "Depressed level of consciousness", "organSystem": "Nervous system disorders", "sourceVocabulary": "23.0", "assessmentType": "SYSTEMATIC_ASSESSMENT", "stats": [{"groupId": "EG000", "numAffected": 0, "numAtRisk": 605}, {"groupId": "EG001", "numAffected": 1, "numAtRisk": 611}]}, {"term": "Dizziness", "organSystem": "Nervous system disorders", "sourceVocabulary": "23.0", "assessmentType": "SYSTEMATIC_ASSESSMENT", "stats": [{"groupId": "EG000", "numAffected": 1, "numAtRisk": 605}, {"groupId": "EG001", "numAffected": 0, "numAtRisk": 611}]}, {"term": "Embolic stroke", "organSystem": "Nervous system disorders", "sourceVocabulary": "23.0", "assessmentType": "SYSTEMATIC_ASSESSMENT", "stats": [{"groupId": "EG000", "numAffected": 0, "numAtRisk": 605}, {"groupId": "EG001", "numAffected": 1, "numAtRisk": 611}]}, {"term": "Haemorrhagic stroke", "organSystem": "Nervous system disorders", "sourceVocabulary": "23.0", "assessmentType": "SYSTEMATIC_ASSESSMENT", "stats": [{"groupId": "EG000", "numAffected": 1, "numAtRisk": 605}, {"groupId": "EG001", "numAffected": 0, "numAtRisk": 611}]}, {"term": "Hemiparesis", "organSystem": "Nervous system disorders", "sourceVocabulary": "23.0", "assessmentType": "SYSTEMATIC_ASSESSMENT", "stats": [{"groupId": "EG000", "numAffected": 1, "numAtRisk": 605}, {"groupId": "EG001", "numAffected": 0, "numAtRisk": 611}]}, {"term": "Hepatic encephalopathy", "organSystem": "Nervous system disorders", "sourceVocabulary": "23.0", "assessmentType": "SYSTEMATIC_ASSESSMENT", "stats": [{"groupId": "EG000", "numAffected": 0, "numAtRisk": 605}, {"groupId": "EG001", "numAffected": 1, "numAtRisk": 611}]}, {"term": "Hypoxic-ischaemic encephalopathy", "organSystem": "Nervous system disorders", "sourceVocabulary": "23.0", "assessmentType": "SYSTEMATIC_ASSESSMENT", "stats": [{"groupId": "EG000", "numAffected": 0, "numAtRisk": 605}, {"groupId": "EG001", "numAffected": 1, "numAtRisk": 611}]}, {"term": "Ischaemic stroke", "organSystem": "Nervous system disorders", "sourceVocabulary": "23.0", "assessmentType": "SYSTEMATIC_ASSESSMENT", "stats": [{"groupId": "EG000", "numAffected": 9, "numAtRisk": 605}, {"groupId": "EG001", "numAffected": 9, "numAtRisk": 611}]}, {"term": "Loss of consciousness", "organSystem": "Nervous system disorders", "sourceVocabulary": "23.0", "assessmentType": "SYSTEMATIC_ASSESSMENT", "stats": [{"groupId": "EG000", "numAffected": 0, "numAtRisk": 605}, {"groupId": "EG001", "numAffected": 1, "numAtRisk": 611}]}, {"term": "Metabolic encephalopathy", "organSystem": "Nervous system disorders", "sourceVocabulary": "23.0", "assessmentType": "SYSTEMATIC_ASSESSMENT", "stats": [{"groupId": "EG000", "numAffected": 0, "numAtRisk": 605}, {"groupId": "EG001", "numAffected": 1, "numAtRisk": 611}]}, {"term": "Myelopathy", "organSystem": "Nervous system disorders", "sourceVocabulary": "23.0", "assessmentType": "SYSTEMATIC_ASSESSMENT", "stats": [{"groupId": "EG000", "numAffected": 1, "numAtRisk": 605}, {"groupId": "EG001", "numAffected": 0, "numAtRisk": 611}]}, {"term": "Neuropathy peripheral", "organSystem": "Nervous system disorders", "sourceVocabulary": "23.0", "assessmentType": "SYSTEMATIC_ASSESSMENT", "stats": [{"groupId": "EG000", "numAffected": 1, "numAtRisk": 605}, {"groupId": "EG001", "numAffected": 0, "numAtRisk": 611}]}, {"term": "Parkinson's disease", "organSystem": "Nervous system disorders", "sourceVocabulary": "23.0", "assessmentType": "SYSTEMATIC_ASSESSMENT", "stats": [{"groupId": "EG000", "numAffected": 0, "numAtRisk": 605}, {"groupId": "EG001", "numAffected": 1, "numAtRisk": 611}]}, {"term": "Postresuscitation encephalopathy", "organSystem": "Nervous system disorders", "sourceVocabulary": "23.0", "assessmentType": "SYSTEMATIC_ASSESSMENT", "stats": [{"groupId": "EG000", "numAffected": 0, "numAtRisk": 605}, {"groupId": "EG001", "numAffected": 1, "numAtRisk": 611}]}, {"term": "Presyncope", "organSystem": "Nervous system disorders", "sourceVocabulary": "23.0", "assessmentType": "SYSTEMATIC_ASSESSMENT", "stats": [{"groupId": "EG000", "numAffected": 0, "numAtRisk": 605}, {"groupId": "EG001", "numAffected": 1, "numAtRisk": 611}]}, {"term": "Seizure", "organSystem": "Nervous system disorders", "sourceVocabulary": "23.0", "assessmentType": "SYSTEMATIC_ASSESSMENT", "stats": [{"groupId": "EG000", "numAffected": 0, "numAtRisk": 605}, {"groupId": "EG001", "numAffected": 1, "numAtRisk": 611}]}, {"term": "Somnolence", "organSystem": "Nervous system disorders", "sourceVocabulary": "23.0", "assessmentType": "SYSTEMATIC_ASSESSMENT", "stats": [{"groupId": "EG000", "numAffected": 0, "numAtRisk": 605}, {"groupId": "EG001", "numAffected": 1, "numAtRisk": 611}]}, {"term": "Spinal claudication", "organSystem": "Nervous system disorders", "sourceVocabulary": "23.0", "assessmentType": "SYSTEMATIC_ASSESSMENT", "stats": [{"groupId": "EG000", "numAffected": 0, "numAtRisk": 605}, {"groupId": "EG001", "numAffected": 1, "numAtRisk": 611}]}, {"term": "Spinal cord ischaemia", "organSystem": "Nervous system disorders", "sourceVocabulary": "23.0", "assessmentType": "SYSTEMATIC_ASSESSMENT", "stats": [{"groupId": "EG000", "numAffected": 1, "numAtRisk": 605}, {"groupId": "EG001", "numAffected": 0, "numAtRisk": 611}]}, {"term": "Spinal cord ischaemia Syncope", "organSystem": "Nervous system disorders", "sourceVocabulary": "23.0", "assessmentType": "SYSTEMATIC_ASSESSMENT", "stats": [{"groupId": "EG000", "numAffected": 2, "numAtRisk": 605}, {"groupId": "EG001", "numAffected": 12, "numAtRisk": 611}]}, {"term": "Transient ischaemic attack", "organSystem": "Nervous system disorders", "sourceVocabulary": "23.0", "assessmentType": "SYSTEMATIC_ASSESSMENT", "stats": [{"groupId": "EG000", "numAffected": 2, "numAtRisk": 605}, {"groupId": "EG001", "numAffected": 0, "numAtRisk": 611}]}, {"term": "Eye haemorrhage", "organSystem": "Eye disorders", "sourceVocabulary": "23.0", "assessmentType": "SYSTEMATIC_ASSESSMENT", "stats": [{"groupId": "EG000", "numAffected": 1, "numAtRisk": 605}, {"groupId": "EG001", "numAffected": 0, "numAtRisk": 611}]}, {"term": "Vertigo positional", "organSystem": "Ear and labyrinth disorders", "sourceVocabulary": "23.0", "assessmentType": "SYSTEMATIC_ASSESSMENT", "stats": [{"groupId": "EG000", "numAffected": 1, "numAtRisk": 605}, {"groupId": "EG001", "numAffected": 0, "numAtRisk": 611}]}, {"term": "Abdominal pain", "organSystem": "Gastrointestinal disorders", "sourceVocabulary": "23.0", "assessmentType": "SYSTEMATIC_ASSESSMENT", "stats": [{"groupId": "EG000", "numAffected": 0, "numAtRisk": 605}, {"groupId": "EG001", "numAffected": 3, "numAtRisk": 611}]}, {"term": "Abdominal pain upper", "organSystem": "Gastrointestinal disorders", "sourceVocabulary": "23.0", "assessmentType": "SYSTEMATIC_ASSESSMENT", "stats": [{"groupId": "EG000", "numAffected": 1, "numAtRisk": 605}, {"groupId": "EG001", "numAffected": 0, "numAtRisk": 611}]}, {"term": "Anal fistula", "organSystem": "Gastrointestinal disorders", "sourceVocabulary": "23.0", "assessmentType": "SYSTEMATIC_ASSESSMENT", "stats": [{"groupId": "EG000", "numAffected": 0, "numAtRisk": 605}, {"groupId": "EG001", "numAffected": 1, "numAtRisk": 611}]}, {"term": "Ascites", "organSystem": "Gastrointestinal disorders", "sourceVocabulary": "23.0", "assessmentType": "SYSTEMATIC_ASSESSMENT", "stats": [{"groupId": "EG000", "numAffected": 0, "numAtRisk": 605}, {"groupId": "EG001", "numAffected": 1, "numAtRisk": 611}]}, {"term": "Colitis", "organSystem": "Gastrointestinal disorders", "sourceVocabulary": "23.0", "assessmentType": "SYSTEMATIC_ASSESSMENT", "stats": [{"groupId": "EG000", "numAffected": 1, "numAtRisk": 605}, {"groupId": "EG001", "numAffected": 0, "numAtRisk": 611}]}, {"term": "Colitis ulcerative", "organSystem": "Gastrointestinal disorders", "sourceVocabulary": "23.0", "assessmentType": "SYSTEMATIC_ASSESSMENT", "stats": [{"groupId": "EG000", "numAffected": 1, "numAtRisk": 605}, {"groupId": "EG001", "numAffected": 0, "numAtRisk": 611}]}, {"term": "Constipation", "organSystem": "Gastrointestinal disorders", "sourceVocabulary": "23.0", "assessmentType": "SYSTEMATIC_ASSESSMENT", "stats": [{"groupId": "EG000", "numAffected": 1, "numAtRisk": 605}, {"groupId": "EG001", "numAffected": 1, "numAtRisk": 611}]}, {"term": "Diarrhoea", "organSystem": "Gastrointestinal disorders", "sourceVocabulary": "23.0", "assessmentType": "SYSTEMATIC_ASSESSMENT", "stats": [{"groupId": "EG000", "numAffected": 1, "numAtRisk": 605}, {"groupId": "EG001", "numAffected": 4, "numAtRisk": 611}]}, {"term": "Duodenal ulcer", "organSystem": "Gastrointestinal disorders", "sourceVocabulary": "23.0", "assessmentType": "SYSTEMATIC_ASSESSMENT", "stats": [{"groupId": "EG000", "numAffected": 0, "numAtRisk": 605}, {"groupId": "EG001", "numAffected": 1, "numAtRisk": 611}]}, {"term": "Gastrointestinal haemorrhage", "organSystem": "Gastrointestinal disorders", "sourceVocabulary": "23.0", "assessmentType": "SYSTEMATIC_ASSESSMENT", "stats": [{"groupId": "EG000", "numAffected": 0, "numAtRisk": 605}, {"groupId": "EG001", "numAffected": 1, "numAtRisk": 611}]}, {"term": "Haematochezia", "organSystem": "Gastrointestinal disorders", "sourceVocabulary": "23.0", "assessmentType": "SYSTEMATIC_ASSESSMENT", "stats": [{"groupId": "EG000", "numAffected": 2, "numAtRisk": 605}, {"groupId": "EG001", "numAffected": 0, "numAtRisk": 611}]}, {"term": "Ileus", "organSystem": "Gastrointestinal disorders", "sourceVocabulary": "23.0", "assessmentType": "SYSTEMATIC_ASSESSMENT", "stats": [{"groupId": "EG000", "numAffected": 0, "numAtRisk": 605}, {"groupId": "EG001", "numAffected": 1, "numAtRisk": 611}]}, {"term": "Ileus paralytic", "organSystem": "Gastrointestinal disorders", "sourceVocabulary": "23.0", "assessmentType": "SYSTEMATIC_ASSESSMENT", "stats": [{"groupId": "EG000", "numAffected": 1, "numAtRisk": 605}, {"groupId": "EG001", "numAffected": 0, "numAtRisk": 611}]}, {"term": "Inguinal hernia", "organSystem": "Gastrointestinal disorders", "sourceVocabulary": "23.0", "assessmentType": "SYSTEMATIC_ASSESSMENT", "stats": [{"groupId": "EG000", "numAffected": 1, "numAtRisk": 605}, {"groupId": "EG001", "numAffected": 1, "numAtRisk": 611}]}, {"term": "Intestinal ischaemia", "organSystem": "Gastrointestinal disorders", "sourceVocabulary": "23.0", "assessmentType": "SYSTEMATIC_ASSESSMENT", "stats": [{"groupId": "EG000", "numAffected": 2, "numAtRisk": 605}, {"groupId": "EG001", "numAffected": 0, "numAtRisk": 611}]}, {"term": "Intestinal obstruction", "organSystem": "Gastrointestinal disorders", "sourceVocabulary": "23.0", "assessmentType": "SYSTEMATIC_ASSESSMENT", "stats": [{"groupId": "EG000", "numAffected": 0, "numAtRisk": 605}, {"groupId": "EG001", "numAffected": 1, "numAtRisk": 611}]}, {"term": "Intra-abdominal haematoma", "organSystem": "Gastrointestinal disorders", "sourceVocabulary": "23.0", "assessmentType": "SYSTEMATIC_ASSESSMENT", "stats": [{"groupId": "EG000", "numAffected": 1, "numAtRisk": 605}, {"groupId": "EG001", "numAffected": 0, "numAtRisk": 611}]}, {"term": "Large intestine polyp", "organSystem": "Gastrointestinal disorders", "sourceVocabulary": "23.0", "assessmentType": "SYSTEMATIC_ASSESSMENT", "stats": [{"groupId": "EG000", "numAffected": 1, "numAtRisk": 605}, {"groupId": "EG001", "numAffected": 1, "numAtRisk": 611}]}, {"term": "Mechanical ileus", "organSystem": "Gastrointestinal disorders", "sourceVocabulary": "23.0", "assessmentType": "SYSTEMATIC_ASSESSMENT", "stats": [{"groupId": "EG000", "numAffected": 1, "numAtRisk": 605}, {"groupId": "EG001", "numAffected": 0, "numAtRisk": 611}]}, {"term": "Oesophageal perforation", "organSystem": "Gastrointestinal disorders", "sourceVocabulary": "23.0", "assessmentType": "SYSTEMATIC_ASSESSMENT", "stats": [{"groupId": "EG000", "numAffected": 0, "numAtRisk": 605}, {"groupId": "EG001", "numAffected": 1, "numAtRisk": 611}]}, {"term": "Pancreatitis", "organSystem": "Gastrointestinal disorders", "sourceVocabulary": "23.0", "assessmentType": "SYSTEMATIC_ASSESSMENT", "stats": [{"groupId": "EG000", "numAffected": 0, "numAtRisk": 605}, {"groupId": "EG001", "numAffected": 1, "numAtRisk": 611}]}, {"term": "Pancreatitis acute", "organSystem": "Gastrointestinal disorders", "sourceVocabulary": "23.0", "assessmentType": "SYSTEMATIC_ASSESSMENT", "stats": [{"groupId": "EG000", "numAffected": 0, "numAtRisk": 605}, {"groupId": "EG001", "numAffected": 1, "numAtRisk": 611}]}, {"term": "Pancreatitis chronic", "organSystem": "Gastrointestinal disorders", "sourceVocabulary": "23.0", "assessmentType": "SYSTEMATIC_ASSESSMENT", "stats": [{"groupId": "EG000", "numAffected": 0, "numAtRisk": 605}, {"groupId": "EG001", "numAffected": 1, "numAtRisk": 611}]}, {"term": "Proctalgia", "organSystem": "Gastrointestinal disorders", "sourceVocabulary": "23.0", "assessmentType": "SYSTEMATIC_ASSESSMENT", "stats": [{"groupId": "EG000", "numAffected": 0, "numAtRisk": 605}, {"groupId": "EG001", "numAffected": 1, "numAtRisk": 611}]}, {"term": "Splenic artery aneurysm", "organSystem": "Gastrointestinal disorders", "sourceVocabulary": "23.0", "assessmentType": "SYSTEMATIC_ASSESSMENT", "stats": [{"groupId": "EG000", "numAffected": 0, "numAtRisk": 605}, {"groupId": "EG001", "numAffected": 1, "numAtRisk": 611}]}, {"term": "Ulcerative gastritis", "organSystem": "Gastrointestinal disorders", "sourceVocabulary": "23.0", "assessmentType": "SYSTEMATIC_ASSESSMENT", "stats": [{"groupId": "EG000", "numAffected": 1, "numAtRisk": 605}, {"groupId": "EG001", "numAffected": 0, "numAtRisk": 611}]}, {"term": "Upper gastrointestinal haemorrhage", "organSystem": "Gastrointestinal disorders", "sourceVocabulary": "23.0", "assessmentType": "SYSTEMATIC_ASSESSMENT", "stats": [{"groupId": "EG000", "numAffected": 0, "numAtRisk": 605}, {"groupId": "EG001", "numAffected": 3, "numAtRisk": 611}]}, {"term": "Acute kidney injury", "organSystem": "Renal and urinary disorders", "sourceVocabulary": "23.0", "assessmentType": "SYSTEMATIC_ASSESSMENT", "stats": [{"groupId": "EG000", "numAffected": 11, "numAtRisk": 605}, {"groupId": "EG001", "numAffected": 16, "numAtRisk": 611}]}, {"term": "Calculus urinary", "organSystem": "Renal and urinary disorders", "sourceVocabulary": "23.0", "assessmentType": "SYSTEMATIC_ASSESSMENT", "stats": [{"groupId": "EG000", "numAffected": 1, "numAtRisk": 605}, {"groupId": "EG001", "numAffected": 0, "numAtRisk": 611}]}, {"term": "Chronic kidney disease", "organSystem": "Renal and urinary disorders", "sourceVocabulary": "23.0", "assessmentType": "SYSTEMATIC_ASSESSMENT", "stats": [{"groupId": "EG000", "numAffected": 3, "numAtRisk": 605}, {"groupId": "EG001", "numAffected": 6, "numAtRisk": 611}]}, {"term": "Haematuria", "organSystem": "Renal and urinary disorders", "sourceVocabulary": "23.0", "assessmentType": "SYSTEMATIC_ASSESSMENT", "stats": [{"groupId": "EG000", "numAffected": 1, "numAtRisk": 605}, {"groupId": "EG001", "numAffected": 1, "numAtRisk": 611}]}, {"term": "Nephritis", "organSystem": "Renal and urinary disorders", "sourceVocabulary": "23.0", "assessmentType": "SYSTEMATIC_ASSESSMENT", "stats": [{"groupId": "EG000", "numAffected": 0, "numAtRisk": 605}, {"groupId": "EG001", "numAffected": 1, "numAtRisk": 611}]}, {"term": "Nephropathy toxic", "organSystem": "Renal and urinary disorders", "sourceVocabulary": "23.0", "assessmentType": "SYSTEMATIC_ASSESSMENT", "stats": [{"groupId": "EG000", "numAffected": 1, "numAtRisk": 605}, {"groupId": "EG001", "numAffected": 0, "numAtRisk": 611}]}, {"term": "Oliguria", "organSystem": "Renal and urinary disorders", "sourceVocabulary": "23.0", "assessmentType": "SYSTEMATIC_ASSESSMENT", "stats": [{"groupId": "EG000", "numAffected": 0, "numAtRisk": 605}, {"groupId": "EG001", "numAffected": 1, "numAtRisk": 611}]}, {"term": "Renal colic", "organSystem": "Renal and urinary disorders", "sourceVocabulary": "23.0", "assessmentType": "SYSTEMATIC_ASSESSMENT", "stats": [{"groupId": "EG000", "numAffected": 0, "numAtRisk": 605}, {"groupId": "EG001", "numAffected": 1, "numAtRisk": 611}]}, {"term": "Renal failure", "organSystem": "Renal and urinary disorders", "sourceVocabulary": "23.0", "assessmentType": "SYSTEMATIC_ASSESSMENT", "stats": [{"groupId": "EG000", "numAffected": 3, "numAtRisk": 605}, {"groupId": "EG001", "numAffected": 6, "numAtRisk": 611}]}, {"term": "Renal impairment", "organSystem": "Renal and urinary disorders", "sourceVocabulary": "23.0", "assessmentType": "SYSTEMATIC_ASSESSMENT", "stats": [{"groupId": "EG000", "numAffected": 0, "numAtRisk": 605}, {"groupId": "EG001", "numAffected": 3, "numAtRisk": 611}]}, {"term": "Bile duct obstruction", "organSystem": "Hepatobiliary disorders", "sourceVocabulary": "23.0", "assessmentType": "SYSTEMATIC_ASSESSMENT", "stats": [{"groupId": "EG000", "numAffected": 1, "numAtRisk": 605}, {"groupId": "EG001", "numAffected": 0, "numAtRisk": 611}]}, {"term": "Cholangitis acute", "organSystem": "Hepatobiliary disorders", "sourceVocabulary": "23.0", "assessmentType": "SYSTEMATIC_ASSESSMENT", "stats": [{"groupId": "EG000", "numAffected": 1, "numAtRisk": 605}, {"groupId": "EG001", "numAffected": 0, "numAtRisk": 611}]}, {"term": "Cholecystitis", "organSystem": "Hepatobiliary disorders", "sourceVocabulary": "23.0", "assessmentType": "SYSTEMATIC_ASSESSMENT", "stats": [{"groupId": "EG000", "numAffected": 1, "numAtRisk": 605}, {"groupId": "EG001", "numAffected": 0, "numAtRisk": 611}]}, {"term": "Cholecystitis acute", "organSystem": "Hepatobiliary disorders", "sourceVocabulary": "23.0", "assessmentType": "SYSTEMATIC_ASSESSMENT", "stats": [{"groupId": "EG000", "numAffected": 1, "numAtRisk": 605}, {"groupId": "EG001", "numAffected": 0, "numAtRisk": 611}]}, {"term": "Hepatic cirrhosis", "organSystem": "Hepatobiliary disorders", "sourceVocabulary": "23.0", "assessmentType": "SYSTEMATIC_ASSESSMENT", "stats": [{"groupId": "EG000", "numAffected": 1, "numAtRisk": 605}, {"groupId": "EG001", "numAffected": 0, "numAtRisk": 611}]}, {"term": "Hepatitis acute", "organSystem": "Hepatobiliary disorders", "sourceVocabulary": "23.0", "assessmentType": "SYSTEMATIC_ASSESSMENT", "stats": [{"groupId": "EG000", "numAffected": 1, "numAtRisk": 605}, {"groupId": "EG001", "numAffected": 0, "numAtRisk": 611}]}, {"term": "Liver disorder", "organSystem": "Hepatobiliary disorders", "sourceVocabulary": "23.0", "assessmentType": "SYSTEMATIC_ASSESSMENT", "stats": [{"groupId": "EG000", "numAffected": 1, "numAtRisk": 605}, {"groupId": "EG001", "numAffected": 0, "numAtRisk": 611}]}, {"term": "Liver injury", "organSystem": "Hepatobiliary disorders", "sourceVocabulary": "23.0", "assessmentType": "SYSTEMATIC_ASSESSMENT", "stats": [{"groupId": "EG000", "numAffected": 1, "numAtRisk": 605}, {"groupId": "EG001", "numAffected": 2, "numAtRisk": 611}]}, {"term": "Device malfunction", "organSystem": "Product Issues", "sourceVocabulary": "23.0", "assessmentType": "SYSTEMATIC_ASSESSMENT", "stats": [{"groupId": "EG000", "numAffected": 1, "numAtRisk": 605}, {"groupId": "EG001", "numAffected": 1, "numAtRisk": 611}]}, {"term": "Lead dislodgement", "organSystem": "Product Issues", "sourceVocabulary": "23.0", "assessmentType": "SYSTEMATIC_ASSESSMENT", "stats": [{"groupId": "EG000", "numAffected": 0, "numAtRisk": 605}, {"groupId": "EG001", "numAffected": 1, "numAtRisk": 611}]}, {"term": "Diabetic foot", "organSystem": "Skin and subcutaneous tissue disorders", "sourceVocabulary": "23.0", "assessmentType": "SYSTEMATIC_ASSESSMENT", "stats": [{"groupId": "EG000", "numAffected": 2, "numAtRisk": 605}, {"groupId": "EG001", "numAffected": 2, "numAtRisk": 611}]}, {"term": "Skin ulcer", "organSystem": "Skin and subcutaneous tissue disorders", "sourceVocabulary": "23.0", "assessmentType": "SYSTEMATIC_ASSESSMENT", "stats": [{"groupId": "EG000", "numAffected": 2, "numAtRisk": 605}, {"groupId": "EG001", "numAffected": 0, "numAtRisk": 611}]}, {"term": "Urticaria", "organSystem": "Skin and subcutaneous tissue disorders", "sourceVocabulary": "23.0", "assessmentType": "SYSTEMATIC_ASSESSMENT", "stats": [{"groupId": "EG000", "numAffected": 1, "numAtRisk": 605}, {"groupId": "EG001", "numAffected": 0, "numAtRisk": 611}]}, {"term": "Back pain", "organSystem": "Musculoskeletal and connective tissue disorders", "sourceVocabulary": "23.0", "assessmentType": "SYSTEMATIC_ASSESSMENT", "stats": [{"groupId": "EG000", "numAffected": 1, "numAtRisk": 605}, {"groupId": "EG001", "numAffected": 0, "numAtRisk": 611}]}, {"term": "Gouty arthritis", "organSystem": "Musculoskeletal and connective tissue disorders", "sourceVocabulary": "23.0", "assessmentType": "SYSTEMATIC_ASSESSMENT", "stats": [{"groupId": "EG000", "numAffected": 1, "numAtRisk": 605}, {"groupId": "EG001", "numAffected": 0, "numAtRisk": 611}]}, {"term": "Mobility decreased", "organSystem": "Musculoskeletal and connective tissue disorders", "sourceVocabulary": "23.0", "assessmentType": "SYSTEMATIC_ASSESSMENT", "stats": [{"groupId": "EG000", "numAffected": 1, "numAtRisk": 605}, {"groupId": "EG001", "numAffected": 0, "numAtRisk": 611}]}, {"term": "Musculoskeletal chest pain", "organSystem": "Musculoskeletal and connective tissue disorders", "sourceVocabulary": "23.0", "assessmentType": "SYSTEMATIC_ASSESSMENT", "stats": [{"groupId": "EG000", "numAffected": 0, "numAtRisk": 605}, {"groupId": "EG001", "numAffected": 2, "numAtRisk": 611}]}, {"term": "Osteitis", "organSystem": "Musculoskeletal and connective tissue disorders", "sourceVocabulary": "23.0", "assessmentType": "SYSTEMATIC_ASSESSMENT", "stats": [{"groupId": "EG000", "numAffected": 1, "numAtRisk": 605}, {"groupId": "EG001", "numAffected": 0, "numAtRisk": 611}]}, {"term": "Osteoarthritis", "organSystem": "Musculoskeletal and connective tissue disorders", "sourceVocabulary": "23.0", "assessmentType": "SYSTEMATIC_ASSESSMENT", "stats": [{"groupId": "EG000", "numAffected": 3, "numAtRisk": 605}, {"groupId": "EG001", "numAffected": 0, "numAtRisk": 611}]}, {"term": "Osteonecrosis", "organSystem": "Musculoskeletal and connective tissue disorders", "sourceVocabulary": "23.0", "assessmentType": "SYSTEMATIC_ASSESSMENT", "stats": [{"groupId": "EG000", "numAffected": 1, "numAtRisk": 605}, {"groupId": "EG001", "numAffected": 0, "numAtRisk": 611}]}, {"term": "Osteoporosis", "organSystem": "Musculoskeletal and connective tissue disorders", "sourceVocabulary": "23.0", "assessmentType": "SYSTEMATIC_ASSESSMENT", "stats": [{"groupId": "EG000", "numAffected": 1, "numAtRisk": 605}, {"groupId": "EG001", "numAffected": 0, "numAtRisk": 611}]}, {"term": "Polyarthritis", "organSystem": "Musculoskeletal and connective tissue disorders", "sourceVocabulary": "23.0", "assessmentType": "SYSTEMATIC_ASSESSMENT", "stats": [{"groupId": "EG000", "numAffected": 1, "numAtRisk": 605}, {"groupId": "EG001", "numAffected": 1, "numAtRisk": 611}]}, {"term": "Spinal stenosis", "organSystem": "Musculoskeletal and connective tissue disorders", "sourceVocabulary": "23.0", "assessmentType": "SYSTEMATIC_ASSESSMENT", "stats": [{"groupId": "EG000", "numAffected": 1, "numAtRisk": 605}, {"groupId": "EG001", "numAffected": 0, "numAtRisk": 611}]}, {"term": "Dehydration", "organSystem": "Metabolism and nutrition disorders", "sourceVocabulary": "23.0", "assessmentType": "SYSTEMATIC_ASSESSMENT", "stats": [{"groupId": "EG000", "numAffected": 3, "numAtRisk": 605}, {"groupId": "EG001", "numAffected": 4, "numAtRisk": 611}]}, {"term": "Diabetes mellitus inadequate control", "organSystem": "Metabolism and nutrition disorders", "sourceVocabulary": "23.0", "assessmentType": "SYSTEMATIC_ASSESSMENT", "stats": [{"groupId": "EG000", "numAffected": 0, "numAtRisk": 605}, {"groupId": "EG001", "numAffected": 1, "numAtRisk": 611}]}, {"term": "Diabetic complication", "organSystem": "Metabolism and nutrition disorders", "sourceVocabulary": "23.0", "assessmentType": "SYSTEMATIC_ASSESSMENT", "stats": [{"groupId": "EG000", "numAffected": 0, "numAtRisk": 605}, {"groupId": "EG001", "numAffected": 1, "numAtRisk": 611}]}, {"term": "Diabetic ketoacidosis", "organSystem": "Metabolism and nutrition disorders", "sourceVocabulary": "23.0", "assessmentType": "SYSTEMATIC_ASSESSMENT", "stats": [{"groupId": "EG000", "numAffected": 0, "numAtRisk": 605}, {"groupId": "EG001", "numAffected": 1, "numAtRisk": 611}]}, {"term": "Diabetic metabolic decompensation", "organSystem": "Metabolism and nutrition disorders", "sourceVocabulary": "23.0", "assessmentType": "SYSTEMATIC_ASSESSMENT", "stats": [{"groupId": "EG000", "numAffected": 1, "numAtRisk": 605}, {"groupId": "EG001", "numAffected": 0, "numAtRisk": 611}]}, {"term": "Fluid overload", "organSystem": "Metabolism and nutrition disorders", "sourceVocabulary": "23.0", "assessmentType": "SYSTEMATIC_ASSESSMENT", "stats": [{"groupId": "EG000", "numAffected": 0, "numAtRisk": 605}, {"groupId": "EG001", "numAffected": 1, "numAtRisk": 611}]}, {"term": "Gout", "organSystem": "Metabolism and nutrition disorders", "sourceVocabulary": "23.0", "assessmentType": "SYSTEMATIC_ASSESSMENT", "stats": [{"groupId": "EG000", "numAffected": 1, "numAtRisk": 605}, {"groupId": "EG001", "numAffected": 0, "numAtRisk": 611}]}, {"term": "Hyperglycaemia", "organSystem": "Metabolism and nutrition disorders", "sourceVocabulary": "23.0", "assessmentType": "SYSTEMATIC_ASSESSMENT", "stats": [{"groupId": "EG000", "numAffected": 2, "numAtRisk": 605}, {"groupId": "EG001", "numAffected": 4, "numAtRisk": 611}]}, {"term": "Hyperglycaemic hyperosmolar nonketotic syndrome", "organSystem": "Metabolism and nutrition disorders", "sourceVocabulary": "23.0", "assessmentType": "SYSTEMATIC_ASSESSMENT", "stats": [{"groupId": "EG000", "numAffected": 0, "numAtRisk": 605}, {"groupId": "EG001", "numAffected": 1, "numAtRisk": 611}]}, {"term": "Hyperinsulinaemic hypoglycaemia", "organSystem": "Metabolism and nutrition disorders", "sourceVocabulary": "23.0", "assessmentType": "SYSTEMATIC_ASSESSMENT", "stats": [{"groupId": "EG000", "numAffected": 1, "numAtRisk": 605}, {"groupId": "EG001", "numAffected": 0, "numAtRisk": 611}]}, {"term": "Hyperkalaemia", "organSystem": "Metabolism and nutrition disorders", "sourceVocabulary": "23.0", "assessmentType": "SYSTEMATIC_ASSESSMENT", "stats": [{"groupId": "EG000", "numAffected": 1, "numAtRisk": 605}, {"groupId": "EG001", "numAffected": 4, "numAtRisk": 611}]}, {"term": "Hypoglycaemia", "organSystem": "Metabolism and nutrition disorders", "sourceVocabulary": "23.0", "assessmentType": "SYSTEMATIC_ASSESSMENT", "stats": [{"groupId": "EG000", "numAffected": 8, "numAtRisk": 605}, {"groupId": "EG001", "numAffected": 4, "numAtRisk": 611}]}, {"term": "Hypokalaemia", "organSystem": "Metabolism and nutrition disorders", "sourceVocabulary": "23.0", "assessmentType": "SYSTEMATIC_ASSESSMENT", "stats": [{"groupId": "EG000", "numAffected": 0, "numAtRisk": 605}, {"groupId": "EG001", "numAffected": 1, "numAtRisk": 611}]}, {"term": "Hypomagnesaemia", "organSystem": "Metabolism and nutrition disorders", "sourceVocabulary": "23.0", "assessmentType": "SYSTEMATIC_ASSESSMENT", "stats": [{"groupId": "EG000", "numAffected": 0, "numAtRisk": 605}, {"groupId": "EG001", "numAffected": 1, "numAtRisk": 611}]}, {"term": "Hyponatraemia", "organSystem": "Metabolism and nutrition disorders", "sourceVocabulary": "23.0", "assessmentType": "SYSTEMATIC_ASSESSMENT", "stats": [{"groupId": "EG000", "numAffected": 1, "numAtRisk": 605}, {"groupId": "EG001", "numAffected": 4, "numAtRisk": 611}]}, {"term": "Hypovolaemia", "organSystem": "Metabolism and nutrition disorders", "sourceVocabulary": "23.0", "assessmentType": "SYSTEMATIC_ASSESSMENT", "stats": [{"groupId": "EG000", "numAffected": 1, "numAtRisk": 605}, {"groupId": "EG001", "numAffected": 0, "numAtRisk": 611}]}, {"term": "Lactic acidosis", "organSystem": "Metabolism and nutrition disorders", "sourceVocabulary": "23.0", "assessmentType": "SYSTEMATIC_ASSESSMENT", "stats": [{"groupId": "EG000", "numAffected": 1, "numAtRisk": 605}, {"groupId": "EG001", "numAffected": 0, "numAtRisk": 611}]}, {"term": "Metabolic acidosis", "organSystem": "Metabolism and nutrition disorders", "sourceVocabulary": "23.0", "assessmentType": "SYSTEMATIC_ASSESSMENT", "stats": [{"groupId": "EG000", "numAffected": 1, "numAtRisk": 605}, {"groupId": "EG001", "numAffected": 0, "numAtRisk": 611}]}, {"term": "Metabolic disorder", "organSystem": "Metabolism and nutrition disorders", "sourceVocabulary": "23.0", "assessmentType": "SYSTEMATIC_ASSESSMENT", "stats": [{"groupId": "EG000", "numAffected": 1, "numAtRisk": 605}, {"groupId": "EG001", "numAffected": 0, "numAtRisk": 611}]}, {"term": "Abdominal sepsis", "organSystem": "Infections and infestations", "sourceVocabulary": "23.0", "assessmentType": "SYSTEMATIC_ASSESSMENT", "stats": [{"groupId": "EG000", "numAffected": 0, "numAtRisk": 605}, {"groupId": "EG001", "numAffected": 1, "numAtRisk": 611}]}, {"term": "Bronchitis", "organSystem": "Infections and infestations", "sourceVocabulary": "23.0", "assessmentType": "SYSTEMATIC_ASSESSMENT", "stats": [{"groupId": "EG000", "numAffected": 2, "numAtRisk": 605}, {"groupId": "EG001", "numAffected": 2, "numAtRisk": 611}]}, {"term": "Bronchitis viral", "organSystem": "Infections and infestations", "sourceVocabulary": "23.0", "assessmentType": "SYSTEMATIC_ASSESSMENT", "stats": [{"groupId": "EG000", "numAffected": 0, "numAtRisk": 605}, {"groupId": "EG001", "numAffected": 1, "numAtRisk": 611}]}, {"term": "COVID-19", "organSystem": "Infections and infestations", "sourceVocabulary": "23.0", "assessmentType": "SYSTEMATIC_ASSESSMENT", "stats": [{"groupId": "EG000", "numAffected": 1, "numAtRisk": 605}, {"groupId": "EG001", "numAffected": 2, "numAtRisk": 611}]}, {"term": "Cellulitis", "organSystem": "Infections and infestations", "sourceVocabulary": "23.0", "assessmentType": "SYSTEMATIC_ASSESSMENT", "stats": [{"groupId": "EG000", "numAffected": 4, "numAtRisk": 605}, {"groupId": "EG001", "numAffected": 1, "numAtRisk": 611}]}, {"term": "Clostridium difficile infection", "organSystem": "Infections and infestations", "sourceVocabulary": "23.0", "assessmentType": "SYSTEMATIC_ASSESSMENT", "stats": [{"groupId": "EG000", "numAffected": 1, "numAtRisk": 605}, {"groupId": "EG001", "numAffected": 0, "numAtRisk": 611}]}, {"term": "Endocarditis", "organSystem": "Infections and infestations", "sourceVocabulary": "23.0", "assessmentType": "SYSTEMATIC_ASSESSMENT", "stats": [{"groupId": "EG000", "numAffected": 1, "numAtRisk": 605}, {"groupId": "EG001", "numAffected": 1, "numAtRisk": 611}]}, {"term": "Erysipelas", "organSystem": "Infections and infestations", "sourceVocabulary": "23.0", "assessmentType": "SYSTEMATIC_ASSESSMENT", "stats": [{"groupId": "EG000", "numAffected": 0, "numAtRisk": 605}, {"groupId": "EG001", "numAffected": 1, "numAtRisk": 611}]}, {"term": "Gangrene", "organSystem": "Infections and infestations", "sourceVocabulary": "23.0", "assessmentType": "SYSTEMATIC_ASSESSMENT", "stats": [{"groupId": "EG000", "numAffected": 2, "numAtRisk": 605}, {"groupId": "EG001", "numAffected": 0, "numAtRisk": 611}]}, {"term": "Gastroenteritis", "organSystem": "Infections and infestations", "sourceVocabulary": "23.0", "assessmentType": "SYSTEMATIC_ASSESSMENT", "stats": [{"groupId": "EG000", "numAffected": 0, "numAtRisk": 605}, {"groupId": "EG001", "numAffected": 2, "numAtRisk": 611}]}, {"term": "Gastroenteritis clostridial", "organSystem": "Infections and infestations", "sourceVocabulary": "23.0", "assessmentType": "SYSTEMATIC_ASSESSMENT", "stats": [{"groupId": "EG000", "numAffected": 1, "numAtRisk": 605}, {"groupId": "EG001", "numAffected": 0, "numAtRisk": 611}]}, {"term": "Gastroenteritis salmonella", "organSystem": "Infections and infestations", "sourceVocabulary": "23.0", "assessmentType": "SYSTEMATIC_ASSESSMENT", "stats": [{"groupId": "EG000", "numAffected": 0, "numAtRisk": 605}, {"groupId": "EG001", "numAffected": 1, "numAtRisk": 611}]}, {"term": "Gastroenteritis viral", "organSystem": "Infections and infestations", "sourceVocabulary": "23.0", "assessmentType": "SYSTEMATIC_ASSESSMENT", "stats": [{"groupId": "EG000", "numAffected": 1, "numAtRisk": 605}, {"groupId": "EG001", "numAffected": 0, "numAtRisk": 611}]}, {"term": "Herpes zoster", "organSystem": "Infections and infestations", "sourceVocabulary": "23.0", "assessmentType": "SYSTEMATIC_ASSESSMENT", "stats": [{"groupId": "EG000", "numAffected": 0, "numAtRisk": 605}, {"groupId": "EG001", "numAffected": 1, "numAtRisk": 611}]}, {"term": "Infected skin ulcer", "organSystem": "Infections and infestations", "sourceVocabulary": "23.0", "assessmentType": "SYSTEMATIC_ASSESSMENT", "stats": [{"groupId": "EG000", "numAffected": 0, "numAtRisk": 605}, {"groupId": "EG001", "numAffected": 2, "numAtRisk": 611}]}, {"term": "Infective exacerbation of chronic obstructive airways disease", "organSystem": "Infections and infestations", "sourceVocabulary": "23.0", "assessmentType": "SYSTEMATIC_ASSESSMENT", "stats": [{"groupId": "EG000", "numAffected": 1, "numAtRisk": 605}, {"groupId": "EG001", "numAffected": 0, "numAtRisk": 611}]}, {"term": "Infective thrombosis", "organSystem": "Infections and infestations", "sourceVocabulary": "23.0", "assessmentType": "SYSTEMATIC_ASSESSMENT", "stats": [{"groupId": "EG000", "numAffected": 0, "numAtRisk": 605}, {"groupId": "EG001", "numAffected": 1, "numAtRisk": 611}]}, {"term": "Influenza", "organSystem": "Infections and infestations", "sourceVocabulary": "23.0", "assessmentType": "SYSTEMATIC_ASSESSMENT", "stats": [{"groupId": "EG000", "numAffected": 1, "numAtRisk": 605}, {"groupId": "EG001", "numAffected": 1, "numAtRisk": 611}]}, {"term": "Lower respiratory tract infection", "organSystem": "Infections and infestations", "sourceVocabulary": "23.0", "assessmentType": "SYSTEMATIC_ASSESSMENT", "stats": [{"groupId": "EG000", "numAffected": 0, "numAtRisk": 605}, {"groupId": "EG001", "numAffected": 1, "numAtRisk": 611}]}, {"term": "Osteomyelitis", "organSystem": "Infections and infestations", "sourceVocabulary": "23.0", "assessmentType": "SYSTEMATIC_ASSESSMENT", "stats": [{"groupId": "EG000", "numAffected": 0, "numAtRisk": 605}, {"groupId": "EG001", "numAffected": 1, "numAtRisk": 611}]}, {"term": "Pharyngeal abscess", "organSystem": "Infections and infestations", "sourceVocabulary": "23.0", "assessmentType": "SYSTEMATIC_ASSESSMENT", "stats": [{"groupId": "EG000", "numAffected": 0, "numAtRisk": 605}, {"groupId": "EG001", "numAffected": 1, "numAtRisk": 611}]}, {"term": "Pharyngotonsillitis", "organSystem": "Infections and infestations", "sourceVocabulary": "23.0", "assessmentType": "SYSTEMATIC_ASSESSMENT", "stats": [{"groupId": "EG000", "numAffected": 1, "numAtRisk": 605}, {"groupId": "EG001", "numAffected": 0, "numAtRisk": 611}]}, {"term": "Pneumonia", "organSystem": "Infections and infestations", "sourceVocabulary": "23.0", "assessmentType": "SYSTEMATIC_ASSESSMENT", "stats": [{"groupId": "EG000", "numAffected": 19, "numAtRisk": 605}, {"groupId": "EG001", "numAffected": 26, "numAtRisk": 611}]}, {"term": "Pneumonia bacterial", "organSystem": "Infections and infestations", "sourceVocabulary": "23.0", "assessmentType": "SYSTEMATIC_ASSESSMENT", "stats": [{"groupId": "EG000", "numAffected": 0, "numAtRisk": 605}, {"groupId": "EG001", "numAffected": 1, "numAtRisk": 611}]}, {"term": "Pulmonary sepsis", "organSystem": "Infections and infestations", "sourceVocabulary": "23.0", "assessmentType": "SYSTEMATIC_ASSESSMENT", "stats": [{"groupId": "EG000", "numAffected": 0, "numAtRisk": 605}, {"groupId": "EG001", "numAffected": 1, "numAtRisk": 611}]}, {"term": "Pyelonephritis", "organSystem": "Infections and infestations", "sourceVocabulary": "23.0", "assessmentType": "SYSTEMATIC_ASSESSMENT", "stats": [{"groupId": "EG000", "numAffected": 2, "numAtRisk": 605}, {"groupId": "EG001", "numAffected": 1, "numAtRisk": 611}]}, {"term": "Pyelonephritis acute", "organSystem": "Infections and infestations", "sourceVocabulary": "23.0", "assessmentType": "SYSTEMATIC_ASSESSMENT", "stats": [{"groupId": "EG000", "numAffected": 1, "numAtRisk": 605}, {"groupId": "EG001", "numAffected": 0, "numAtRisk": 611}]}, {"term": "Respiratory syncytial virus infection", "organSystem": "Infections and infestations", "sourceVocabulary": "23.0", "assessmentType": "SYSTEMATIC_ASSESSMENT", "stats": [{"groupId": "EG000", "numAffected": 1, "numAtRisk": 605}, {"groupId": "EG001", "numAffected": 0, "numAtRisk": 611}]}, {"term": "Respiratory tract infection", "organSystem": "Infections and infestations", "sourceVocabulary": "23.0", "assessmentType": "SYSTEMATIC_ASSESSMENT", "stats": [{"groupId": "EG000", "numAffected": 1, "numAtRisk": 605}, {"groupId": "EG001", "numAffected": 2, "numAtRisk": 611}]}, {"term": "Sepsis", "organSystem": "Infections and infestations", "sourceVocabulary": "23.0", "assessmentType": "SYSTEMATIC_ASSESSMENT", "stats": [{"groupId": "EG000", "numAffected": 0, "numAtRisk": 605}, {"groupId": "EG001", "numAffected": 4, "numAtRisk": 611}]}, {"term": "Septic shock", "organSystem": "Infections and infestations", "sourceVocabulary": "23.0", "assessmentType": "SYSTEMATIC_ASSESSMENT", "stats": [{"groupId": "EG000", "numAffected": 2, "numAtRisk": 605}, {"groupId": "EG001", "numAffected": 4, "numAtRisk": 611}]}, {"term": "Skin infection", "organSystem": "Infections and infestations", "sourceVocabulary": "23.0", "assessmentType": "SYSTEMATIC_ASSESSMENT", "stats": [{"groupId": "EG000", "numAffected": 0, "numAtRisk": 605}, {"groupId": "EG001", "numAffected": 1, "numAtRisk": 611}]}, {"term": "Soft tissue infection", "organSystem": "Infections and infestations", "sourceVocabulary": "23.0", "assessmentType": "SYSTEMATIC_ASSESSMENT", "stats": [{"groupId": "EG000", "numAffected": 1, "numAtRisk": 605}, {"groupId": "EG001", "numAffected": 0, "numAtRisk": 611}]}, {"term": "Staphylococcal bacteraemia", "organSystem": "Infections and infestations", "sourceVocabulary": "23.0", "assessmentType": "SYSTEMATIC_ASSESSMENT", "stats": [{"groupId": "EG000", "numAffected": 1, "numAtRisk": 605}, {"groupId": "EG001", "numAffected": 0, "numAtRisk": 611}]}, {"term": "Tracheobronchitis", "organSystem": "Infections and infestations", "sourceVocabulary": "23.0", "assessmentType": "SYSTEMATIC_ASSESSMENT", "stats": [{"groupId": "EG000", "numAffected": 0, "numAtRisk": 605}, {"groupId": "EG001", "numAffected": 1, "numAtRisk": 611}]}, {"term": "Upper respiratory tract infection", "organSystem": "Infections and infestations", "sourceVocabulary": "23.0", "assessmentType": "SYSTEMATIC_ASSESSMENT", "stats": [{"groupId": "EG000", "numAffected": 1, "numAtRisk": 605}, {"groupId": "EG001", "numAffected": 0, "numAtRisk": 611}]}, {"term": "Urinary tract infection", "organSystem": "Infections and infestations", "sourceVocabulary": "23.0", "assessmentType": "SYSTEMATIC_ASSESSMENT", "stats": [{"groupId": "EG000", "numAffected": 2, "numAtRisk": 605}, {"groupId": "EG001", "numAffected": 6, "numAtRisk": 611}]}, {"term": "Urosepsis", "organSystem": "Infections and infestations", "sourceVocabulary": "23.0", "assessmentType": "SYSTEMATIC_ASSESSMENT", "stats": [{"groupId": "EG000", "numAffected": 3, "numAtRisk": 605}, {"groupId": "EG001", "numAffected": 1, "numAtRisk": 611}]}, {"term": "Viral infection", "organSystem": "Infections and infestations", "sourceVocabulary": "23.0", "assessmentType": "SYSTEMATIC_ASSESSMENT", "stats": [{"groupId": "EG000", "numAffected": 0, "numAtRisk": 605}, {"groupId": "EG001", "numAffected": 1, "numAtRisk": 611}]}], "otherEvents": [{"term": "Hypotension", "organSystem": "Vascular disorders", "sourceVocabulary": "23.0", "assessmentType": "SYSTEMATIC_ASSESSMENT", "stats": [{"groupId": "EG000", "numAffected": 33, "numAtRisk": 605}, {"groupId": "EG001", "numAffected": 27, "numAtRisk": 611}]}, {"term": "Cardiac failure", "organSystem": "Cardiac disorders", "sourceVocabulary": "23.0", "assessmentType": "SYSTEMATIC_ASSESSMENT", "stats": [{"groupId": "EG000", "numAffected": 41, "numAtRisk": 605}, {"groupId": "EG001", "numAffected": 57, "numAtRisk": 611}]}, {"term": "Diarrhoea", "organSystem": "Gastrointestinal disorders", "sourceVocabulary": "23.0", "assessmentType": "SYSTEMATIC_ASSESSMENT", "stats": [{"groupId": "EG000", "numAffected": 36, "numAtRisk": 605}, {"groupId": "EG001", "numAffected": 18, "numAtRisk": 611}]}]}, "moreInfoModule": {"limitationsAndCaveats": {"description": "Limitations of the trial such as small numbers of participants analyzed or technical problems leading to unreliable data.\n\nThe study was terminated prematurely due to business decision."}, "certainAgreement": {"piSponsorEmployee": false, "restrictionType": "OTHER", "restrictiveAgreement": true, "otherDetails": "Institution must provide any proposed publication or presentation to Sponsor for Sponsor's review, comment and approval at least thirty (30) days prior to the proposed submission for publication date or the proposed presentation date. Sponsor shall have the right to have deleted from the final version of the publication any confidential information, proprietary information, or patentable subject matter."}, "pointOfContact": {"title": "Medical Affairs", "organization": "Lexicon Pharmaceuticals, Inc.", "email": "medical-information@lexpharma.com", "phone": "(510) 338-6064"}}}, "documentSection": {"largeDocumentModule": {"largeDocs": [{"typeAbbrev": "Prot", "hasProtocol": true, "hasSap": false, "hasIcf": false, "label": "Study Protocol", "date": "2018-12-17", "uploadDate": "2022-09-30T02:27", "filename": "Prot_000.pdf", "size": 3452879}, {"typeAbbrev": "SAP", "hasProtocol": false, "hasSap": true, "hasIcf": false, "label": "Statistical Analysis Plan", "date": "2020-08-09", "uploadDate": "2022-09-30T02:26", "filename": "SAP_001.pdf", "size": 5801274}]}}, "derivedSection": {"miscInfoModule": {"versionHolder": "2024-06-24"}, "conditionBrowseModule": {"meshes": [{"id": "D000006333", "term": "Heart Failure"}, {"id": "D000003920", "term": "Diabetes Mellitus"}, {"id": "D000003924", "term": "Diabetes Mellitus, Type 2"}], "ancestors": [{"id": "D000044882", "term": "Glucose Metabolism Disorders"}, {"id": "D000008659", "term": "Metabolic Diseases"}, {"id": "D000004700", "term": "Endocrine System Diseases"}, {"id": "D000006331", "term": "Heart Diseases"}, {"id": "D000002318", "term": "Cardiovascular Diseases"}], "browseLeaves": [{"id": "M7115", "name": "Diabetes Mellitus", "asFound": "Diabetes", "relevance": "HIGH"}, {"id": "M7119", "name": "Diabetes Mellitus, Type 2", "asFound": "Type 2 Diabetes", "relevance": "HIGH"}, {"id": "M9421", "name": "Heart Failure", "asFound": "Heart Failure", "relevance": "HIGH"}, {"id": "M11639", "name": "Metabolic Diseases", "relevance": "LOW"}, {"id": "M25403", "name": "Glucose Metabolism Disorders", "relevance": "LOW"}, {"id": "M7862", "name": "Endocrine System Diseases", "relevance": "LOW"}, {"id": "M9419", "name": "Heart Diseases", "relevance": "LOW"}], "browseBranches": [{"abbrev": "BC18", "name": "Nutritional and Metabolic Diseases"}, {"abbrev": "BC19", "name": "Gland and Hormone Related Diseases"}, {"abbrev": "All", "name": "All Conditions"}, {"abbrev": "BC14", "name": "Heart and Blood Diseases"}]}, "interventionBrowseModule": {"meshes": [{"id": "C000575681", "term": "(2S,3R,4R,5S,6R)-2-(4-chloro-3-(4-ethoxybenzyl)phenyl)-6-(methylthio)tetrahydro-2H-pyran-3,4,5-triol"}], "ancestors": [{"id": "D000077203", "term": "Sodium-Glucose Transporter 2 Inhibitors"}, {"id": "D000045504", "term": "Molecular Mechanisms of Pharmacological Action"}, {"id": "D000007004", "term": "Hypoglycemic Agents"}, {"id": "D000045505", "term": "Physiological Effects of Drugs"}], "browseLeaves": [{"id": "M254783", "name": "(2S,3R,4R,5S,6R)-2-(4-chloro-3-(4-ethoxybenzyl)phenyl)-6-(methylthio)tetrahydro-2H-pyran-3,4,5-triol", "asFound": "BAY 43-9006", "relevance": "HIGH"}, {"id": "M1691", "name": "Sodium-Glucose Transporter 2 Inhibitors", "relevance": "LOW"}, {"id": "M10054", "name": "Hypoglycemic Agents", "relevance": "LOW"}], "browseBranches": [{"abbrev": "Hypo", "name": "Hypoglycemic Agents"}, {"abbrev": "All", "name": "All Drugs and Chemicals"}]}}, "hasResults": true}