{"protocolSection": {"identificationModule": {"nctId": "NCT01517412", "orgStudyIdInfo": {"id": "EFC12261"}, "secondaryIdInfos": [{"id": "2011-002416-85", "type": "EUDRACT_NUMBER"}, {"id": "U1111-1118-0841", "type": "OTHER", "domain": "UTN"}], "organization": {"fullName": "Sanofi", "class": "INDUSTRY"}, "briefTitle": "Comparison of Lixisenatide Injected Prior to the Main Meal of the Day Versus Prior to Breakfast in Type 2 Diabetic Patients on Metformin", "officialTitle": "A 24-week, Open-label, Randomized, 2-arm Parallel Group, Multinational, Multi-center Clinical Trial to Compare the Efficacy and Safety of Lixisenatide Injected Prior to the Main Meal of the Day Versus Lixisenatide Injected Prior to Breakfast in Type 2 Diabetic Patients Not Adequately Controlled on Metformin"}, "statusModule": {"statusVerifiedDate": "2016-08", "overallStatus": "COMPLETED", "expandedAccessInfo": {"hasExpandedAccess": false}, "startDateStruct": {"date": "2012-02"}, "primaryCompletionDateStruct": {"date": "2013-05", "type": "ACTUAL"}, "completionDateStruct": {"date": "2013-05", "type": "ACTUAL"}, "studyFirstSubmitDate": "2012-01-16", "studyFirstSubmitQcDate": "2012-01-20", "studyFirstPostDateStruct": {"date": "2012-01-25", "type": "ESTIMATED"}, "resultsFirstSubmitDate": "2016-08-22", "resultsFirstSubmitQcDate": "2016-08-22", "resultsFirstPostDateStruct": {"date": "2016-10-14", "type": "ESTIMATED"}, "dispFirstSubmitDate": "2014-05-06", "dispFirstSubmitQcDate": "2014-05-06", "dispFirstPostDateStruct": {"date": "2014-05-22", "type": "ESTIMATED"}, "lastUpdateSubmitDate": "2016-08-22", "lastUpdatePostDateStruct": {"date": "2016-10-14", "type": "ESTIMATED"}}, "sponsorCollaboratorsModule": {"responsibleParty": {"type": "SPONSOR"}, "leadSponsor": {"name": "Sanofi", "class": "INDUSTRY"}}, "oversightModule": {"oversightHasDmc": true}, "descriptionModule": {"briefSummary": "Primary Objective:\n\n- To compare the two treatment regimens in terms of change of glycosylated hemoglobin (HbA1c) from baseline to endpoint (Week 24)\n\nSecondary Objective:\n\n* To assess the effect of the 2 lixisenatide regimens on:\n\n  * The percentage of participants who reached the target of HbA1c \\< 7% or \u2264 6.5% at Week 24\n  * Fasting Plasma Glucose (FPG)\n  * 7-point Self-Monitored Plasma Glucose (SMPG) profiles\n  * Body weight\n* To assess the safety and tolerability of the 2 lixisenatide regimens", "detailedDescription": "The maximum study duration was 28 weeks per participant, including a 24-week randomized treatment period."}, "conditionsModule": {"conditions": ["Type 2 Diabetes Mellitus"]}, "designModule": {"studyType": "INTERVENTIONAL", "phases": ["PHASE3"], "designInfo": {"allocation": "RANDOMIZED", "interventionModel": "PARALLEL", "primaryPurpose": "TREATMENT", "maskingInfo": {"masking": "NONE"}}, "enrollmentInfo": {"count": 451, "type": "ACTUAL"}}, "armsInterventionsModule": {"armGroups": [{"label": "Lixisenatide Main Meal", "type": "EXPERIMENTAL", "description": "Lixisenatide 10 mcg once daily (QD) within 1 hour before \"main meal of the day\" for 2 weeks, then at a maintenance dose of 20 mcg QD up to Week 24.", "interventionNames": ["Drug: Lixisenatide (AVE0010)", "Device: Self-injector pen device (OptiClik\u00ae)", "Drug: Metformin"]}, {"label": "Lixisenatide Breakfast", "type": "ACTIVE_COMPARATOR", "description": "Lixisenatide 10 mcg QD within 1 hour before \"breakfast\" for 2 weeks, then at a maintenance dose of 20 mcg QD up to Week 24.", "interventionNames": ["Drug: Lixisenatide (AVE0010)", "Device: Self-injector pen device (OptiClik\u00ae)", "Drug: Metformin"]}], "interventions": [{"type": "DRUG", "name": "Lixisenatide (AVE0010)", "description": "Pharmaceutical form: Solution for injection; Route of administration: Subcutaneous", "armGroupLabels": ["Lixisenatide Breakfast", "Lixisenatide Main Meal"]}, {"type": "DEVICE", "name": "Self-injector pen device (OptiClik\u00ae)", "armGroupLabels": ["Lixisenatide Breakfast", "Lixisenatide Main Meal"]}, {"type": "DRUG", "name": "Metformin", "description": "To be kept at stable dose (\u22651.5 g/day) throughout the study.", "armGroupLabels": ["Lixisenatide Breakfast", "Lixisenatide Main Meal"], "otherNames": ["Route of administration: Oral"]}]}, "outcomesModule": {"primaryOutcomes": [{"measure": "Change in HbA1c From Baseline to Week 24", "description": "Change in HbA1C was calculated by subtracting baseline value from Week 24 value. Missing data was imputed using last observation carried forward (LOCF). On-treatment period for this efficacy variable was defined as the time from the first dose of study drug up to 14 days after the last dose of study drug. Here, number of participants analyzed = participants with baseline and at least one post-baseline HbA1c assessment during on-treatment period.", "timeFrame": "Baseline, Week 24"}], "secondaryOutcomes": [{"measure": "Percentage of Participants With HbA1c Level <7 % or \u22646.5% at Week 24", "description": "Here, number of participants analyzed = participants with baseline and at least one post-baseline HbA1c assessment during on-treatment period.", "timeFrame": "Week 24"}, {"measure": "Change in Average 7-point SMPG Profiles From Baseline to Week 24", "description": "Participants recorded a 7-point plasma glucose profile measured before and 2 hours after each meal and at bedtime two times in a week before baseline, before visit Week 8, before visit Week 12 and before visit week 24. The average value across the profiles performed in the week a visit for the 7-time points was calculated. Change in average 7-point SMPG was calculated by subtracting baseline value from Week 24 value. Missing data was imputed using LOCF. The on-treatment period for this efficacy variable was defined as the time from the first dose of study drug up to the day of last dose of study drug. Here, number of participants analyzed = participants with baseline and at least one post-baseline 7-point SMPG assessment during on-treatment period.", "timeFrame": "Baseline, Week 24"}, {"measure": "Change in FPG From Baseline to Week 24", "description": "Change in FPG was calculated by subtracting baseline value from Week 24 value. Missing data was imputed using LOCF. The on-treatment period for this efficacy variable was the time from the first dose of study drug up to 1 day after the last dose of study drug. Here, number of participants analyzed = participants with baseline and at least one post-baseline FPG assessment during on-treatment period.", "timeFrame": "Baseline, Week 24"}, {"measure": "Change in Body Weight From Baseline to Week 24", "description": "Change in body weight was calculated by subtracting baseline value from Week 24 value. Missing data was imputed using LOCF. On-treatment period for this efficacy variable was defined as the time from the first dose of study drug up to 3 days after the last dose of study drug. Here, number of participants analyzed = participants with baseline and at least one post-baseline body weight assessment during on-treatment period.", "timeFrame": "Baseline, Week 24"}, {"measure": "Percentage of Participants Who Reached the Target of HbA1c <7% at Week 24 And Did Not Experience Confirmed Symptomatic Hypoglycemia (Plasma Glucose [PG] <60 mg/dL [3.3 mmol/L]) During 24-Week Treatment Period", "description": "Symptomatic hypoglycemia was defined as an event with clinical symptoms that were considered to result from hypoglycemic episode with an accompanying PG\\<60 mg/dL (3.3 mmol/L) or associated with prompt recovery after oral carbohydrate if no PG measurement was available. On-treatment period for symptomatic hypoglycemia assessment was defined as time from first dose of study drug up to 1 day after last dose of study drug. Participants without any post-baseline on-treatment value for HbA1c were counted as non-responders if they experienced at least one symptomatic hypoglycemia. Otherwise, they were counted as missing.", "timeFrame": "Week 24"}, {"measure": "Percentage of Participants Who Reached the Target of HbA1c <7% And Had No Body Weight Gain at Week 24", "description": "Participants without post-baseline on-treatment values for (HbA1c and body weight) that were no more than 30 days apart were counted as non-responders if at least one of the components (HbA1c and/or body weight) was available and showed no response. Otherwise, they were counted as missing.", "timeFrame": "Week 24"}, {"measure": "Percentage of Participants Who Reached the Target of HbA1c <7% And Had No Body Weight Gain at Week 24 And Did Not Experience Confirmed Symptomatic Hypoglycemia (PG<60 mg/dL [3.3 mmol/L]) During the 24-Week Treatment Period", "description": "Participants without post-baseline on-treatment values (for HbA1c and body weight) that were no more than 30 days apart not more than 30-days apart were counted as non-responders if at least one of components (HbA1c and/or body weight) was available and showed no response. Otherwise, they were counted as missing.", "timeFrame": "Week 24"}, {"measure": "Percentage of Participants Who Reached the Target of HbA1c <7% And Had a 2-hour Postprandial Plasma Glucose (PPG) <140mg/dL After Breakfast or Main Meal At Week 24", "description": "On-treatment period for 2-hour PPG assessment was defined as the time from the first dose of study drug up to the day of last dose of study drug. Participants without post-baseline on-treatment values (for HbA1c and 2-hour PPG) that were no more than 30-days apart were counted as non-responders if at least one of the components (HbA1cand/or 2-hour PPG) was available and showed no response. Otherwise, they were counted as missing.", "timeFrame": "Week 24"}, {"measure": "Change in Diabetes Treatment Satisfaction Questionnaire Score (DTSQs) From Baseline to Week 24", "description": "DTSQ is a validated measure to assess how satisfied participants with diabetes are with their treatment and how they perceive hyper- and hypoglycemia. It consists of 8 questions which are answered on a Likert scale from 0 to 6. DTSQ treatment satisfaction score is the sum of question 1, 4, 5, 6, 7 and 8 scores and ranges between 0 and 36, where higher scores indicate more treatment satisfaction. On-treatment period for treatment satisfaction assessment was defined as the time from the first dose of study drug up to 3 days after the last dose of study drug. Missing data was imputed using LOCF. Here, number of participants analyzed = participants with both baseline and Week 24 DTSQ score assessment during on-treatment period.", "timeFrame": "Baseline, Week 24"}]}, "eligibilityModule": {"eligibilityCriteria": "Inclusion criteria:\n\n* Participants with type 2 diabetes mellitus, diagnosed for at least 1 year before screening visit\n* Metformin treatment at a stable dose of at least 1.5 g/day for at least 3 months prior to screening visit.\n\nExclusion criteria:\n\n* Screening HbA1c \\< 7.0% and \\> 10.0%\n* Fasting plasma glucose at screening \\> 250 mg/dL (\\> 13.9 mmol/L)\n* Treatment with glucose-lowering agent(s) other than metformin in a period of 3 months prior to screening, previous use of insulin\n* Participants who usually did not eat breakfast\n* Type 1 diabetes mellitus\n* Body Mass Index (BMI) \u2264 20 kg/m\\^2 and \\> 40 kg/m\\^2\n* Pregnancy or lactation, women of childbearing potential with no effective contraceptive method\n* Amylase and/or lipase \\> 3 times the upper limit of the normal laboratory range ( ULN) at screening\n* Alanine aminotransferase (ALT) \\> 3 ULN at screening\n* Calcitonin \u2267 20 pg/ml (5.9 pmol/L) at screening\n* History of unexplained pancreatitis, chronic pancreatitis, pancreatectomy.\n* Personal or immediate family history of medullary thyroid cancer (MTC) or genetic conditions that predisposes to MTC (e.g. multiple endocrine neoplasia syndromes)\n* Any contra-indication related to metformin\n* Any previous treatment with lixisenatide\n\nThe above information was not intended to contain all considerations relevant to a participant's potential participation in a clinical trial.", "healthyVolunteers": false, "sex": "ALL", "minimumAge": "18 Years", "stdAges": ["ADULT", "OLDER_ADULT"]}, "contactsLocationsModule": {"overallOfficials": [{"name": "Clinical Sciences & Operations", "affiliation": "Sanofi", "role": "STUDY_DIRECTOR"}], "locations": [{"facility": "Investigational Site Number 840112", "city": "Glendale", "state": "Arizona", "zip": "85306", "country": "United States", "geoPoint": {"lat": 33.53865, "lon": -112.18599}}, {"facility": "Investigational Site Number 840113", "city": "Mesa", "state": "Arizona", "zip": "85213", "country": "United States", "geoPoint": {"lat": 33.42227, "lon": -111.82264}}, {"facility": "Investigational Site Number 840105", "city": "Phoenix", "state": "Arizona", "zip": "85028", "country": "United States", "geoPoint": {"lat": 33.44838, "lon": -112.07404}}, {"facility": "Investigational Site Number 840102", "city": "Tempe", "state": "Arizona", "zip": "85282", "country": "United States", "geoPoint": {"lat": 33.41477, "lon": -111.90931}}, {"facility": "Investigational Site Number 840107", "city": "Tempe", "state": "Arizona", "country": "United States", "geoPoint": {"lat": 33.41477, "lon": -111.90931}}, {"facility": "Investigational Site Number 840116", "city": "Mission Viejo", "state": "California", "zip": "92691", "country": "United States", "geoPoint": {"lat": 33.60002, "lon": -117.672}}, {"facility": "Investigational Site Number 840103", "city": "Northridge", "state": "California", "zip": "91325", "country": "United States", "geoPoint": {"lat": 34.22834, "lon": -118.53675}}, {"facility": "Investigational Site Number 840118", "city": "Redlands", "state": "California", "zip": "92374", "country": "United States", "geoPoint": {"lat": 34.05557, "lon": -117.18254}}, {"facility": "Investigational Site Number 840104", "city": "Temecula", "state": "California", "zip": "92591", "country": "United States", "geoPoint": {"lat": 33.49364, "lon": -117.14836}}, {"facility": "Investigational Site Number 840122", "city": "Chicago", "state": "Illinois", "zip": "60611", "country": "United States", "geoPoint": {"lat": 41.85003, "lon": -87.65005}}, {"facility": "Investigational Site Number 840119", "city": "Chicago", "state": "Illinois", "zip": "60616", "country": "United States", "geoPoint": {"lat": 41.85003, "lon": -87.65005}}, {"facility": "Investigational Site Number 840114", "city": "Springfield", "state": "Illinois", "zip": "62704", "country": "United States", "geoPoint": {"lat": 39.80172, "lon": -89.64371}}, {"facility": "Investigational Site Number 840120", "city": "Flint", "state": "Michigan", "zip": "48504", "country": "United States", "geoPoint": {"lat": 43.01253, "lon": -83.68746}}, {"facility": "Investigational Site Number 840115", "city": "Billings", "state": "Montana", "zip": "59103", "country": "United States", "geoPoint": {"lat": 45.78329, "lon": -108.50069}}, {"facility": "Investigational Site Number 840101", "city": "Sea Girt", "state": "New Jersey", "zip": "08750", "country": "United States", "geoPoint": {"lat": 40.13206, "lon": -74.03458}}, {"facility": "Investigational Site Number 840111", "city": "Fargo", "state": "North Dakota", "zip": "58103", "country": "United States", "geoPoint": {"lat": 46.87719, "lon": -96.7898}}, {"facility": "Investigational Site Number 840110", "city": "West Jordan", "state": "Utah", "zip": "84088", "country": "United States", "geoPoint": {"lat": 40.60967, "lon": -111.9391}}, {"facility": "Investigational Site Number 124102", "city": "Brampton", "zip": "L6R 3J5", "country": "Canada", "geoPoint": {"lat": 43.68341, "lon": -79.76633}}, {"facility": "Investigational Site Number 124108", "city": "Coquitlam", "zip": "V3K 3P4", "country": "Canada", "geoPoint": {"lat": 49.28297, "lon": -122.75262}}, {"facility": "Investigational Site Number 124106", "city": "Etobicoke", "zip": "M9R 4E1", "country": "Canada", "geoPoint": {"lat": 43.65421, "lon": -79.56711}}, {"facility": "Investigational Site Number 124113", "city": "Kelowna", "zip": "V1Y 1Z9", "country": "Canada", "geoPoint": {"lat": 49.88307, "lon": -119.48568}}, {"facility": "Investigational Site Number 124110", "city": "Laval", "zip": "H7T 2P5", "country": "Canada", "geoPoint": {"lat": 45.56995, "lon": -73.692}}, {"facility": "Investigational Site Number 124103", "city": "Newmarket", "zip": "L3Y 5G8", "country": "Canada", "geoPoint": {"lat": 44.05011, "lon": -79.46631}}, {"facility": "Investigational Site Number 124101", "city": "Oakville", "zip": "L6H 3P1", "country": "Canada", "geoPoint": {"lat": 43.45011, "lon": -79.68292}}, {"facility": "Investigational Site Number 124111", "city": "St-Romuald", "zip": "G6W 5M6", "country": "Canada", "geoPoint": {"lat": 46.75818, "lon": -71.23921}}, {"facility": "Investigational Site Number 124104", "city": "Thornhill", "zip": "L4J 8L7", "country": "Canada"}, {"facility": "Investigational Site Number 124105", "city": "Toronto", "zip": "M9V 4B4", "country": "Canada", "geoPoint": {"lat": 43.70011, "lon": -79.4163}}, {"facility": "Investigational Site Number 124112", "city": "Vancouver", "zip": "V5Z 1M9", "country": "Canada", "geoPoint": {"lat": 49.24966, "lon": -123.11934}}, {"facility": "Investigational Site Number 203104", "city": "Plzen", "zip": "32600", "country": "Czech Republic", "geoPoint": {"lat": 49.74747, "lon": 13.37759}}, {"facility": "Investigational Site Number 203102", "city": "Praha 10", "zip": "10000", "country": "Czech Republic", "geoPoint": {"lat": 50.08804, "lon": 14.42076}}, {"facility": "Investigational Site Number 203101", "city": "Praha 10", "zip": "10034", "country": "Czech Republic", "geoPoint": {"lat": 50.08804, "lon": 14.42076}}, {"facility": "Investigational Site Number 203105", "city": "Praha 2", "zip": "12808", "country": "Czech Republic", "geoPoint": {"lat": 50.08804, "lon": 14.42076}}, {"facility": "Investigational Site Number 203103", "city": "Trutnov", "zip": "54101", "country": "Czech Republic", "geoPoint": {"lat": 50.56101, "lon": 15.9127}}, {"facility": "Investigational Site Number 203106", "city": "Ujezd U Brna", "zip": "664 53", "country": "Czech Republic"}, {"facility": "Investigational Site Number 250108", "city": "Clermont Ferrand", "zip": "63000", "country": "France", "geoPoint": {"lat": 45.77966, "lon": 3.08628}}, {"facility": "Investigational Site Number 250102", "city": "Menton", "zip": "06500", "country": "France", "geoPoint": {"lat": 43.77649, "lon": 7.50435}}, {"facility": "Investigational Site Number 250103", "city": "Nanterre", "zip": "92014", "country": "France", "geoPoint": {"lat": 48.89198, "lon": 2.20675}}, {"facility": "Investigational Site Number 250105", "city": "Rennes", "zip": "35700", "country": "France", "geoPoint": {"lat": 48.11198, "lon": -1.67429}}, {"facility": "Investigational Site Number 276103", "city": "Asslar", "zip": "35614", "country": "Germany", "geoPoint": {"lat": 50.59163, "lon": 8.46273}}, {"facility": "Investigational Site Number 276102", "city": "Bad Mergentheim", "zip": "97980", "country": "Germany", "geoPoint": {"lat": 49.4925, "lon": 9.77361}}, {"facility": "Investigational Site Number 276107", "city": "Berlin", "zip": "13125", "country": "Germany", "geoPoint": {"lat": 52.52437, "lon": 13.41053}}, {"facility": "Investigational Site Number 276101", "city": "Heidelberg", "zip": "69115", "country": "Germany", "geoPoint": {"lat": 49.40768, "lon": 8.69079}}, {"facility": "Investigational Site Number 276104", "city": "K\u00fcnzing", "zip": "94550", "country": "Germany", "geoPoint": {"lat": 48.66667, "lon": 13.08333}}, {"facility": "Investigational Site Number 276105", "city": "Pirna", "zip": "01796", "country": "Germany", "geoPoint": {"lat": 50.95843, "lon": 13.93702}}, {"facility": "Investigational Site Number 276108", "city": "St. Ingbert-Oberw\u00fcrzbach", "zip": "66386", "country": "Germany"}, {"facility": "Investigational Site Number 616106", "city": "Bytom", "zip": "41-902", "country": "Poland", "geoPoint": {"lat": 50.34802, "lon": 18.93282}}, {"facility": "Investigational Site Number 616102", "city": "Gdansk", "zip": "80-858", "country": "Poland", "geoPoint": {"lat": 54.35205, "lon": 18.64637}}, {"facility": "Investigational Site Number 616101", "city": "Krakow", "zip": "31-450", "country": "Poland", "geoPoint": {"lat": 50.06143, "lon": 19.93658}}, {"facility": "Investigational Site Number 616103", "city": "Lublin", "zip": "20-538", "country": "Poland", "geoPoint": {"lat": 51.25, "lon": 22.56667}}, {"facility": "Investigational Site Number 616108", "city": "Oswiecim", "zip": "32-600", "country": "Poland", "geoPoint": {"lat": 50.03437, "lon": 19.21037}}, {"facility": "Investigational Site Number 616105", "city": "Wroclaw", "zip": "50-127", "country": "Poland", "geoPoint": {"lat": 51.1, "lon": 17.03333}}, {"facility": "Investigational Site Number 616104", "city": "Wroclaw", "zip": "50-306", "country": "Poland", "geoPoint": {"lat": 51.1, "lon": 17.03333}}, {"facility": "Investigational Site Number 616107", "city": "Wroclaw", "zip": "50-403", "country": "Poland", "geoPoint": {"lat": 51.1, "lon": 17.03333}}, {"facility": "Investigational Site Number 642101", "city": "Bucuresti", "zip": "050538", "country": "Romania", "geoPoint": {"lat": 44.42802, "lon": 26.09665}}, {"facility": "Investigational Site Number 642105", "city": "Oradea", "zip": "410169", "country": "Romania", "geoPoint": {"lat": 47.0458, "lon": 21.91833}}, {"facility": "Investigational Site Number 642102", "city": "Ploiesti", "zip": "100097", "country": "Romania", "geoPoint": {"lat": 44.95, "lon": 26.01667}}, {"facility": "Investigational Site Number 642104", "city": "Resita", "zip": "320076", "country": "Romania", "geoPoint": {"lat": 45.30083, "lon": 21.88917}}, {"facility": "Investigational Site Number 642103", "city": "Timisoara", "zip": "300456", "country": "Romania", "geoPoint": {"lat": 45.75372, "lon": 21.22571}}, {"facility": "Investigational Site Number 643103", "city": "Moscow", "zip": "119435", "country": "Russian Federation", "geoPoint": {"lat": 55.75222, "lon": 37.61556}}, {"facility": "Investigational Site Number 643101", "city": "Moscow", "zip": "125367", "country": "Russian Federation", "geoPoint": {"lat": 55.75222, "lon": 37.61556}}, {"facility": "Investigational Site Number 643106", "city": "Nizhny Novgorod", "zip": "603018", "country": "Russian Federation", "geoPoint": {"lat": 56.32867, "lon": 44.00205}}, {"facility": "Investigational Site Number 643102", "city": "Samara", "zip": "443067", "country": "Russian Federation", "geoPoint": {"lat": 53.20007, "lon": 50.15}}, {"facility": "Investigational Site Number 643107", "city": "St-Petersburg", "zip": "194291", "country": "Russian Federation", "geoPoint": {"lat": 59.93863, "lon": 30.31413}}, {"facility": "Investigational Site Number 643105", "city": "St-Petersburg", "zip": "194354", "country": "Russian Federation", "geoPoint": {"lat": 59.93863, "lon": 30.31413}}, {"facility": "Investigational Site Number 643110", "city": "St-Petersburg", "zip": "195257", "country": "Russian Federation", "geoPoint": {"lat": 59.93863, "lon": 30.31413}}, {"facility": "Investigational Site Number 643108", "city": "Vladimir", "zip": "600023", "country": "Russian Federation", "geoPoint": {"lat": 56.13655, "lon": 40.39658}}, {"facility": "Investigational Site Number 643104", "city": "Voronezh", "zip": "394018", "country": "Russian Federation", "geoPoint": {"lat": 51.67204, "lon": 39.1843}}, {"facility": "Investigational Site Number 724104", "city": "Barcelona", "zip": "08020", "country": "Spain", "geoPoint": {"lat": 41.38879, "lon": 2.15899}}, {"facility": "Investigational Site Number 724103", "city": "Barcelona", "zip": "08041", "country": "Spain", "geoPoint": {"lat": 41.38879, "lon": 2.15899}}, {"facility": "Investigational Site Number 724102", "city": "El Ferrol", "zip": "15403", "country": "Spain"}, {"facility": "Investigational Site Number 724101", "city": "Hostalets De Baleny\u00e0", "zip": "08550", "country": "Spain"}, {"facility": "Investigational Site Number 724107", "city": "La Coru\u00f1a", "zip": "15006", "country": "Spain", "geoPoint": {"lat": 43.37135, "lon": -8.396}}, {"facility": "Investigational Site Number 724106", "city": "M\u00e1laga", "zip": "29010", "country": "Spain", "geoPoint": {"lat": 36.72016, "lon": -4.42034}}, {"facility": "Investigational Site Number 724108", "city": "Segovia", "zip": "40002", "country": "Spain", "geoPoint": {"lat": 40.94808, "lon": -4.11839}}, {"facility": "Investigational Site Number 724105", "city": "Sevilla", "zip": "41014", "country": "Spain", "geoPoint": {"lat": 37.38283, "lon": -5.97317}}, {"facility": "Investigational Site Number 804108", "city": "Kharkiv", "zip": "61002", "country": "Ukraine", "geoPoint": {"lat": 49.98081, "lon": 36.25272}}, {"facility": "Investigational Site Number 804105", "city": "Kharkov", "zip": "61022", "country": "Ukraine", "geoPoint": {"lat": 49.98081, "lon": 36.25272}}, {"facility": "Investigational Site Number 804102", "city": "Kiev", "zip": "2091", "country": "Ukraine", "geoPoint": {"lat": 50.45466, "lon": 30.5238}}, {"facility": "Investigational Site Number 804103", "city": "Kyiv", "zip": "04114", "country": "Ukraine", "geoPoint": {"lat": 50.45466, "lon": 30.5238}}, {"facility": "Investigational Site Number 804104", "city": "Mykolaiv", "zip": "54003", "country": "Ukraine", "geoPoint": {"lat": 46.96591, "lon": 31.9974}}, {"facility": "Investigational Site Number 804106", "city": "Poltava", "zip": "36011", "country": "Ukraine", "geoPoint": {"lat": 49.59373, "lon": 34.54073}}, {"facility": "Investigational Site Number 804101", "city": "Zaporozhie", "zip": "69600", "country": "Ukraine", "geoPoint": {"lat": 50.60727, "lon": 31.78792}}]}, "referencesModule": {"references": [{"pmid": "25012990", "type": "RESULT", "citation": "Ahren B, Vorokhobina N, Souhami E, Demil N, Ye J, Aronson R. Equal improvement in glycaemia with lixisenatide given before breakfast or the main meal of the day. J Diabetes Complications. 2014 Sep-Oct;28(5):735-41. doi: 10.1016/j.jdiacomp.2014.05.012. Epub 2014 Jun 5."}]}}, "resultsSection": {"participantFlowModule": {"preAssignmentDetails": "Participants were stratified according to main meal of day (breakfast, lunch or dinner) and screening values of HbA1c (\\<8% or \u22658%).", "recruitmentDetails": "The study was conducted at 82 centers in 10 countries. A total of 734 participants were screened between February 15, 2012 and October 16, 2012. 283 participants were screen failures; main reason for screen failure was that glycosylated hemoglobin (HbA1c) values were out of protocol defined range. 451 participants were randomized.", "groups": [{"id": "FG000", "title": "Lixisenatide Main Meal", "description": "Lixisenatide 10 mcg subcutaneous (SC) injection once daily (QD) within 1 hour before \"main meal of the day\" for 2 weeks, then at a maintenance dose of 20 mcg QD up to Week 24 on top of metformin."}, {"id": "FG001", "title": "Lixisenatide Breakfast", "description": "Lixisenatide 10 mcg SC injection QD within 1 hour before \"breakfast\" for 2 weeks, then at a maintenance dose of 20 mcg QD up to Week 24 on top of metformin."}], "periods": [{"title": "Overall Study", "milestones": [{"type": "STARTED", "achievements": [{"groupId": "FG000", "numSubjects": "225"}, {"groupId": "FG001", "numSubjects": "226"}]}, {"type": "COMPLETED", "achievements": [{"groupId": "FG000", "numSubjects": "189"}, {"groupId": "FG001", "numSubjects": "202"}]}, {"type": "NOT COMPLETED", "achievements": [{"groupId": "FG000", "numSubjects": "36"}, {"groupId": "FG001", "numSubjects": "24"}]}], "dropWithdraws": [{"type": "Adverse Event", "reasons": [{"groupId": "FG000", "numSubjects": "10"}, {"groupId": "FG001", "numSubjects": "11"}]}, {"type": "Lack of Efficacy", "reasons": [{"groupId": "FG000", "numSubjects": "10"}, {"groupId": "FG001", "numSubjects": "5"}]}, {"type": "Poor compliance to protocol", "reasons": [{"groupId": "FG000", "numSubjects": "8"}, {"groupId": "FG001", "numSubjects": "3"}]}, {"type": "Other than specified above", "reasons": [{"groupId": "FG000", "numSubjects": "8"}, {"groupId": "FG001", "numSubjects": "5"}]}]}]}, "baselineCharacteristicsModule": {"groups": [{"id": "BG000", "title": "Lixisenatide Main Meal", "description": "Lixisenatide 10 mcg SC injection QD within 1 hour before \"main meal of the day\" for 2 weeks, then at a maintenance dose of 20 mcg QD up to Week 24 on top of metformin."}, {"id": "BG001", "title": "Lixisenatide Breakfast", "description": "Lixisenatide 10 mcg SC injection QD within 1 hour before \"breakfast\" for 2 weeks, then at a maintenance dose of 20 mcg QD up to Week 24 on top of metformin."}, {"id": "BG002", "title": "Total", "description": "Total of all reporting groups"}], "denoms": [{"units": "Participants", "counts": [{"groupId": "BG000", "value": "225"}, {"groupId": "BG001", "value": "226"}, {"groupId": "BG002", "value": "451"}]}], "measures": [{"title": "Age, Continuous", "paramType": "MEAN", "dispersionType": "STANDARD_DEVIATION", "unitOfMeasure": "years", "classes": [{"categories": [{"measurements": [{"groupId": "BG000", "value": "56.3", "spread": "10.6"}, {"groupId": "BG001", "value": "57.5", "spread": "9.7"}, {"groupId": "BG002", "value": "56.9", "spread": "10.2"}]}]}]}, {"title": "Sex: Female, Male", "paramType": "COUNT_OF_PARTICIPANTS", "unitOfMeasure": "Participants", "classes": [{"categories": [{"title": "Female", "measurements": [{"groupId": "BG000", "value": "124"}, {"groupId": "BG001", "value": "129"}, {"groupId": "BG002", "value": "253"}]}, {"title": "Male", "measurements": [{"groupId": "BG000", "value": "101"}, {"groupId": "BG001", "value": "97"}, {"groupId": "BG002", "value": "198"}]}]}]}, {"title": "Race", "paramType": "NUMBER", "unitOfMeasure": "participants", "classes": [{"title": "Caucasian/White", "categories": [{"measurements": [{"groupId": "BG000", "value": "211"}, {"groupId": "BG001", "value": "211"}, {"groupId": "BG002", "value": "422"}]}]}, {"title": "Black", "categories": [{"measurements": [{"groupId": "BG000", "value": "4"}, {"groupId": "BG001", "value": "8"}, {"groupId": "BG002", "value": "12"}]}]}, {"title": "Asian/Oriental", "categories": [{"measurements": [{"groupId": "BG000", "value": "10"}, {"groupId": "BG001", "value": "7"}, {"groupId": "BG002", "value": "17"}]}]}]}, {"title": "Ethnicity", "paramType": "NUMBER", "unitOfMeasure": "participants", "classes": [{"title": "Hispanic", "categories": [{"measurements": [{"groupId": "BG000", "value": "11"}, {"groupId": "BG001", "value": "12"}, {"groupId": "BG002", "value": "23"}]}]}, {"title": "Non-Hispanic", "categories": [{"measurements": [{"groupId": "BG000", "value": "214"}, {"groupId": "BG001", "value": "214"}, {"groupId": "BG002", "value": "428"}]}]}]}, {"title": "Number of Participants with Categorical Body Mass Index (BMI)", "paramType": "NUMBER", "unitOfMeasure": "participants", "classes": [{"title": "<30 kg/m^2", "categories": [{"measurements": [{"groupId": "BG000", "value": "51"}, {"groupId": "BG001", "value": "60"}, {"groupId": "BG002", "value": "111"}]}]}, {"title": "\u226530 kg/m^2", "categories": [{"measurements": [{"groupId": "BG000", "value": "174"}, {"groupId": "BG001", "value": "166"}, {"groupId": "BG002", "value": "340"}]}]}]}, {"title": "BMI, Continuous", "paramType": "MEAN", "dispersionType": "STANDARD_DEVIATION", "unitOfMeasure": "kg/m^2", "classes": [{"categories": [{"measurements": [{"groupId": "BG000", "value": "33.47", "spread": "4.50"}, {"groupId": "BG001", "value": "32.77", "spread": "4.62"}, {"groupId": "BG002", "value": "33.12", "spread": "4.57"}]}]}]}, {"title": "HbA1c", "paramType": "MEAN", "dispersionType": "STANDARD_DEVIATION", "unitOfMeasure": "Percentage of hemoglobin", "classes": [{"categories": [{"measurements": [{"groupId": "BG000", "value": "7.85", "spread": "0.76"}, {"groupId": "BG001", "value": "7.93", "spread": "0.78"}, {"groupId": "BG002", "value": "7.89", "spread": "0.77"}]}]}]}, {"title": "Fasting Plasma Glucose (FPG)", "description": "N=225, 225", "paramType": "MEAN", "dispersionType": "STANDARD_DEVIATION", "unitOfMeasure": "mmol/L", "classes": [{"categories": [{"measurements": [{"groupId": "BG000", "value": "9.22", "spread": "2.03"}, {"groupId": "BG001", "value": "9.31", "spread": "2.04"}, {"groupId": "BG002", "value": "9.26", "spread": "2.03"}]}]}]}, {"title": "Average 7-point Self-monitored Plasma Glucose (SMPG)", "description": "N=211, 207", "paramType": "MEAN", "dispersionType": "STANDARD_DEVIATION", "unitOfMeasure": "mmol/L", "classes": [{"categories": [{"measurements": [{"groupId": "BG000", "value": "9.41", "spread": "2.01"}, {"groupId": "BG001", "value": "9.71", "spread": "2.13"}, {"groupId": "BG002", "value": "9.56", "spread": "2.07"}]}]}]}, {"title": "Duration of Diabetes", "paramType": "MEAN", "dispersionType": "STANDARD_DEVIATION", "unitOfMeasure": "years", "classes": [{"categories": [{"measurements": [{"groupId": "BG000", "value": "6.69", "spread": "4.92"}, {"groupId": "BG001", "value": "7.78", "spread": "5.56"}, {"groupId": "BG002", "value": "7.24", "spread": "5.27"}]}]}]}, {"title": "Metformin Daily Dose", "paramType": "MEAN", "dispersionType": "STANDARD_DEVIATION", "unitOfMeasure": "mg", "classes": [{"categories": [{"measurements": [{"groupId": "BG000", "value": "2040.7", "spread": "390.0"}, {"groupId": "BG001", "value": "2091.2", "spread": "1255.3"}, {"groupId": "BG002", "value": "2066.0", "spread": "929.6"}]}]}]}, {"title": "Randomization Strata of Main Meal of the Day", "paramType": "NUMBER", "unitOfMeasure": "participants", "classes": [{"title": "Breakfast", "categories": [{"measurements": [{"groupId": "BG000", "value": "20"}, {"groupId": "BG001", "value": "20"}, {"groupId": "BG002", "value": "40"}]}]}, {"title": "Lunch", "categories": [{"measurements": [{"groupId": "BG000", "value": "116"}, {"groupId": "BG001", "value": "117"}, {"groupId": "BG002", "value": "233"}]}]}, {"title": "Dinner", "categories": [{"measurements": [{"groupId": "BG000", "value": "89"}, {"groupId": "BG001", "value": "89"}, {"groupId": "BG002", "value": "178"}]}]}]}]}, "outcomeMeasuresModule": {"outcomeMeasures": [{"type": "PRIMARY", "title": "Change in HbA1c From Baseline to Week 24", "description": "Change in HbA1C was calculated by subtracting baseline value from Week 24 value. Missing data was imputed using last observation carried forward (LOCF). On-treatment period for this efficacy variable was defined as the time from the first dose of study drug up to 14 days after the last dose of study drug. Here, number of participants analyzed = participants with baseline and at least one post-baseline HbA1c assessment during on-treatment period.", "populationDescription": "Modified intent-to-treat (mITT) population: all randomized participants who received at least one dose of study drug and had both baseline and at least one post-baseline assessment of any primary or secondary efficacy endpoints, irrespective of compliance with study protocol and procedures.", "reportingStatus": "POSTED", "paramType": "LEAST_SQUARES_MEAN", "dispersionType": "Standard Error", "unitOfMeasure": "Percentage of hemoglobin", "timeFrame": "Baseline, Week 24", "groups": [{"id": "OG000", "title": "Lixisenatide Main Meal", "description": "Lixisenatide 10 mcg SC injection QD within 1 hour before \"main meal of the day\" for 2 weeks, then at a maintenance dose of 20 mcg QD up to Week 24 on top of metformin."}, {"id": "OG001", "title": "Lixisenatide Breakfast", "description": "Lixisenatide 10 mcg SC injection QD within 1 hour before \"breakfast\" for 2 weeks, then at a maintenance dose of 20 mcg QD up to Week 24 on top of metformin."}], "denoms": [{"units": "Participants", "counts": [{"groupId": "OG000", "value": "218"}, {"groupId": "OG001", "value": "222"}]}], "classes": [{"categories": [{"measurements": [{"groupId": "OG000", "value": "-0.65", "spread": "0.074"}, {"groupId": "OG001", "value": "-0.74", "spread": "0.074"}]}]}], "analyses": [{"groupIds": ["OG000", "OG001"], "groupDescription": "Analysis was performed using analysis of covariance (ANCOVA) model with treatment groups, randomization strata of screening HbA1c (\\<8.0%, \u22658.0%), randomization strata of main meal of the day and country as fixed effects and baseline HbA1c value as a covariate.", "testedNonInferiority": true, "nonInferiorityType": "NON_INFERIORITY_OR_EQUIVALENCE", "nonInferiorityComment": "A step-down procedure was used to control the type I error: non-inferiority of lixisenatide prior to the main meal of the day versus lixisenatide prior to breakfast was tested first. If non-inferiority was established, then a test of superiority of lixisenatide prior to the main meal of the day over lixisenatide prior to breakfast was to be performed. The non-inferiority was assessed using upper bound of 2-sided 95% CI at a level of \u22640.4%.", "paramType": "Least square (LS) mean difference", "paramValue": "0.09", "ciPctValue": "95", "ciNumSides": "TWO_SIDED", "ciLowerLimit": "-0.067", "ciUpperLimit": "0.242", "dispersionType": "STANDARD_ERROR_OF_MEAN", "dispersionValue": "0.079", "estimateComment": "Lixisenatide Main Meal vs Lixisenatide Breakfast"}, {"groupIds": ["OG000", "OG001"], "groupDescription": "Analysis was performed using analysis of covariance (ANCOVA) model with treatment groups, randomization strata of screening HbA1c (\\<8.0%, \u22658.0%), randomization strata of main meal of the day and country as fixed effects and baseline HbA1c value as a covariate. A step-down procedure was used to control the type I error. The superiority was assessed by comparing the p-value at significance level = 0.05.", "testedNonInferiority": false, "nonInferiorityType": "SUPERIORITY_OR_OTHER", "pValue": "0.2664", "pValueComment": "Threshold for significance at 0.05 level.", "statisticalMethod": "ANCOVA", "paramType": "LS Mean Difference", "paramValue": "0.09", "ciNumSides": "TWO_SIDED", "dispersionType": "STANDARD_ERROR_OF_MEAN", "dispersionValue": "0.079", "estimateComment": "Lixisenatide Main Meal vs Lixisenatide Breakfast"}]}, {"type": "SECONDARY", "title": "Percentage of Participants With HbA1c Level <7 % or \u22646.5% at Week 24", "description": "Here, number of participants analyzed = participants with baseline and at least one post-baseline HbA1c assessment during on-treatment period.", "populationDescription": "mITT population.", "reportingStatus": "POSTED", "paramType": "NUMBER", "unitOfMeasure": "Percentage of participants", "timeFrame": "Week 24", "groups": [{"id": "OG000", "title": "Lixisenatide Main Meal", "description": "Lixisenatide 10 mcg SC injection QD within 1 hour before \"main meal of the day\" for 2 weeks, then at a maintenance dose of 20 mcg QD up to Week 24 on top of metformin."}, {"id": "OG001", "title": "Lixisenatide Breakfast", "description": "Lixisenatide 10 mcg SC injection QD within 1 hour before \"breakfast\" for 2 weeks, then at a maintenance dose of 20 mcg QD up to Week 24 on top of metformin."}], "denoms": [{"units": "Participants", "counts": [{"groupId": "OG000", "value": "218"}, {"groupId": "OG001", "value": "222"}]}], "classes": [{"title": "HbA1c <7%", "categories": [{"measurements": [{"groupId": "OG000", "value": "43.6"}, {"groupId": "OG001", "value": "42.8"}]}]}, {"title": "HbA1c \u22646.5%", "categories": [{"measurements": [{"groupId": "OG000", "value": "22.5"}, {"groupId": "OG001", "value": "25.7"}]}]}]}, {"type": "SECONDARY", "title": "Change in Average 7-point SMPG Profiles From Baseline to Week 24", "description": "Participants recorded a 7-point plasma glucose profile measured before and 2 hours after each meal and at bedtime two times in a week before baseline, before visit Week 8, before visit Week 12 and before visit week 24. The average value across the profiles performed in the week a visit for the 7-time points was calculated. Change in average 7-point SMPG was calculated by subtracting baseline value from Week 24 value. Missing data was imputed using LOCF. The on-treatment period for this efficacy variable was defined as the time from the first dose of study drug up to the day of last dose of study drug. Here, number of participants analyzed = participants with baseline and at least one post-baseline 7-point SMPG assessment during on-treatment period.", "populationDescription": "mITT population.", "reportingStatus": "POSTED", "paramType": "LEAST_SQUARES_MEAN", "dispersionType": "Standard Error", "unitOfMeasure": "mmol/L", "timeFrame": "Baseline, Week 24", "groups": [{"id": "OG000", "title": "Lixisenatide Main Meal", "description": "Lixisenatide 10 mcg SC injection QD within 1 hour before \"main meal of the day\" for 2 weeks, then at a maintenance dose of 20 mcg QD up to Week 24 on top of metformin."}, {"id": "OG001", "title": "Lixisenatide Breakfast", "description": "Lixisenatide 10 mcg SC injection QD within 1 hour before \"breakfast\" for 2 weeks, then at a maintenance dose of 20 mcg QD up to Week 24 on top of metformin."}], "denoms": [{"units": "Participants", "counts": [{"groupId": "OG000", "value": "202"}, {"groupId": "OG001", "value": "200"}]}], "classes": [{"categories": [{"measurements": [{"groupId": "OG000", "value": "-0.80", "spread": "0.145"}, {"groupId": "OG001", "value": "-1.10", "spread": "0.145"}]}]}]}, {"type": "SECONDARY", "title": "Change in FPG From Baseline to Week 24", "description": "Change in FPG was calculated by subtracting baseline value from Week 24 value. Missing data was imputed using LOCF. The on-treatment period for this efficacy variable was the time from the first dose of study drug up to 1 day after the last dose of study drug. Here, number of participants analyzed = participants with baseline and at least one post-baseline FPG assessment during on-treatment period.", "populationDescription": "mITT population.", "reportingStatus": "POSTED", "paramType": "LEAST_SQUARES_MEAN", "dispersionType": "Standard Error", "unitOfMeasure": "mmol/L", "timeFrame": "Baseline, Week 24", "groups": [{"id": "OG000", "title": "Lixisenatide Main Meal", "description": "Lixisenatide 10 mcg SC injection QD within 1 hour before \"main meal of the day\" for 2 weeks, then at a maintenance dose of 20 mcg QD up to Week 24 on top of metformin."}, {"id": "OG001", "title": "Lixisenatide Breakfast", "description": "Lixisenatide 10 mcg SC injection QD within 1 hour before \"breakfast\" for 2 weeks, then at a maintenance dose of 20 mcg QD up to Week 24 on top of metformin."}], "denoms": [{"units": "Participants", "counts": [{"groupId": "OG000", "value": "220"}, {"groupId": "OG001", "value": "222"}]}], "classes": [{"categories": [{"measurements": [{"groupId": "OG000", "value": "-0.35", "spread": "0.192"}, {"groupId": "OG001", "value": "-0.57", "spread": "0.193"}]}]}]}, {"type": "SECONDARY", "title": "Change in Body Weight From Baseline to Week 24", "description": "Change in body weight was calculated by subtracting baseline value from Week 24 value. Missing data was imputed using LOCF. On-treatment period for this efficacy variable was defined as the time from the first dose of study drug up to 3 days after the last dose of study drug. Here, number of participants analyzed = participants with baseline and at least one post-baseline body weight assessment during on-treatment period.", "populationDescription": "mITT population.", "reportingStatus": "POSTED", "paramType": "LEAST_SQUARES_MEAN", "dispersionType": "Standard Error", "unitOfMeasure": "kg", "timeFrame": "Baseline, Week 24", "groups": [{"id": "OG000", "title": "Lixisenatide Main Meal", "description": "Lixisenatide 10 mcg SC injection QD within 1 hour before \"main meal of the day\" for 2 weeks, then at a maintenance dose of 20 mcg QD up to Week 24 on top of metformin."}, {"id": "OG001", "title": "Lixisenatide Breakfast", "description": "Lixisenatide 10 mcg SC injection QD within 1 hour before \"breakfast\" for 2 weeks, then at a maintenance dose of 20 mcg QD up to Week 24 on top of metformin."}], "denoms": [{"units": "Participants", "counts": [{"groupId": "OG000", "value": "220"}, {"groupId": "OG001", "value": "224"}]}], "classes": [{"categories": [{"measurements": [{"groupId": "OG000", "value": "-2.60", "spread": "0.320"}, {"groupId": "OG001", "value": "-2.80", "spread": "0.319"}]}]}]}, {"type": "SECONDARY", "title": "Percentage of Participants Who Reached the Target of HbA1c <7% at Week 24 And Did Not Experience Confirmed Symptomatic Hypoglycemia (Plasma Glucose [PG] <60 mg/dL [3.3 mmol/L]) During 24-Week Treatment Period", "description": "Symptomatic hypoglycemia was defined as an event with clinical symptoms that were considered to result from hypoglycemic episode with an accompanying PG\\<60 mg/dL (3.3 mmol/L) or associated with prompt recovery after oral carbohydrate if no PG measurement was available. On-treatment period for symptomatic hypoglycemia assessment was defined as time from first dose of study drug up to 1 day after last dose of study drug. Participants without any post-baseline on-treatment value for HbA1c were counted as non-responders if they experienced at least one symptomatic hypoglycemia. Otherwise, they were counted as missing.", "populationDescription": "mITT population.", "reportingStatus": "POSTED", "paramType": "NUMBER", "unitOfMeasure": "Percentage of participants", "timeFrame": "Week 24", "groups": [{"id": "OG000", "title": "Lixisenatide Main Meal", "description": "Lixisenatide 10 mcg SC injection QD within 1 hour before \"main meal of the day\" for 2 weeks, then at a maintenance dose of 20 mcg QD up to Week 24 on top of metformin."}, {"id": "OG001", "title": "Lixisenatide Breakfast", "description": "Lixisenatide 10 mcg SC injection QD within 1 hour before \"breakfast\" for 2 weeks, then at a maintenance dose of 20 mcg QD up to Week 24 on top of metformin."}], "denoms": [{"units": "Participants", "counts": [{"groupId": "OG000", "value": "218"}, {"groupId": "OG001", "value": "222"}]}], "classes": [{"categories": [{"measurements": [{"groupId": "OG000", "value": "40.4"}, {"groupId": "OG001", "value": "41.0"}]}]}]}, {"type": "SECONDARY", "title": "Percentage of Participants Who Reached the Target of HbA1c <7% And Had No Body Weight Gain at Week 24", "description": "Participants without post-baseline on-treatment values for (HbA1c and body weight) that were no more than 30 days apart were counted as non-responders if at least one of the components (HbA1c and/or body weight) was available and showed no response. Otherwise, they were counted as missing.", "populationDescription": "mITT population.", "reportingStatus": "POSTED", "paramType": "NUMBER", "unitOfMeasure": "Percentage of participants", "timeFrame": "Week 24", "groups": [{"id": "OG000", "title": "Lixisenatide Main Meal", "description": "Lixisenatide 10 mcg SC injection QD within 1 hour before \"main meal of the day\" for 2 weeks, then at a maintenance dose of 20 mcg QD up to Week 24 on top of metformin."}, {"id": "OG001", "title": "Lixisenatide Breakfast", "description": "Lixisenatide 10 mcg SC injection QD within 1 hour before \"breakfast\" for 2 weeks, then at a maintenance dose of 20 mcg QD up to Week 24 on top of metformin."}], "denoms": [{"units": "Participants", "counts": [{"groupId": "OG000", "value": "218"}, {"groupId": "OG001", "value": "223"}]}], "classes": [{"categories": [{"measurements": [{"groupId": "OG000", "value": "40.8"}, {"groupId": "OG001", "value": "38.6"}]}]}]}, {"type": "SECONDARY", "title": "Percentage of Participants Who Reached the Target of HbA1c <7% And Had No Body Weight Gain at Week 24 And Did Not Experience Confirmed Symptomatic Hypoglycemia (PG<60 mg/dL [3.3 mmol/L]) During the 24-Week Treatment Period", "description": "Participants without post-baseline on-treatment values (for HbA1c and body weight) that were no more than 30 days apart not more than 30-days apart were counted as non-responders if at least one of components (HbA1c and/or body weight) was available and showed no response. Otherwise, they were counted as missing.", "populationDescription": "mITT population.", "reportingStatus": "POSTED", "paramType": "NUMBER", "unitOfMeasure": "Percentage of participants", "timeFrame": "Week 24", "groups": [{"id": "OG000", "title": "Lixisenatide Main Meal", "description": "Lixisenatide 10 mcg SC injection QD within 1 hour before \"main meal of the day\" for 2 weeks, then at a maintenance dose of 20 mcg QD up to Week 24 on top of metformin."}, {"id": "OG001", "title": "Lixisenatide Breakfast", "description": "Lixisenatide 10 mcg SC injection QD within 1 hour before \"breakfast\" for 2 weeks, then at a maintenance dose of 20 mcg QD up to Week 24 on top of metformin."}], "denoms": [{"units": "Participants", "counts": [{"groupId": "OG000", "value": "218"}, {"groupId": "OG001", "value": "223"}]}], "classes": [{"categories": [{"measurements": [{"groupId": "OG000", "value": "38.1"}, {"groupId": "OG001", "value": "37.2"}]}]}]}, {"type": "SECONDARY", "title": "Percentage of Participants Who Reached the Target of HbA1c <7% And Had a 2-hour Postprandial Plasma Glucose (PPG) <140mg/dL After Breakfast or Main Meal At Week 24", "description": "On-treatment period for 2-hour PPG assessment was defined as the time from the first dose of study drug up to the day of last dose of study drug. Participants without post-baseline on-treatment values (for HbA1c and 2-hour PPG) that were no more than 30-days apart were counted as non-responders if at least one of the components (HbA1cand/or 2-hour PPG) was available and showed no response. Otherwise, they were counted as missing.", "populationDescription": "mITT population.", "reportingStatus": "POSTED", "paramType": "NUMBER", "unitOfMeasure": "Percentage of participants", "timeFrame": "Week 24", "groups": [{"id": "OG000", "title": "Lixisenatide Main Meal", "description": "Lixisenatide 10 mcg SC injection QD within 1 hour before \"main meal of the day\" for 2 weeks, then at a maintenance dose of 20 mcg QD up to Week 24 on top of metformin."}, {"id": "OG001", "title": "Lixisenatide Breakfast", "description": "Lixisenatide 10 mcg SC injection QD within 1 hour before \"breakfast\" for 2 weeks, then at a maintenance dose of 20 mcg QD up to Week 24 on top of metformin."}], "denoms": [{"units": "Participants", "counts": [{"groupId": "OG000", "value": "218"}, {"groupId": "OG001", "value": "221"}]}], "classes": [{"categories": [{"measurements": [{"groupId": "OG000", "value": "28.9"}, {"groupId": "OG001", "value": "27.6"}]}]}]}, {"type": "SECONDARY", "title": "Change in Diabetes Treatment Satisfaction Questionnaire Score (DTSQs) From Baseline to Week 24", "description": "DTSQ is a validated measure to assess how satisfied participants with diabetes are with their treatment and how they perceive hyper- and hypoglycemia. It consists of 8 questions which are answered on a Likert scale from 0 to 6. DTSQ treatment satisfaction score is the sum of question 1, 4, 5, 6, 7 and 8 scores and ranges between 0 and 36, where higher scores indicate more treatment satisfaction. On-treatment period for treatment satisfaction assessment was defined as the time from the first dose of study drug up to 3 days after the last dose of study drug. Missing data was imputed using LOCF. Here, number of participants analyzed = participants with both baseline and Week 24 DTSQ score assessment during on-treatment period.", "populationDescription": "mITT population.", "reportingStatus": "POSTED", "paramType": "LEAST_SQUARES_MEAN", "dispersionType": "Standard Error", "unitOfMeasure": "Units on a scale", "timeFrame": "Baseline, Week 24", "groups": [{"id": "OG000", "title": "Lixisenatide Main Meal", "description": "Lixisenatide 10 mcg SC injection QD within 1 hour before \"main meal of the day\" for 2 weeks, then at a maintenance dose of 20 mcg QD up to Week 24 on top of metformin."}, {"id": "OG001", "title": "Lixisenatide Breakfast", "description": "Lixisenatide 10 mcg SC injection QD within 1 hour before \"breakfast\" for 2 weeks, then at a maintenance dose of 20 mcg QD up to Week 24 on top of metformin."}], "denoms": [{"units": "Participants", "counts": [{"groupId": "OG000", "value": "204"}, {"groupId": "OG001", "value": "215"}]}], "classes": [{"categories": [{"measurements": [{"groupId": "OG000", "value": "3.01", "spread": "0.546"}, {"groupId": "OG001", "value": "3.54", "spread": "0.529"}]}]}]}]}, "adverseEventsModule": {"frequencyThreshold": "5", "timeFrame": "All Adverse Events (AE) were collected from signature of the informed consent form up to the final visit (Day 171) regardless of seriousness or relationship to investigational medicinal product (IMP).", "description": "Reported adverse events are treatment-emergent adverse events that developed/worsened during the 'on treatment period' (time from the first dose of study drug up to 3 days after the last dose of study drug). Safety population defined as all randomized participants who received at least one dose of study drug.", "eventGroups": [{"id": "EG000", "title": "Lixisenatide Main Meal", "description": "Lixisenatide 10 mcg SC injection QD within 1 hour before \"main meal of the day\" for 2 weeks, then at a maintenance dose of 20 mcg QD up to Week 24 on top of metformin.", "seriousNumAffected": 7, "seriousNumAtRisk": 225, "otherNumAffected": 65, "otherNumAtRisk": 225}, {"id": "EG001", "title": "Lixisenatide Breakfast", "description": "Lixisenatide 10 mcg SC injection QD within 1 hour before \"breakfast\" for 2 weeks, then at a maintenance dose of 20 mcg QD up to Week 24 on top of metformin.", "seriousNumAffected": 7, "seriousNumAtRisk": 226, "otherNumAffected": 60, "otherNumAtRisk": 226}], "seriousEvents": [{"term": "Cellulitis", "organSystem": "Infections and infestations", "sourceVocabulary": "MedDRA 16.0", "assessmentType": "SYSTEMATIC_ASSESSMENT", "stats": [{"groupId": "EG000", "numAffected": 1, "numAtRisk": 225}, {"groupId": "EG001", "numAffected": 0, "numAtRisk": 226}]}, {"term": "Postoperative wound infection", "organSystem": "Infections and infestations", "sourceVocabulary": "MedDRA 16.0", "assessmentType": "SYSTEMATIC_ASSESSMENT", "stats": [{"groupId": "EG000", "numAffected": 0, "numAtRisk": 225}, {"groupId": "EG001", "numAffected": 1, "numAtRisk": 226}]}, {"term": "Clear cell renal cell carcinoma", "organSystem": "Neoplasms benign, malignant and unspecified (incl cysts and polyps)", "sourceVocabulary": "MedDRA 16.0", "assessmentType": "SYSTEMATIC_ASSESSMENT", "stats": [{"groupId": "EG000", "numAffected": 1, "numAtRisk": 225}, {"groupId": "EG001", "numAffected": 0, "numAtRisk": 226}]}, {"term": "Cerebral infarction", "organSystem": "Nervous system disorders", "sourceVocabulary": "MedDRA 16.0", "assessmentType": "SYSTEMATIC_ASSESSMENT", "stats": [{"groupId": "EG000", "numAffected": 0, "numAtRisk": 225}, {"groupId": "EG001", "numAffected": 1, "numAtRisk": 226}]}, {"term": "Myocardial infarction", "organSystem": "Cardiac disorders", "sourceVocabulary": "MedDRA 16.0", "assessmentType": "SYSTEMATIC_ASSESSMENT", "stats": [{"groupId": "EG000", "numAffected": 1, "numAtRisk": 225}, {"groupId": "EG001", "numAffected": 0, "numAtRisk": 226}]}, {"term": "Atrial fibrillation", "organSystem": "Cardiac disorders", "sourceVocabulary": "MedDRA 16.0", "assessmentType": "SYSTEMATIC_ASSESSMENT", "stats": [{"groupId": "EG000", "numAffected": 0, "numAtRisk": 225}, {"groupId": "EG001", "numAffected": 1, "numAtRisk": 226}]}, {"term": "Peripheral arterial occlusive disease", "organSystem": "Vascular disorders", "sourceVocabulary": "MedDRA 16.0", "assessmentType": "SYSTEMATIC_ASSESSMENT", "stats": [{"groupId": "EG000", "numAffected": 1, "numAtRisk": 225}, {"groupId": "EG001", "numAffected": 0, "numAtRisk": 226}]}, {"term": "Abdominal hernia", "organSystem": "Gastrointestinal disorders", "sourceVocabulary": "MedDRA 16.0", "assessmentType": "SYSTEMATIC_ASSESSMENT", "stats": [{"groupId": "EG000", "numAffected": 0, "numAtRisk": 225}, {"groupId": "EG001", "numAffected": 1, "numAtRisk": 226}]}, {"term": "Abdominal strangulated hernia", "organSystem": "Gastrointestinal disorders", "sourceVocabulary": "MedDRA 16.0", "assessmentType": "SYSTEMATIC_ASSESSMENT", "stats": [{"groupId": "EG000", "numAffected": 0, "numAtRisk": 225}, {"groupId": "EG001", "numAffected": 1, "numAtRisk": 226}]}, {"term": "Osteoarthritis", "organSystem": "Musculoskeletal and connective tissue disorders", "sourceVocabulary": "MedDRA 16.0", "assessmentType": "SYSTEMATIC_ASSESSMENT", "stats": [{"groupId": "EG000", "numAffected": 0, "numAtRisk": 225}, {"groupId": "EG001", "numAffected": 1, "numAtRisk": 226}]}, {"term": "Renal colic", "organSystem": "Renal and urinary disorders", "sourceVocabulary": "MedDRA 16.0", "assessmentType": "SYSTEMATIC_ASSESSMENT", "stats": [{"groupId": "EG000", "numAffected": 2, "numAtRisk": 225}, {"groupId": "EG001", "numAffected": 0, "numAtRisk": 226}]}, {"term": "Cystitis noninfective", "organSystem": "Renal and urinary disorders", "sourceVocabulary": "MedDRA 16.0", "assessmentType": "SYSTEMATIC_ASSESSMENT", "stats": [{"groupId": "EG000", "numAffected": 1, "numAtRisk": 225}, {"groupId": "EG001", "numAffected": 0, "numAtRisk": 226}]}, {"term": "Calculus ureteric", "organSystem": "Renal and urinary disorders", "sourceVocabulary": "MedDRA 16.0", "assessmentType": "SYSTEMATIC_ASSESSMENT", "stats": [{"groupId": "EG000", "numAffected": 0, "numAtRisk": 225}, {"groupId": "EG001", "numAffected": 1, "numAtRisk": 226}]}, {"term": "Contusion", "organSystem": "Injury, poisoning and procedural complications", "sourceVocabulary": "MedDRA 16.0", "assessmentType": "SYSTEMATIC_ASSESSMENT", "stats": [{"groupId": "EG000", "numAffected": 0, "numAtRisk": 225}, {"groupId": "EG001", "numAffected": 1, "numAtRisk": 226}]}], "otherEvents": [{"term": "Nasopharyngitis", "organSystem": "Infections and infestations", "sourceVocabulary": "MedDRA 16.0", "assessmentType": "SYSTEMATIC_ASSESSMENT", "stats": [{"groupId": "EG000", "numAffected": 22, "numAtRisk": 225}, {"groupId": "EG001", "numAffected": 16, "numAtRisk": 226}]}, {"term": "Hypoglycaemia", "organSystem": "Metabolism and nutrition disorders", "sourceVocabulary": "MedDRA 16.0", "assessmentType": "SYSTEMATIC_ASSESSMENT", "stats": [{"groupId": "EG000", "numAffected": 15, "numAtRisk": 225}, {"groupId": "EG001", "numAffected": 7, "numAtRisk": 226}]}, {"term": "Headache", "organSystem": "Nervous system disorders", "sourceVocabulary": "MedDRA 16.0", "assessmentType": "SYSTEMATIC_ASSESSMENT", "stats": [{"groupId": "EG000", "numAffected": 8, "numAtRisk": 225}, {"groupId": "EG001", "numAffected": 16, "numAtRisk": 226}]}, {"term": "Nausea", "organSystem": "Gastrointestinal disorders", "sourceVocabulary": "MedDRA 16.0", "assessmentType": "SYSTEMATIC_ASSESSMENT", "stats": [{"groupId": "EG000", "numAffected": 33, "numAtRisk": 225}, {"groupId": "EG001", "numAffected": 35, "numAtRisk": 226}]}]}, "moreInfoModule": {"certainAgreement": {"piSponsorEmployee": false, "restrictionType": "OTHER", "restrictiveAgreement": true, "otherDetails": "If no publication has occurred within 12 months of the completion of the study, the Investigator shall have the right to publish/present independently the results of the study. The Investigator shall provide the Sponsor with a copy of any such presentation/publication for comment at least 30 days before any presentation/submission for publication. If requested by the Sponsor, any presentation/submission shall be delayed up to 90 days, to allow the Sponsor to preserve its proprietary rights."}, "pointOfContact": {"title": "Trial Transparency Team", "organization": "Sanofi", "email": "Contact-US@sanofi.com"}}}, "derivedSection": {"miscInfoModule": {"versionHolder": "2024-06-24"}, "conditionBrowseModule": {"meshes": [{"id": "D000003924", "term": "Diabetes Mellitus, Type 2"}], "ancestors": [{"id": "D000003920", "term": "Diabetes Mellitus"}, {"id": "D000044882", "term": "Glucose Metabolism Disorders"}, {"id": "D000008659", "term": "Metabolic Diseases"}, {"id": "D000004700", "term": "Endocrine System Diseases"}], "browseLeaves": [{"id": "M7115", "name": "Diabetes Mellitus", "relevance": "LOW"}, {"id": "M7119", "name": "Diabetes Mellitus, Type 2", "asFound": "Type 2 Diabetes Mellitus", "relevance": "HIGH"}, {"id": "M11639", "name": "Metabolic Diseases", "relevance": "LOW"}, {"id": "M25403", "name": "Glucose Metabolism Disorders", "relevance": "LOW"}, {"id": "M7862", "name": "Endocrine System Diseases", "relevance": "LOW"}], "browseBranches": [{"abbrev": "BC18", "name": "Nutritional and Metabolic Diseases"}, {"abbrev": "BC19", "name": "Gland and Hormone Related Diseases"}, {"abbrev": "All", "name": "All Conditions"}]}, "interventionBrowseModule": {"meshes": [{"id": "D000008687", "term": "Metformin"}], "ancestors": [{"id": "D000007004", "term": "Hypoglycemic Agents"}, {"id": "D000045505", "term": "Physiological Effects of Drugs"}], "browseLeaves": [{"id": "M21860", "name": "Pharmaceutical Solutions", "relevance": "LOW"}, {"id": "M11667", "name": "Metformin", "asFound": "Assessment", "relevance": "HIGH"}, {"id": "M10054", "name": "Hypoglycemic Agents", "relevance": "LOW"}], "browseBranches": [{"abbrev": "PhSol", "name": "Pharmaceutical Solutions"}, {"abbrev": "All", "name": "All Drugs and Chemicals"}, {"abbrev": "Hypo", "name": "Hypoglycemic Agents"}]}}, "hasResults": true}