{"protocolSection": {"identificationModule": {"nctId": "NCT02281357", "orgStudyIdInfo": {"id": "D2210C00013"}, "organization": {"fullName": "AstraZeneca", "class": "INDUSTRY"}, "briefTitle": "Phase 3 Study to Evaluate the Efficacy & Safety of Tralokinumab in Adults & Adolescents With OCS Dependent Asthma", "officialTitle": "A Phase 3 Study to Evaluate the Efficacy and Safety of Tralokinumab in Reducing Oral Corticosteroid Use in Adults and Adolescents With Oral Corticosteroid Dependent Asthma (TROPOS)", "acronym": "TROPOS"}, "statusModule": {"statusVerifiedDate": "2019-02", "overallStatus": "COMPLETED", "expandedAccessInfo": {"hasExpandedAccess": false}, "startDateStruct": {"date": "2015-02-19", "type": "ACTUAL"}, "primaryCompletionDateStruct": {"date": "2017-09-07", "type": "ACTUAL"}, "completionDateStruct": {"date": "2017-09-07", "type": "ACTUAL"}, "studyFirstSubmitDate": "2014-10-30", "studyFirstSubmitQcDate": "2014-10-31", "studyFirstPostDateStruct": {"date": "2014-11-02", "type": "ESTIMATED"}, "resultsFirstSubmitDate": "2018-03-01", "resultsFirstSubmitQcDate": "2018-04-17", "resultsFirstPostDateStruct": {"date": "2018-05-16", "type": "ACTUAL"}, "lastUpdateSubmitDate": "2019-02-27", "lastUpdatePostDateStruct": {"date": "2019-03-15", "type": "ACTUAL"}}, "sponsorCollaboratorsModule": {"responsibleParty": {"type": "SPONSOR"}, "leadSponsor": {"name": "AstraZeneca", "class": "INDUSTRY"}}, "oversightModule": {"oversightHasDmc": true, "isFdaRegulatedDrug": true, "isFdaRegulatedDevice": false}, "descriptionModule": {"briefSummary": "A Multicentre, Randomized, Double-blind, Parallel Group, Placebo Controlled, Phase 3 Study to Evaluate the Efficacy and Safety of Tralokinumab in Reducing Oral Corticosteroid dependent Asthma.", "detailedDescription": "This is a randomized, double-blind, parallel group, placebo-controlled study designed to evaluate the efficacy and safety of a fixed 300 mg dose of tralokinumab administered subcutaneously every 2 weeks in adult and adolescent subjects with oral corticosteroid dependent asthma. Approximately120 subjects will be randomized globally. Subjects will receive tralokinumab or placebo, administered via subcutaneous injection at the study site, over a 40-week treatment period."}, "conditionsModule": {"conditions": ["Asthma"], "keywords": ["Asthma", "Reactive Airways", "Repiratory Tract Disease", "Obstructive Lung Disease", "Lung Diseases"]}, "designModule": {"studyType": "INTERVENTIONAL", "phases": ["PHASE3"], "designInfo": {"allocation": "RANDOMIZED", "interventionModel": "PARALLEL", "primaryPurpose": "TREATMENT", "maskingInfo": {"masking": "TRIPLE", "whoMasked": ["PARTICIPANT", "CARE_PROVIDER", "INVESTIGATOR"]}}, "enrollmentInfo": {"count": 140, "type": "ACTUAL"}}, "armsInterventionsModule": {"armGroups": [{"label": "Tralokinumab", "type": "EXPERIMENTAL", "description": "Tralokinumab subcutaneous injection", "interventionNames": ["Biological: Tralokinumab"]}, {"label": "Placebo", "type": "PLACEBO_COMPARATOR", "description": "Placebo subcutaneous injection", "interventionNames": ["Other: Placebo"]}], "interventions": [{"type": "BIOLOGICAL", "name": "Tralokinumab", "description": "Tralokinumab dose", "armGroupLabels": ["Tralokinumab"]}, {"type": "OTHER", "name": "Placebo", "description": "Placebo dose", "armGroupLabels": ["Placebo"]}]}, "outcomesModule": {"primaryOutcomes": [{"measure": "Percent Change From Baseline in the Final Daily, Average, OCS Dose at Week 40 While Not Losing Asthma Control.", "description": "The 40-week treatment period consisted of 3 phases: an induction phase (Week 0 to Week 12) where patients remained on their optimised OCS dose; an OCS reduction phase (Week 12 to Week 32) where OCS dose reduction could have started at Week 12 with the possibility of dose titration every 4 weeks to reach the lowest possible OCS dose; and a maintenance phase (Week 32 to Week 40) where patients remained on the OCS dose reached at Week 32 to demonstrate asthma control was maintained after achieving the lowest OCS dose. Criteria used to assess asthma control included lung function assessments (forced expiratory volume in 1 second and morning peak expiratory flow), night awakenings, and the use of rescue medication and systemic corticosteroids.\n\nThe least squares (LS) mean percent change from baseline in average daily OCS dose is presented. The final daily percent change from baseline was defined as {(Final daily average dose - baseline daily average dose)/baseline daily average dose}\\*100%.", "timeFrame": "Baseline (Week 0) and Week 40"}], "secondaryOutcomes": [{"measure": "The Number of Patients With Final Daily Average OCS Dose \u22645 mg at Week 40.", "description": "The 40-week treatment period consisted of 3 phases: an induction phase (Week 0 to Week 12) where patients remained on their optimised OCS dose; an OCS reduction phase (Week 12 to Week 32) where OCS dose reduction could have started at Week 12 with the possibility of dose titration every 4 weeks to reach the lowest possible OCS dose; and a maintenance phase (Week 32 to Week 40) where patients remained on the OCS dose reached at Week 32 to demonstrate asthma control was maintained after achieving the lowest OCS dose.\n\nThe number of patients with a final daily average OCS dose \u22645.0 mg is presented. For patients prescribed a fixed daily dose, then the average OCS dose was defined as the prescribed dose. For patients on a regimen where a different amount of OCS was to be taken each day, then the average OCS dose was defined as the average amount prescribed to be taken each day.", "timeFrame": "At Week 40"}, {"measure": "The Number of Patients With \u226550% Reduction in Final Average Daily OCS Dose at Week 40.", "description": "The 40-week treatment period consisted of 3 phases: an induction phase (Week 0 to Week 12) where patients remained on their optimised OCS dose; an OCS reduction phase (Week 12 to Week 32) where OCS dose reduction could have started at Week 12 with the possibility of dose titration every 4 weeks to reach the lowest possible OCS dose; and a maintenance phase (Week 32 to Week 40) where patients remained on the OCS dose reached at Week 32 to demonstrate asthma control was maintained after achieving the lowest OCS dose.\n\nThe number of patients with \u226550% reduction in average daily OCS dose is presented. The final daily percent change from baseline was defined as {(Final daily average dose - baseline daily average dose)/baseline daily average dose}\\*100%. If this resulted in a value of -50% or less (more negative), that patient was classified as having at least a 50% reduction in final daily average OCS dose.", "timeFrame": "At Week 40"}, {"measure": "Annual Asthma Exacerbation Rate (AAER) up to Week 40.", "description": "AAER up to Week 40 in the tralokinumab group was compared to that seen in the placebo group. The response variable was the number of exacerbations the patient experienced up to Week 40, with the logarithm of the time at risk in years of experiencing an exacerbation included as offset in the model.\n\nAAER = number of exacerbations\\*365.25/(follow-up date - date of randomisation + 1).\n\nAsthma exacerbation was defined as a worsening of asthma that led to any of the following:\n\n* Use of systemic corticosteroids for at least 3 days; a single depo-injectable dose of corticosteroids was considered equivalent to a 3-day course of systemic corticosteroids.\n* An emergency room (ER) or urgent care (UC) visit (defined as evaluation and treatment for \\<24 hours in an ER or UC centre) due to asthma that required systemic corticosteroids.\n* An inpatient hospitalisation (defined as admission to an inpatient facility and/or evaluation and treatment in a healthcare facility for \u226524 hours) due to asthma.", "timeFrame": "Baseline (Week 0) up to Week 40"}]}, "eligibilityModule": {"eligibilityCriteria": "Inclusion Criteria:\n\n1) Age 12-75 2) Documented physician-diagnosed asthma. 3) Documented treatment with ICS at a total daily dose corresponding to \u2265500\u00b5g fluticasone propionate dry powder formulation and a LABA. 4) Subjects must have received OCS for the treatment of asthma for 6 months prior to Visit 1 and on a stable OCS dose between \u22657.5 to \u226430mg daily or daily equivalent for at least one month prior to enrolment (Visit 1) . 5) Pre-BD FEV1 value \\<80% (\\<90% for patients 12-17 yrs of age) of their PNV. 6) Post-BD reversibility of \u226512% in FEV1.\n\nExclusion Criteria:\n\n1) Clinically important pulmonary disease other than asthma. 2) History of anaphylaxis following any biologic therapy. 3) Hepatitis B, C or HIV. 4) Pregnant or breastfeeding. 5) History of cancer. 6) Current tobacco smoking or a history of tobacco smoking for \u226510 pack-years. 7) Previous receipt of tralokinumab.", "healthyVolunteers": false, "sex": "ALL", "minimumAge": "12 Years", "maximumAge": "75 Years", "stdAges": ["CHILD", "ADULT", "OLDER_ADULT"]}, "contactsLocationsModule": {"overallOfficials": [{"name": "William W Busse, M.D.", "affiliation": "University of Wisconsin School of Medicine and Public Health, Department of Medicine, Allergy & Immunology", "role": "PRINCIPAL_INVESTIGATOR"}], "locations": [{"facility": "Research Site", "city": "New Haven", "state": "Connecticut", "zip": "06520", "country": "United States", "geoPoint": {"lat": 41.30815, "lon": -72.92816}}, {"facility": "Research Site", "city": "Clearwater", "state": "Florida", "zip": "33765", "country": "United States", "geoPoint": {"lat": 27.96585, "lon": -82.8001}}, {"facility": "Research Site", "city": "Saint Louis", "state": "Missouri", "zip": "63141", "country": "United States", "geoPoint": {"lat": 38.62727, "lon": -90.19789}}, {"facility": "Research Site", "city": "Bronx", "state": "New York", "zip": "10461", "country": "United States", "geoPoint": {"lat": 40.84985, "lon": -73.86641}}, {"facility": "Research Site", "city": "Rochester", "state": "New York", "zip": "14618", "country": "United States", "geoPoint": {"lat": 43.15478, "lon": -77.61556}}, {"facility": "Research Site", "city": "Durham", "state": "North Carolina", "zip": "27705", "country": "United States", "geoPoint": {"lat": 35.99403, "lon": -78.89862}}, {"facility": "Research Site", "city": "Monroeville", "state": "Pennsylvania", "zip": "15146", "country": "United States", "geoPoint": {"lat": 40.42118, "lon": -79.7881}}, {"facility": "Research Site", "city": "Philadelphia", "state": "Pennsylvania", "zip": "19140", "country": "United States", "geoPoint": {"lat": 39.95233, "lon": -75.16379}}, {"facility": "Research Site", "city": "Anderson", "state": "South Carolina", "zip": "29621", "country": "United States", "geoPoint": {"lat": 34.50344, "lon": -82.65013}}, {"facility": "Research Site", "city": "Spartanburg", "state": "South Carolina", "zip": "29303", "country": "United States", "geoPoint": {"lat": 34.94957, "lon": -81.93205}}, {"facility": "Research Site", "city": "Boerne", "state": "Texas", "zip": "78006", "country": "United States", "geoPoint": {"lat": 29.79466, "lon": -98.73197}}, {"facility": "Research Site", "city": "Dallas", "state": "Texas", "zip": "75246", "country": "United States", "geoPoint": {"lat": 32.78306, "lon": -96.80667}}, {"facility": "Research Site", "city": "San Antonio", "state": "Texas", "zip": "78212", "country": "United States", "geoPoint": {"lat": 29.42412, "lon": -98.49363}}, {"facility": "Research Site", "city": "Tyler", "state": "Texas", "zip": "75708", "country": "United States", "geoPoint": {"lat": 32.35126, "lon": -95.30106}}, {"facility": "Research Site", "city": "Richmond", "state": "Virginia", "zip": "23225", "country": "United States", "geoPoint": {"lat": 37.55376, "lon": -77.46026}}, {"facility": "Research Site", "city": "Brussels (Anderlecht)", "zip": "1070", "country": "Belgium", "geoPoint": {"lat": 50.85045, "lon": 4.34878}}, {"facility": "Research Site", "city": "Gent", "zip": "9000", "country": "Belgium", "geoPoint": {"lat": 51.05, "lon": 3.71667}}, {"facility": "Research Site", "city": "Hasselt", "zip": "3500", "country": "Belgium", "geoPoint": {"lat": 50.93106, "lon": 5.33781}}, {"facility": "Research Site", "city": "Leuven", "zip": "3000", "country": "Belgium", "geoPoint": {"lat": 50.87959, "lon": 4.70093}}, {"facility": "Research Site", "city": "Woluw\u00e9-St-Lambert", "zip": "1200", "country": "Belgium", "geoPoint": {"lat": 50.84389, "lon": 4.42912}}, {"facility": "Research Site", "city": "GRENOBLE Cedex 9", "zip": "38043", "country": "France", "geoPoint": {"lat": 45.16667, "lon": 5.71667}}, {"facility": "Research Site", "city": "Lille Cedex", "zip": "59037", "country": "France", "geoPoint": {"lat": 50.63297, "lon": 3.05858}}, {"facility": "Research Site", "city": "Lyon Cedex 04", "zip": "69317", "country": "France", "geoPoint": {"lat": 45.74848, "lon": 4.84669}}, {"facility": "Research Site", "city": "Nantes Cedex 1", "zip": "44093", "country": "France", "geoPoint": {"lat": 47.21725, "lon": -1.55336}}, {"facility": "Research Site", "city": "Pessac", "zip": "33604", "country": "France", "geoPoint": {"lat": 44.81011, "lon": -0.64129}}, {"facility": "Research Site", "city": "Berlin", "zip": "10717", "country": "Germany", "geoPoint": {"lat": 52.52437, "lon": 13.41053}}, {"facility": "Research Site", "city": "Berlin", "zip": "10969", "country": "Germany", "geoPoint": {"lat": 52.52437, "lon": 13.41053}}, {"facility": "Research Site", "city": "Frankfurt", "zip": "60596", "country": "Germany", "geoPoint": {"lat": 50.11552, "lon": 8.68417}}, {"facility": "Research Site", "city": "Hamburg", "zip": "22299", "country": "Germany", "geoPoint": {"lat": 53.57532, "lon": 10.01534}}, {"facility": "Research Site", "city": "Hannover", "zip": "30625", "country": "Germany", "geoPoint": {"lat": 52.37052, "lon": 9.73322}}, {"facility": "Research Site", "city": "Mainz", "zip": "55131", "country": "Germany", "geoPoint": {"lat": 49.98419, "lon": 8.2791}}, {"facility": "Research Site", "city": "M\u00fcnchen-Pasing", "zip": "81241", "country": "Germany", "geoPoint": {"lat": 51.60698, "lon": 13.31243}}, {"facility": "Research Site", "city": "M\u00fcnchen", "zip": "80331", "country": "Germany", "geoPoint": {"lat": 48.13743, "lon": 11.57549}}, {"facility": "Research Site", "city": "Amsterdam", "zip": "1105 AZ", "country": "Netherlands", "geoPoint": {"lat": 52.37403, "lon": 4.88969}}, {"facility": "Research Site", "city": "Groningen", "zip": "9728 NT", "country": "Netherlands", "geoPoint": {"lat": 53.21917, "lon": 6.56667}}, {"facility": "Research Site", "city": "Leeuwarden", "zip": "8934 AD", "country": "Netherlands", "geoPoint": {"lat": 53.20139, "lon": 5.80859}}, {"facility": "Research Site", "city": "Bystra \u015al\u0105ska", "zip": "43-360", "country": "Poland"}, {"facility": "Research Site", "city": "Krak\u00f3w", "zip": "31-011", "country": "Poland", "geoPoint": {"lat": 50.06143, "lon": 19.93658}}, {"facility": "Research Site", "city": "Krak\u00f3w", "zip": "31-209", "country": "Poland", "geoPoint": {"lat": 50.06143, "lon": 19.93658}}, {"facility": "Research Site", "city": "Lubin", "zip": "59-300", "country": "Poland", "geoPoint": {"lat": 51.40089, "lon": 16.20149}}, {"facility": "Research Site", "city": "Ostrowiec \u015awi\u0119tokrzyski", "zip": "27-400", "country": "Poland", "geoPoint": {"lat": 50.92936, "lon": 21.38525}}, {"facility": "Research Site", "city": "Rzesz\u00f3w", "zip": "35-051", "country": "Poland", "geoPoint": {"lat": 50.04132, "lon": 21.99901}}, {"facility": "Research Site", "city": "Wroc\u0142aw", "zip": "50-220", "country": "Poland", "geoPoint": {"lat": 51.1, "lon": 17.03333}}, {"facility": "Research Site", "city": "Wroc\u0142aw", "zip": "53-301", "country": "Poland", "geoPoint": {"lat": 51.1, "lon": 17.03333}}, {"facility": "Research Site", "city": "\u0141\u00f3d\u017a", "zip": "90-141", "country": "Poland", "geoPoint": {"lat": 51.75, "lon": 19.46667}}, {"facility": "Research Site", "city": "Dnipro", "zip": "49007", "country": "Ukraine", "geoPoint": {"lat": 48.4593, "lon": 35.03864}}, {"facility": "Research Site", "city": "Kharkiv", "zip": "61002", "country": "Ukraine", "geoPoint": {"lat": 49.98081, "lon": 36.25272}}, {"facility": "Research Site", "city": "Kharkiv", "zip": "61035", "country": "Ukraine", "geoPoint": {"lat": 49.98081, "lon": 36.25272}}, {"facility": "Research Site", "city": "Kyiv", "zip": "03680", "country": "Ukraine", "geoPoint": {"lat": 50.45466, "lon": 30.5238}}, {"facility": "Research Site", "city": "Kyiv", "zip": "04201", "country": "Ukraine", "geoPoint": {"lat": 50.45466, "lon": 30.5238}}, {"facility": "Research Site", "city": "Vinnytsia", "zip": "21001", "country": "Ukraine", "geoPoint": {"lat": 49.23278, "lon": 28.48097}}]}, "referencesModule": {"references": [{"pmid": "30442714", "type": "BACKGROUND", "citation": "Busse WW, Brusselle GG, Korn S, Kuna P, Magnan A, Cohen D, Bowen K, Piechowiak T, Wang MM, Colice G. Tralokinumab did not demonstrate oral corticosteroid-sparing effects in severe asthma. Eur Respir J. 2019 Jan 31;53(2):1800948. doi: 10.1183/13993003.00948-2018. Print 2019 Feb."}, {"pmid": "29536781", "type": "DERIVED", "citation": "Panettieri RA Jr, Wang M, Braddock M, Bowen K, Colice G. Tralokinumab for the treatment of severe, uncontrolled asthma: the ATMOSPHERE clinical development program. Immunotherapy. 2018 Mar 1;10(6):473-490. doi: 10.2217/imt-2017-0191. Epub 2018 Mar 14."}], "seeAlsoLinks": [{"label": "Related Info", "url": "http://filehosting.pharmacm.com/DownloadService.ashx?client=CTR_MED_7111&studyid=2966&filename=d2210c00013-revised-csp-4_Redacted_PDFA.pdf"}, {"label": "Related Info", "url": "http://filehosting.pharmacm.com/DownloadService.ashx?client=CTR_MED_7111&studyid=2966&filename=d2210c00013-sap-ed-3_redaction_proposed_Redacted_PDFA.pdf"}]}}, "resultsSection": {"participantFlowModule": {"preAssignmentDetails": "218 patients were screened. Prior to randomisation, patients completed a run-in period or run-in/oral corticosteroid (OCS) optimisation period (reached their minimum effective dose of OCS and remained stable on that dose for 2 weeks). 140 patients were randomised to study treatment. All randomised patients received study treatment.", "recruitmentDetails": "First patient enrolled: 19 February 2015; Last patient last visit: 07 September 2017. Study performed at 56 sites in 7 countries. Patients were maintained on their currently prescribed inhaled corticosteroid long-acting \u03b22-agonist therapy and any additional asthma controller medications throughout the study period.", "groups": [{"id": "FG000", "title": "Tralokinumab", "description": "Tralokinumab 300 milligrams (mg) administered by subcutaneous (SC) injection every two weeks (Q2W) over a 40-week treatment period."}, {"id": "FG001", "title": "Placebo", "description": "Placebo was administered by SC injection over a 40-week treatment period."}], "periods": [{"title": "Overall Study", "milestones": [{"type": "STARTED", "achievements": [{"groupId": "FG000", "numSubjects": "70"}, {"groupId": "FG001", "numSubjects": "70"}]}, {"type": "COMPLETED", "comment": "Patients who completed treatment and patients who discontinued treatment but completed the study.", "achievements": [{"groupId": "FG000", "numSubjects": "63"}, {"groupId": "FG001", "numSubjects": "66"}]}, {"type": "NOT COMPLETED", "achievements": [{"groupId": "FG000", "numSubjects": "7"}, {"groupId": "FG001", "numSubjects": "4"}]}], "dropWithdraws": [{"type": "Adverse Event", "reasons": [{"groupId": "FG000", "numSubjects": "2"}, {"groupId": "FG001", "numSubjects": "1"}]}, {"type": "Lost to Follow-up", "reasons": [{"groupId": "FG000", "numSubjects": "1"}, {"groupId": "FG001", "numSubjects": "0"}]}, {"type": "Withdrawal by Subject", "reasons": [{"groupId": "FG000", "numSubjects": "4"}, {"groupId": "FG001", "numSubjects": "3"}]}]}]}, "baselineCharacteristicsModule": {"populationDescription": "All patients in the full analysis set (FAS) who received any study treatment (tralokinumab or placebo) were included in the baseline analysis.", "groups": [{"id": "BG000", "title": "Tralokinumab", "description": "Tralokinumab 300 mg administered by SC injection Q2W over a 40-week treatment period."}, {"id": "BG001", "title": "Placebo", "description": "Placebo was administered by SC injection over a 40-week treatment period."}, {"id": "BG002", "title": "Total", "description": "Total of all reporting groups"}], "denoms": [{"units": "Participants", "counts": [{"groupId": "BG000", "value": "70"}, {"groupId": "BG001", "value": "70"}, {"groupId": "BG002", "value": "140"}]}], "measures": [{"title": "Age, Categorical", "paramType": "COUNT_OF_PARTICIPANTS", "unitOfMeasure": "Participants", "classes": [{"categories": [{"title": "<=18 years", "measurements": [{"groupId": "BG000", "value": "1"}, {"groupId": "BG001", "value": "0"}, {"groupId": "BG002", "value": "1"}]}, {"title": "Between 18 and 65 years", "measurements": [{"groupId": "BG000", "value": "58"}, {"groupId": "BG001", "value": "55"}, {"groupId": "BG002", "value": "113"}]}, {"title": ">=65 years", "measurements": [{"groupId": "BG000", "value": "11"}, {"groupId": "BG001", "value": "15"}, {"groupId": "BG002", "value": "26"}]}]}]}, {"title": "Age, Continuous", "paramType": "MEAN", "dispersionType": "STANDARD_DEVIATION", "unitOfMeasure": "years", "classes": [{"categories": [{"measurements": [{"groupId": "BG000", "value": "54.0", "spread": "11.05"}, {"groupId": "BG001", "value": "55.4", "spread": "10.26"}, {"groupId": "BG002", "value": "54.7", "spread": "10.65"}]}]}]}, {"title": "Sex: Female, Male", "paramType": "COUNT_OF_PARTICIPANTS", "unitOfMeasure": "Participants", "classes": [{"categories": [{"title": "Female", "measurements": [{"groupId": "BG000", "value": "48"}, {"groupId": "BG001", "value": "39"}, {"groupId": "BG002", "value": "87"}]}, {"title": "Male", "measurements": [{"groupId": "BG000", "value": "22"}, {"groupId": "BG001", "value": "31"}, {"groupId": "BG002", "value": "53"}]}]}]}, {"title": "Race (NIH/OMB)", "paramType": "COUNT_OF_PARTICIPANTS", "unitOfMeasure": "Participants", "classes": [{"categories": [{"title": "American Indian or Alaska Native", "measurements": [{"groupId": "BG000", "value": "0"}, {"groupId": "BG001", "value": "0"}, {"groupId": "BG002", "value": "0"}]}, {"title": "Asian", "measurements": [{"groupId": "BG000", "value": "1"}, {"groupId": "BG001", "value": "0"}, {"groupId": "BG002", "value": "1"}]}, {"title": "Native Hawaiian or Other Pacific Islander", "measurements": [{"groupId": "BG000", "value": "0"}, {"groupId": "BG001", "value": "0"}, {"groupId": "BG002", "value": "0"}]}, {"title": "Black or African American", "measurements": [{"groupId": "BG000", "value": "2"}, {"groupId": "BG001", "value": "5"}, {"groupId": "BG002", "value": "7"}]}, {"title": "White", "measurements": [{"groupId": "BG000", "value": "66"}, {"groupId": "BG001", "value": "63"}, {"groupId": "BG002", "value": "129"}]}, {"title": "More than one race", "measurements": [{"groupId": "BG000", "value": "0"}, {"groupId": "BG001", "value": "0"}, {"groupId": "BG002", "value": "0"}]}, {"title": "Unknown or Not Reported", "measurements": [{"groupId": "BG000", "value": "1"}, {"groupId": "BG001", "value": "2"}, {"groupId": "BG002", "value": "3"}]}]}]}]}, "outcomeMeasuresModule": {"outcomeMeasures": [{"type": "PRIMARY", "title": "Percent Change From Baseline in the Final Daily, Average, OCS Dose at Week 40 While Not Losing Asthma Control.", "description": "The 40-week treatment period consisted of 3 phases: an induction phase (Week 0 to Week 12) where patients remained on their optimised OCS dose; an OCS reduction phase (Week 12 to Week 32) where OCS dose reduction could have started at Week 12 with the possibility of dose titration every 4 weeks to reach the lowest possible OCS dose; and a maintenance phase (Week 32 to Week 40) where patients remained on the OCS dose reached at Week 32 to demonstrate asthma control was maintained after achieving the lowest OCS dose. Criteria used to assess asthma control included lung function assessments (forced expiratory volume in 1 second and morning peak expiratory flow), night awakenings, and the use of rescue medication and systemic corticosteroids.\n\nThe least squares (LS) mean percent change from baseline in average daily OCS dose is presented. The final daily percent change from baseline was defined as {(Final daily average dose - baseline daily average dose)/baseline daily average dose}\\*100%.", "populationDescription": "The FAS included all randomised patients who received at least one dose of study treatment, irrespective of their protocol adherence and continued participation in the study.", "reportingStatus": "POSTED", "paramType": "LEAST_SQUARES_MEAN", "dispersionType": "Standard Error", "unitOfMeasure": "Percent change from baseline", "timeFrame": "Baseline (Week 0) and Week 40", "groups": [{"id": "OG000", "title": "Tralokinumab", "description": "Tralokinumab 300 mg administered by SC injection Q2W over a 40-week treatment period."}, {"id": "OG001", "title": "Placebo", "description": "Placebo was administered by SC injection over a 40-week treatment period."}], "denoms": [{"units": "Participants", "counts": [{"groupId": "OG000", "value": "70"}, {"groupId": "OG001", "value": "70"}]}], "classes": [{"categories": [{"measurements": [{"groupId": "OG000", "value": "-37.62", "spread": "4.98"}, {"groupId": "OG001", "value": "-29.85", "spread": "4.98"}]}]}], "analyses": [{"groupIds": ["OG000", "OG001"], "groupDescription": "Comparison of percent change from baseline in OCS dose: tralokinumab vs placebo.", "nonInferiorityType": "SUPERIORITY", "nonInferiorityComment": "The null hypothesis was that the average percentage change in OCS dose on tralokinumab was equal to the average percentage change in OCS dose on placebo.", "pValue": "0.271", "statisticalMethod": "ANCOVA", "statisticalComment": "The analysis of covariance (ANCOVA) model utilised a sandwich estimator for the variance.", "paramType": "LS Mean difference", "paramValue": "-7.78", "ciPctValue": "95", "ciNumSides": "TWO_SIDED", "ciLowerLimit": "-21.70", "ciUpperLimit": "6.15", "estimateComment": "The model included treatment group as a fixed effect and baseline OCS dose as a continuous covariate. No interaction terms were included in the model. All group comparisons from the ANCOVA model were based on Type III sums of squares."}]}, {"type": "SECONDARY", "title": "The Number of Patients With Final Daily Average OCS Dose \u22645 mg at Week 40.", "description": "The 40-week treatment period consisted of 3 phases: an induction phase (Week 0 to Week 12) where patients remained on their optimised OCS dose; an OCS reduction phase (Week 12 to Week 32) where OCS dose reduction could have started at Week 12 with the possibility of dose titration every 4 weeks to reach the lowest possible OCS dose; and a maintenance phase (Week 32 to Week 40) where patients remained on the OCS dose reached at Week 32 to demonstrate asthma control was maintained after achieving the lowest OCS dose.\n\nThe number of patients with a final daily average OCS dose \u22645.0 mg is presented. For patients prescribed a fixed daily dose, then the average OCS dose was defined as the prescribed dose. For patients on a regimen where a different amount of OCS was to be taken each day, then the average OCS dose was defined as the average amount prescribed to be taken each day.", "populationDescription": "The FAS included all randomised patients who received at least one dose of study treatment, irrespective of their protocol adherence and continued participation in the study.", "reportingStatus": "POSTED", "paramType": "COUNT_OF_PARTICIPANTS", "unitOfMeasure": "Participants", "timeFrame": "At Week 40", "groups": [{"id": "OG000", "title": "Tralokinumab", "description": "Tralokinumab 300 mg administered by SC injection Q2W over a 40-week treatment period."}, {"id": "OG001", "title": "Placebo", "description": "Placebo was administered by SC injection over a 40-week treatment period."}], "denoms": [{"units": "Participants", "counts": [{"groupId": "OG000", "value": "70"}, {"groupId": "OG001", "value": "70"}]}], "classes": [{"categories": [{"measurements": [{"groupId": "OG000", "value": "32"}, {"groupId": "OG001", "value": "28"}]}]}], "analyses": [{"groupIds": ["OG000", "OG001"], "groupDescription": "Comparison of OCS dose \u22645.0 mg: tralokinumab vs placebo.", "nonInferiorityType": "SUPERIORITY", "pValue": "0.442", "statisticalMethod": "Regression, Logistic", "statisticalComment": "The model included treatment group as a fixed effect and baseline OCS dose as a continuous covariate.", "paramType": "Odds Ratio (OR)", "paramValue": "1.33", "ciPctValue": "95", "ciNumSides": "TWO_SIDED", "ciLowerLimit": "0.65", "ciUpperLimit": "2.73"}]}, {"type": "SECONDARY", "title": "The Number of Patients With \u226550% Reduction in Final Average Daily OCS Dose at Week 40.", "description": "The 40-week treatment period consisted of 3 phases: an induction phase (Week 0 to Week 12) where patients remained on their optimised OCS dose; an OCS reduction phase (Week 12 to Week 32) where OCS dose reduction could have started at Week 12 with the possibility of dose titration every 4 weeks to reach the lowest possible OCS dose; and a maintenance phase (Week 32 to Week 40) where patients remained on the OCS dose reached at Week 32 to demonstrate asthma control was maintained after achieving the lowest OCS dose.\n\nThe number of patients with \u226550% reduction in average daily OCS dose is presented. The final daily percent change from baseline was defined as {(Final daily average dose - baseline daily average dose)/baseline daily average dose}\\*100%. If this resulted in a value of -50% or less (more negative), that patient was classified as having at least a 50% reduction in final daily average OCS dose.", "populationDescription": "The FAS included all randomised patients who received at least one dose of study treatment, irrespective of their protocol adherence and continued participation in the study.", "reportingStatus": "POSTED", "paramType": "COUNT_OF_PARTICIPANTS", "unitOfMeasure": "Participants", "timeFrame": "At Week 40", "groups": [{"id": "OG000", "title": "Tralokinumab", "description": "Tralokinumab 300 mg administered by SC injection Q2W over a 40-week treatment period."}, {"id": "OG001", "title": "Placebo", "description": "Placebo was administered by SC injection over a 40-week treatment period."}], "denoms": [{"units": "Participants", "counts": [{"groupId": "OG000", "value": "70"}, {"groupId": "OG001", "value": "70"}]}], "classes": [{"categories": [{"measurements": [{"groupId": "OG000", "value": "31"}, {"groupId": "OG001", "value": "26"}]}]}], "analyses": [{"groupIds": ["OG000", "OG001"], "groupDescription": "Comparison of \u226550% reduction in OCS dose: tralokinumab vs placebo.", "nonInferiorityType": "SUPERIORITY", "pValue": "0.356", "statisticalMethod": "Regression, Logistic", "statisticalComment": "The model included treatment group as a fixed effect and baseline OCS dose as a continuous covariate.", "paramType": "Odds Ratio (OR)", "paramValue": "1.38", "ciPctValue": "95", "ciNumSides": "TWO_SIDED", "ciLowerLimit": "0.70", "ciUpperLimit": "2.74"}]}, {"type": "SECONDARY", "title": "Annual Asthma Exacerbation Rate (AAER) up to Week 40.", "description": "AAER up to Week 40 in the tralokinumab group was compared to that seen in the placebo group. The response variable was the number of exacerbations the patient experienced up to Week 40, with the logarithm of the time at risk in years of experiencing an exacerbation included as offset in the model.\n\nAAER = number of exacerbations\\*365.25/(follow-up date - date of randomisation + 1).\n\nAsthma exacerbation was defined as a worsening of asthma that led to any of the following:\n\n* Use of systemic corticosteroids for at least 3 days; a single depo-injectable dose of corticosteroids was considered equivalent to a 3-day course of systemic corticosteroids.\n* An emergency room (ER) or urgent care (UC) visit (defined as evaluation and treatment for \\<24 hours in an ER or UC centre) due to asthma that required systemic corticosteroids.\n* An inpatient hospitalisation (defined as admission to an inpatient facility and/or evaluation and treatment in a healthcare facility for \u226524 hours) due to asthma.", "populationDescription": "The FAS included all randomised patients who received at least one dose of study treatment, irrespective of their protocol adherence and continued participation in the study.", "reportingStatus": "POSTED", "paramType": "NUMBER", "dispersionType": "95% Confidence Interval", "unitOfMeasure": "Adjusted rate (events/year)", "timeFrame": "Baseline (Week 0) up to Week 40", "groups": [{"id": "OG000", "title": "Tralokinumab", "description": "Tralokinumab 300 mg administered by SC injection Q2W over a 40-week treatment period."}, {"id": "OG001", "title": "Placebo", "description": "Placebo was administered by SC injection over a 40-week treatment period."}], "denoms": [{"units": "Participants", "counts": [{"groupId": "OG000", "value": "70"}, {"groupId": "OG001", "value": "70"}]}], "classes": [{"categories": [{"measurements": [{"groupId": "OG000", "value": "1.84", "lowerLimit": "1.43", "upperLimit": "2.36"}, {"groupId": "OG001", "value": "2.31", "lowerLimit": "1.83", "upperLimit": "2.92"}]}]}], "analyses": [{"groupIds": ["OG000", "OG001"], "groupDescription": "Comparison of AAER: tralokinumab vs placebo.", "nonInferiorityType": "SUPERIORITY", "pValue": "0.186", "statisticalMethod": "Negative binomial", "paramType": "Rate Ratio", "paramValue": "0.80", "ciPctValue": "95", "ciNumSides": "TWO_SIDED", "ciLowerLimit": "0.57", "ciUpperLimit": "1.12", "estimateComment": "Treatment group, OCS dose at baseline, and number of exacerbations in the previous year are included in the model as covariates."}]}]}, "adverseEventsModule": {"frequencyThreshold": "5", "timeFrame": "40 weeks.", "description": "Data is reported for adverse events with an onset date \u2265 the first day of study treatment and \u2264 (the last day of study treatment + 2 weeks). Patient population was the safety analysis set which included all patients who received at least one dose of study treatment.", "eventGroups": [{"id": "EG000", "title": "Tralo 300 mg Q2W", "description": "Tralokinumab 300 mg administered by SC injection Q2W over a 40-week treatment period.", "deathsNumAffected": 0, "deathsNumAtRisk": 70, "seriousNumAffected": 9, "seriousNumAtRisk": 70, "otherNumAffected": 55, "otherNumAtRisk": 70}, {"id": "EG001", "title": "Placebo", "description": "Placebo was administered by SC injection over a 40-week treatment period.", "deathsNumAffected": 0, "deathsNumAtRisk": 70, "seriousNumAffected": 16, "seriousNumAtRisk": 70, "otherNumAffected": 44, "otherNumAtRisk": 70}], "seriousEvents": [{"term": "Colitis", "organSystem": "Gastrointestinal disorders", "sourceVocabulary": "MedDRA 20.0", "assessmentType": "SYSTEMATIC_ASSESSMENT", "stats": [{"groupId": "EG000", "numEvents": 0, "numAffected": 0, "numAtRisk": 70}, {"groupId": "EG001", "numEvents": 1, "numAffected": 1, "numAtRisk": 70}]}, {"term": "Bronchitis", "organSystem": "Infections and infestations", "sourceVocabulary": "MedDRA 20.0", "assessmentType": "SYSTEMATIC_ASSESSMENT", "stats": [{"groupId": "EG000", "numEvents": 1, "numAffected": 1, "numAtRisk": 70}, {"groupId": "EG001", "numEvents": 1, "numAffected": 1, "numAtRisk": 70}]}, {"term": "Influenza", "organSystem": "Infections and infestations", "sourceVocabulary": "MedDRA 20.0", "assessmentType": "SYSTEMATIC_ASSESSMENT", "stats": [{"groupId": "EG000", "numEvents": 0, "numAffected": 0, "numAtRisk": 70}, {"groupId": "EG001", "numEvents": 1, "numAffected": 1, "numAtRisk": 70}]}, {"term": "Urinary tract infection", "organSystem": "Infections and infestations", "sourceVocabulary": "MedDRA 20.0", "assessmentType": "SYSTEMATIC_ASSESSMENT", "stats": [{"groupId": "EG000", "numEvents": 0, "numAffected": 0, "numAtRisk": 70}, {"groupId": "EG001", "numEvents": 1, "numAffected": 1, "numAtRisk": 70}]}, {"term": "Hand fracture", "organSystem": "Injury, poisoning and procedural complications", "sourceVocabulary": "MedDRA 20.0", "assessmentType": "SYSTEMATIC_ASSESSMENT", "stats": [{"groupId": "EG000", "numEvents": 1, "numAffected": 1, "numAtRisk": 70}, {"groupId": "EG001", "numEvents": 0, "numAffected": 0, "numAtRisk": 70}]}, {"term": "Rib fracture", "organSystem": "Injury, poisoning and procedural complications", "sourceVocabulary": "MedDRA 20.0", "assessmentType": "SYSTEMATIC_ASSESSMENT", "stats": [{"groupId": "EG000", "numEvents": 0, "numAffected": 0, "numAtRisk": 70}, {"groupId": "EG001", "numEvents": 1, "numAffected": 1, "numAtRisk": 70}]}, {"term": "Pulmonary function test abnormal", "organSystem": "Investigations", "sourceVocabulary": "MedDRA 20.0", "assessmentType": "SYSTEMATIC_ASSESSMENT", "stats": [{"groupId": "EG000", "numEvents": 1, "numAffected": 1, "numAtRisk": 70}, {"groupId": "EG001", "numEvents": 0, "numAffected": 0, "numAtRisk": 70}]}, {"term": "Weight decreased", "organSystem": "Investigations", "sourceVocabulary": "MedDRA 20.0", "assessmentType": "SYSTEMATIC_ASSESSMENT", "stats": [{"groupId": "EG000", "numEvents": 0, "numAffected": 0, "numAtRisk": 70}, {"groupId": "EG001", "numEvents": 1, "numAffected": 1, "numAtRisk": 70}]}, {"term": "Rotator cuff syndrome", "organSystem": "Musculoskeletal and connective tissue disorders", "sourceVocabulary": "MedDRA 20.0", "assessmentType": "SYSTEMATIC_ASSESSMENT", "stats": [{"groupId": "EG000", "numEvents": 0, "numAffected": 0, "numAtRisk": 70}, {"groupId": "EG001", "numEvents": 1, "numAffected": 1, "numAtRisk": 70}]}, {"term": "Tendonitis", "organSystem": "Musculoskeletal and connective tissue disorders", "sourceVocabulary": "MedDRA 20.0", "assessmentType": "SYSTEMATIC_ASSESSMENT", "stats": [{"groupId": "EG000", "numEvents": 1, "numAffected": 1, "numAtRisk": 70}, {"groupId": "EG001", "numEvents": 0, "numAffected": 0, "numAtRisk": 70}]}, {"term": "Breast cancer female", "organSystem": "Neoplasms benign, malignant and unspecified (incl cysts and polyps)", "sourceVocabulary": "MedDRA 20.0", "assessmentType": "SYSTEMATIC_ASSESSMENT", "stats": [{"groupId": "EG000", "numEvents": 1, "numAffected": 1, "numAtRisk": 70}, {"groupId": "EG001", "numEvents": 0, "numAffected": 0, "numAtRisk": 70}]}, {"term": "Uterine leiomyoma", "organSystem": "Neoplasms benign, malignant and unspecified (incl cysts and polyps)", "sourceVocabulary": "MedDRA 20.0", "assessmentType": "SYSTEMATIC_ASSESSMENT", "stats": [{"groupId": "EG000", "numEvents": 0, "numAffected": 0, "numAtRisk": 70}, {"groupId": "EG001", "numEvents": 1, "numAffected": 1, "numAtRisk": 70}]}, {"term": "Acute kidney injury", "organSystem": "Renal and urinary disorders", "sourceVocabulary": "MedDRA 20.0", "assessmentType": "SYSTEMATIC_ASSESSMENT", "stats": [{"groupId": "EG000", "numEvents": 0, "numAffected": 0, "numAtRisk": 70}, {"groupId": "EG001", "numEvents": 1, "numAffected": 1, "numAtRisk": 70}]}, {"term": "Vaginal prolapse", "organSystem": "Reproductive system and breast disorders", "sourceVocabulary": "MedDRA 20.0", "assessmentType": "SYSTEMATIC_ASSESSMENT", "stats": [{"groupId": "EG000", "numEvents": 0, "numAffected": 0, "numAtRisk": 70}, {"groupId": "EG001", "numEvents": 1, "numAffected": 1, "numAtRisk": 70}]}, {"term": "Asthma", "organSystem": "Respiratory, thoracic and mediastinal disorders", "sourceVocabulary": "MedDRA 20.0", "assessmentType": "SYSTEMATIC_ASSESSMENT", "stats": [{"groupId": "EG000", "numEvents": 5, "numAffected": 5, "numAtRisk": 70}, {"groupId": "EG001", "numEvents": 12, "numAffected": 8, "numAtRisk": 70}]}], "otherEvents": [{"term": "Fatigue", "organSystem": "General disorders", "sourceVocabulary": "MedDRA 20.0", "assessmentType": "SYSTEMATIC_ASSESSMENT", "stats": [{"groupId": "EG000", "numEvents": 3, "numAffected": 3, "numAtRisk": 70}, {"groupId": "EG001", "numEvents": 6, "numAffected": 5, "numAtRisk": 70}]}, {"term": "Injection site erythema", "organSystem": "General disorders", "sourceVocabulary": "MedDRA 20.0", "assessmentType": "SYSTEMATIC_ASSESSMENT", "stats": [{"groupId": "EG000", "numEvents": 13, "numAffected": 6, "numAtRisk": 70}, {"groupId": "EG001", "numEvents": 0, "numAffected": 0, "numAtRisk": 70}]}, {"term": "Injection site pain", "organSystem": "General disorders", "sourceVocabulary": "MedDRA 20.0", "assessmentType": "SYSTEMATIC_ASSESSMENT", "stats": [{"groupId": "EG000", "numEvents": 12, "numAffected": 6, "numAtRisk": 70}, {"groupId": "EG001", "numEvents": 2, "numAffected": 2, "numAtRisk": 70}]}, {"term": "Injection site pruritus", "organSystem": "General disorders", "sourceVocabulary": "MedDRA 20.0", "assessmentType": "SYSTEMATIC_ASSESSMENT", "stats": [{"groupId": "EG000", "numEvents": 6, "numAffected": 5, "numAtRisk": 70}, {"groupId": "EG001", "numEvents": 0, "numAffected": 0, "numAtRisk": 70}]}, {"term": "Bronchitis", "organSystem": "Infections and infestations", "sourceVocabulary": "MedDRA 20.0", "assessmentType": "SYSTEMATIC_ASSESSMENT", "stats": [{"groupId": "EG000", "numEvents": 12, "numAffected": 11, "numAtRisk": 70}, {"groupId": "EG001", "numEvents": 20, "numAffected": 16, "numAtRisk": 70}]}, {"term": "Oral candidiasis", "organSystem": "Infections and infestations", "sourceVocabulary": "MedDRA 20.0", "assessmentType": "SYSTEMATIC_ASSESSMENT", "stats": [{"groupId": "EG000", "numEvents": 2, "numAffected": 2, "numAtRisk": 70}, {"groupId": "EG001", "numEvents": 4, "numAffected": 4, "numAtRisk": 70}]}, {"term": "Sinusitis", "organSystem": "Infections and infestations", "sourceVocabulary": "MedDRA 20.0", "assessmentType": "SYSTEMATIC_ASSESSMENT", "stats": [{"groupId": "EG000", "numEvents": 7, "numAffected": 5, "numAtRisk": 70}, {"groupId": "EG001", "numEvents": 4, "numAffected": 4, "numAtRisk": 70}]}, {"term": "Urinary tract infection", "organSystem": "Infections and infestations", "sourceVocabulary": "MedDRA 20.0", "assessmentType": "SYSTEMATIC_ASSESSMENT", "stats": [{"groupId": "EG000", "numEvents": 2, "numAffected": 2, "numAtRisk": 70}, {"groupId": "EG001", "numEvents": 4, "numAffected": 4, "numAtRisk": 70}]}, {"term": "Viral upper respiratory tract infection", "organSystem": "Infections and infestations", "sourceVocabulary": "MedDRA 20.0", "assessmentType": "SYSTEMATIC_ASSESSMENT", "stats": [{"groupId": "EG000", "numEvents": 33, "numAffected": 25, "numAtRisk": 70}, {"groupId": "EG001", "numEvents": 12, "numAffected": 10, "numAtRisk": 70}]}, {"term": "Arthralgia", "organSystem": "Musculoskeletal and connective tissue disorders", "sourceVocabulary": "MedDRA 20.0", "assessmentType": "SYSTEMATIC_ASSESSMENT", "stats": [{"groupId": "EG000", "numEvents": 3, "numAffected": 2, "numAtRisk": 70}, {"groupId": "EG001", "numEvents": 7, "numAffected": 6, "numAtRisk": 70}]}, {"term": "Back pain", "organSystem": "Musculoskeletal and connective tissue disorders", "sourceVocabulary": "MedDRA 20.0", "assessmentType": "SYSTEMATIC_ASSESSMENT", "stats": [{"groupId": "EG000", "numEvents": 7, "numAffected": 7, "numAtRisk": 70}, {"groupId": "EG001", "numEvents": 2, "numAffected": 2, "numAtRisk": 70}]}, {"term": "Headache", "organSystem": "Nervous system disorders", "sourceVocabulary": "MedDRA 20.0", "assessmentType": "SYSTEMATIC_ASSESSMENT", "stats": [{"groupId": "EG000", "numEvents": 33, "numAffected": 14, "numAtRisk": 70}, {"groupId": "EG001", "numEvents": 15, "numAffected": 11, "numAtRisk": 70}]}, {"term": "Asthma", "organSystem": "Respiratory, thoracic and mediastinal disorders", "sourceVocabulary": "MedDRA 20.0", "assessmentType": "SYSTEMATIC_ASSESSMENT", "stats": [{"groupId": "EG000", "numEvents": 4, "numAffected": 3, "numAtRisk": 70}, {"groupId": "EG001", "numEvents": 10, "numAffected": 9, "numAtRisk": 70}]}, {"term": "Cough", "organSystem": "Respiratory, thoracic and mediastinal disorders", "sourceVocabulary": "MedDRA 20.0", "assessmentType": "SYSTEMATIC_ASSESSMENT", "stats": [{"groupId": "EG000", "numEvents": 4, "numAffected": 4, "numAtRisk": 70}, {"groupId": "EG001", "numEvents": 1, "numAffected": 1, "numAtRisk": 70}]}, {"term": "Dyspnoea", "organSystem": "Respiratory, thoracic and mediastinal disorders", "sourceVocabulary": "MedDRA 20.0", "assessmentType": "SYSTEMATIC_ASSESSMENT", "stats": [{"groupId": "EG000", "numEvents": 5, "numAffected": 4, "numAtRisk": 70}, {"groupId": "EG001", "numEvents": 2, "numAffected": 2, "numAtRisk": 70}]}, {"term": "Hypertension", "organSystem": "Vascular disorders", "sourceVocabulary": "MedDRA 20.0", "assessmentType": "SYSTEMATIC_ASSESSMENT", "stats": [{"groupId": "EG000", "numEvents": 4, "numAffected": 4, "numAtRisk": 70}, {"groupId": "EG001", "numEvents": 2, "numAffected": 2, "numAtRisk": 70}]}]}, "moreInfoModule": {"certainAgreement": {"piSponsorEmployee": false, "restrictionType": "LTE60", "restrictiveAgreement": true}, "pointOfContact": {"title": "Global Clinical Lead", "organization": "AstraZeneca", "email": "ClinicalTrialTransparency@astrazeneca.com", "phone": "+1 301-398-0582"}}}, "documentSection": {"largeDocumentModule": {"largeDocs": [{"typeAbbrev": "Prot", "hasProtocol": true, "hasSap": false, "hasIcf": false, "label": "Study Protocol", "date": "2016-02-22", "uploadDate": "2018-03-01T15:27", "filename": "Prot_000.pdf", "size": 2184871}, {"typeAbbrev": "SAP", "hasProtocol": false, "hasSap": true, "hasIcf": false, "label": "Statistical Analysis Plan", "date": "2017-09-07", "uploadDate": "2018-03-01T15:27", "filename": "SAP_001.pdf", "size": 2101792}]}}, "derivedSection": {"miscInfoModule": {"versionHolder": "2024-06-24"}, "conditionBrowseModule": {"meshes": [{"id": "D000001249", "term": "Asthma"}], "ancestors": [{"id": "D000001982", "term": "Bronchial Diseases"}, {"id": "D000012140", "term": "Respiratory Tract Diseases"}, {"id": "D000008173", "term": "Lung Diseases, Obstructive"}, {"id": "D000008171", "term": "Lung Diseases"}, {"id": "D000012130", "term": "Respiratory Hypersensitivity"}, {"id": "D000006969", "term": "Hypersensitivity, Immediate"}, {"id": "D000006967", "term": "Hypersensitivity"}, {"id": "D000007154", "term": "Immune System Diseases"}], "browseLeaves": [{"id": "M4556", "name": "Asthma", "asFound": "Asthma", "relevance": "HIGH"}, {"id": "M11168", "name": "Lung Diseases", "relevance": "LOW"}, {"id": "M11170", "name": "Lung Diseases, Obstructive", "relevance": "LOW"}, {"id": "M5258", "name": "Bronchial Diseases", "relevance": "LOW"}, {"id": "M14977", "name": "Respiratory Tract Diseases", "relevance": "LOW"}, {"id": "M10018", "name": "Hypersensitivity", "relevance": "LOW"}, {"id": "M14967", "name": "Respiratory Hypersensitivity", "relevance": "LOW"}, {"id": "M10020", "name": "Hypersensitivity, Immediate", "relevance": "LOW"}, {"id": "M10200", "name": "Immune System Diseases", "relevance": "LOW"}], "browseBranches": [{"abbrev": "BC08", "name": "Respiratory Tract (Lung and Bronchial) Diseases"}, {"abbrev": "BC20", "name": "Immune System Diseases"}, {"abbrev": "All", "name": "All Conditions"}]}}, "hasResults": true}