{"protocolSection": {"identificationModule": {"nctId": "NCT01619059", "orgStudyIdInfo": {"id": "CV181-168"}, "secondaryIdInfos": [{"id": "2011-006323-37", "type": "EUDRACT_NUMBER"}], "organization": {"fullName": "AstraZeneca", "class": "INDUSTRY"}, "briefTitle": "Safety and Efficacy of Saxagliptin in Triple Therapy to Treat Subjects With Type 2 Diabetes", "officialTitle": "A Multicenter, Randomized, Double-Blind, Placebo Controlled, Parallel Group, Phase 3 Trial to Evaluate the Safety and Efficacy of Triple Therapy With Saxagliptin Added to Dapagliflozin in Combination With Metformin Compared to Therapy With Placebo Added to Dapagliflozin in Combination With Metformin in Subjects With Type 2 Diabetes Who Have Inadequate Glycemic Control on Metformin and Dapagliflozin"}, "statusModule": {"statusVerifiedDate": "2016-03", "overallStatus": "COMPLETED", "expandedAccessInfo": {"hasExpandedAccess": false}, "startDateStruct": {"date": "2012-06"}, "primaryCompletionDateStruct": {"date": "2014-06", "type": "ACTUAL"}, "completionDateStruct": {"date": "2015-01", "type": "ACTUAL"}, "studyFirstSubmitDate": "2012-06-12", "studyFirstSubmitQcDate": "2012-06-12", "studyFirstPostDateStruct": {"date": "2012-06-14", "type": "ESTIMATED"}, "resultsFirstSubmitDate": "2016-02-18", "resultsFirstSubmitQcDate": "2016-02-18", "resultsFirstPostDateStruct": {"date": "2016-03-17", "type": "ESTIMATED"}, "lastUpdateSubmitDate": "2016-03-24", "lastUpdatePostDateStruct": {"date": "2016-04-22", "type": "ESTIMATED"}}, "sponsorCollaboratorsModule": {"responsibleParty": {"type": "SPONSOR"}, "leadSponsor": {"name": "AstraZeneca", "class": "INDUSTRY"}}, "oversightModule": {"oversightHasDmc": false}, "descriptionModule": {"briefSummary": "The purpose of this study is to learn if BMS-477118 (Saxagliptin) as part of a triple combination therapy can improve (decrease) hemoglobin A1c in patients with type 2 diabetes after 24 weeks of treatment compared to a 2 drug oral antidiabetic therapy. The safety of this treatment will also be studied."}, "conditionsModule": {"conditions": ["Type 2 Diabetes"]}, "designModule": {"studyType": "INTERVENTIONAL", "phases": ["PHASE3"], "designInfo": {"allocation": "RANDOMIZED", "interventionModel": "PARALLEL", "primaryPurpose": "TREATMENT", "maskingInfo": {"masking": "TRIPLE", "whoMasked": ["PARTICIPANT", "CARE_PROVIDER", "INVESTIGATOR"]}}, "enrollmentInfo": {"count": 315, "type": "ACTUAL"}}, "armsInterventionsModule": {"armGroups": [{"label": "Arm 1: Saxagliptin+Dapagliflozin+Metformin IR", "type": "EXPERIMENTAL", "interventionNames": ["Drug: Saxagliptin", "Drug: Dapagliflozin", "Drug: Metformin IR"]}, {"label": "Arm 2: Placebo+Dapagliflozin+Metformin IR", "type": "EXPERIMENTAL", "interventionNames": ["Drug: Dapagliflozin", "Drug: Metformin IR", "Drug: Placebo matching with Saxagliptin"]}], "interventions": [{"type": "DRUG", "name": "Saxagliptin", "description": "Tablets, Oral, 5 mg, Once daily, Up to 52 weeks", "armGroupLabels": ["Arm 1: Saxagliptin+Dapagliflozin+Metformin IR"], "otherNames": ["Onglyza"]}, {"type": "DRUG", "name": "Dapagliflozin", "description": "Tablets, Oral, 10 mg, Once daily, Up to 52 weeks", "armGroupLabels": ["Arm 1: Saxagliptin+Dapagliflozin+Metformin IR", "Arm 2: Placebo+Dapagliflozin+Metformin IR"]}, {"type": "DRUG", "name": "Metformin IR", "description": "Tablets, Oral, \u2265 1500mg, Twice daily, Up to 52 weeks", "armGroupLabels": ["Arm 1: Saxagliptin+Dapagliflozin+Metformin IR", "Arm 2: Placebo+Dapagliflozin+Metformin IR"]}, {"type": "DRUG", "name": "Placebo matching with Saxagliptin", "description": "Tablets, Oral, 0 mg, Once daily, Up to 52 weeks", "armGroupLabels": ["Arm 2: Placebo+Dapagliflozin+Metformin IR"]}]}, "outcomesModule": {"primaryOutcomes": [{"measure": "Adjusted Mean Change From Baseline in Hemoglobin A1C (HbA1c) at Week 24", "description": "HbA1c was measured as percent of hemoglobin by a central laboratory. Baseline was defined as the last assessment on or prior to the date of the first dose of the double-blind study medication. HbA1c measurements were obtained at Week 24 in the double-blind period, including observations prior to rescue.", "timeFrame": "From Baseline to Week 24"}], "secondaryOutcomes": [{"measure": "Adjusted Mean Change From Baseline in 2-hour Post Prandial Glucose (PPG) From a Liquid Meal Tolerance Test (MTT) at Week 24", "description": "Baseline was defined as the last assessment on or prior to the date of the first dose of the double-blind study medication. PPG measurements were obtained at Week 24 in the double-blind period, including observations prior to rescue.", "timeFrame": "From Baseline to Week 24"}, {"measure": "Adjusted Mean Change From Baseline in Fasting Plasma Glucose at Week 24", "description": "Baseline was defined as the last assessment on or prior to the date of the first dose of the double-blind study medication. FPG measurements were obtained at Week 24 in the double-blind period, including observations prior to rescue.", "timeFrame": "From Baseline to Week 24"}, {"measure": "Percentage of Participants Achieving a Therapeutic Glycemic Response (Hemoglobin A1c [HbA1C]) <7.0% at Week 24 (Last Observation Carried Forward [LOCF])", "description": "Therapeutic glycemic response is defined as HbA1c \\<7.0%. Data after rescue medication was excluded from this analysis. HbA1c was measured as a percent of hemoglobin.", "timeFrame": "From Baseline to Week 24"}]}, "eligibilityModule": {"eligibilityCriteria": "Inclusion Criteria\n\n1. Signed Written Informed Consent\n\n   a) Subjects must be willing and able to give signed and dated written informed consent.\n2. Target Population\n\n   1. Subjects with T2DM with inadequate glycemic control, defined as central laboratory HbA1c \u2265 8.0 and \u2264 11.5% obtained at the screening visit (ie Week -18 visit)\n   2. Stable metformin therapy for at least 8 weeks prior to screening visit at a dose \u2265 1500 mg per day.\n   3. C-peptide \u2265 1.0 ng/mL (0.34 nmol/L) at screening visit.\n   4. BMI \u2264 45.0 kg/m2 at the screening visit.\n3. Age and Reproductive Status\n\n   1. Men and women, aged \u2265 18 years old at time of screening visit.\n   2. Women of childbearing potential (WOCBP) must be using an acceptable method of contraception to avoid pregnancy throughout the study in such a manner that the risk of pregnancy is minimized. See Section 3.3.3 for the definition of WOCBP.\n   3. WOCBP must have a negative serum or urine pregnancy test (minimum sensitivity 25 IU/L or equivalent units of HCG) within 24 hours prior to the start of investigational product.\n   4. Women must not be breastfeeding\n   5. Sexually active fertile men must use effective birth control if their partners are WOCBP.\n\nExclusion Criteria\n\n1. Target Disease Exceptions\n\n   1. History of diabetes insipidus\n   2. Symptoms of poorly controlled diabetes that would preclude participation in this trial including but not limited to marked polyuria and polydipsia with greater than 10% weight loss during the three months prior to screening, or other signs and symptoms.\n   3. History of diabetic ketoacidosis or hyperosmolar nonketotic coma.\n2. Medical History and Concurrent Diseases\n\n   1. History of bariatric surgery or lap-band procedure within 12 months prior to screening.\n   2. Any unstable endocrine, psychiatric or rheumatic disorders as judged by the Investigator.\n   3. Subject who, in the judgment of the investigator, may be at risk for dehydration or volume depletion that may affect the interpretation of efficacy or safety data and concomitant use of loop diuretics in countries where this is not recommended as per the Dapagliflozin label.\n   4. Subject is currently abusing alcohol or other drugs or has done so within the last 6 months.\n\n      Acute Vascular Event:\n   5. Uncontrolled hypertension defined as systolic blood pressure (SBP) \u2265 160 mmHg and/or diastolic blood pressure (DBP) \u2265 100 mmHg.\n\n      Note: Subjects with SBP \u2265 160mmHg and \\< 180mmHg or a DBP \u2265 100 mmHg and \\< 110mmHg will be able to enter the lead-in period, provided their hypertension treatment is adjusted as deemed appropriate by the investigator. These subjects cannot be randomized if their blood pressure remains with SBP \u2265 160 mmHg or DBP \u2265 100 mmHg measured at Day 1.\n   6. Cardiovascular Disease within 3 months of the screening visit \\[ie myocardial infarction, cardiac surgery or revascularization (CABG/PTCA), unstable angina, stroke or transient ischemic attack (TIA)\\].\n   7. Congestive heart failure as New York Association (NYHA) class IV (see Appendix 1), unstable or acute congestive heart failure. Note: eligible patients with congestive heart failure, especially those who are on diuretic therapy, should have careful monitoring of their volumes status throughout the study.\n\n      Renal Diseases:\n   8. Moderate or severe impairment of renal function \\[defined as eGFR \\< 60 mL/min/1.73 m2 (estimated by MDRD) or serum creatinine (Scr) \u2265 1.5 mg/dL in males or \u2265 1.4 mg/dL in females.\\]\n   9. Conditions of congenital renal glucosuria\n\n      Hepatic Diseases:\n   10. Significant hepatic disease, including, but not limited to, chronic active hepatitis and/or severe hepatic insufficiency, including subjects with ALT and/or AST \\> 3x ULN and or Total Bilirubin \\> 2.5 x ULN.\n\n       Hematological and Oncological Disease/Conditions\n   11. History of hemoglobinopathy, with the exception of sickle cell trait (SA) or thalassemia minor; or chronic or recurrent hemolysis.\n   12. Malignancy within 5 years of the screening visit (with the exception of treated basal cell or treated squamous cell carcinoma)\n   13. Known immunocompromised status, including but not limited to, individuals who have undergone organ transplantation or who are positive for the human immunodeficiency virus.\n   14. Donation of blood or blood products to a blood bank, blood transfusion, or participation in a clinical study requiring withdrawal of \\> 400 mL of blood during the 6 months prior to the screening visit.\n\n       Prohibited treatment and therapies\n   15. Administration of any antihyperglycemic therapy, other than metformin, for more than 14 days (consecutive or not) during the 12 weeks prior to screening, as well as previous participation in any DPP-4 or SGLT-2 inhibitor trial is an exclusion criterion.\n   16. Current treatment with potent cytochrome P450 3A4/5 inhibitors (in countries where dose adjustment would be required by the saxagliptin label).\n   17. Administration of any other investigational drug or participation in any interventional clinical studies within 30 days of planned screening to this study. Subjects who failed to satisfy all eligibility criteria at screening and did not enter the lead-in or open-label period in CV181-169 or MB102-129 studies specifically, do not need to wait 30 days.\n3. Physical and Laboratory Test Findings\n\n   1. Hemoglobin \u2264 11.0 g/dL (110 g/L) for men; hemoglobin \u2264 10.0 g/dL (100 g/L) for women\n   2. Male subjects with microscopic hematuria present at Week -18 or Week -16 AND no common cause that can be confirmed. Male subjects with a confirmed common cause can be entered into the open-label phase with a documented negative result for hematuria microscopic urinalysis performed by the central laboratory.\n\n      NOTE: Female subjects with hematuria can be entered into the open-label phase and be randomized, but should be investigated according to local standards and best clinical practices. (See Appendix 3)\n   3. Other central laboratory test findings:\n\n      * Abnormal free T4 values. Abnormal thyroid stimulating hormone (TSH) value at screening will be further evaluated by free T4. Subjects with abnormal free T4 values will be excluded.\n      * Positive for hepatitis B surface antigen\n      * Positive for anti-hepatitis C virus antibody\n4. Allergies and Adverse Drug Reaction\n\n   a) Subjects who have contraindications to therapy as outlined in the saxagliptin and dapagliflozin Investigator Brochure, the local saxagliptin or dapagliflozin package insert or the local metformin package insert, including current treatment with potent cytochrome P450 3A4/5 inhibitors (in countries where dose adjustment would be required by the local saxagliptin label).\n5. Sex and Reproductive Status\n\n   a) Women who are pregnant\n6. Other Exclusion Criteria\n\n   1. Prisoners or subjects who are involuntarily incarcerated.\n   2. Subject who are compulsorily detained for treatment of either a psychiatric or physical (eg, infectious disease) illness.", "healthyVolunteers": false, "sex": "ALL", "minimumAge": "18 Years", "stdAges": ["ADULT", "OLDER_ADULT"]}, "contactsLocationsModule": {"overallOfficials": [{"name": "Bristol-Myers Squibb", "affiliation": "Bristol-Myers Squibb", "role": "STUDY_DIRECTOR"}], "locations": [{"facility": "University Of Alabama At Birmingham", "city": "Birmingham", "state": "Alabama", "zip": "35294", "country": "United States", "geoPoint": {"lat": 33.52066, "lon": -86.80249}}, {"facility": "Terence T. Hart, Md", "city": "Muscle Shoals", "state": "Alabama", "zip": "35662", "country": "United States", "geoPoint": {"lat": 34.74481, "lon": -87.66753}}, {"facility": "Mesa Family Medical Center", "city": "Mesa", "state": "Arizona", "zip": "85203", "country": "United States", "geoPoint": {"lat": 33.42227, "lon": -111.82264}}, {"facility": "Clinical Research Advantage Inc/Desert Clinical Research Llc", "city": "Mesa", "state": "Arizona", "zip": "85213", "country": "United States", "geoPoint": {"lat": 33.42227, "lon": -111.82264}}, {"facility": "Clinical Research Advantage, Inc", "city": "Phoenix", "state": "Arizona", "zip": "85020", "country": "United States", "geoPoint": {"lat": 33.44838, "lon": -112.07404}}, {"facility": "Clinical Research Advantage, Inc./ Stonecreek Medical Associates, Pc", "city": "Phoenix", "state": "Arizona", "zip": "85028", "country": "United States", "geoPoint": {"lat": 33.44838, "lon": -112.07404}}, {"facility": "Beach Physicians Clinical Research Corp.", "city": "Huntington Beach", "state": "California", "zip": "92647", "country": "United States", "geoPoint": {"lat": 33.6603, "lon": -117.99923}}, {"facility": "Torrance Clinical Research", "city": "Lomita", "state": "California", "zip": "90717", "country": "United States", "geoPoint": {"lat": 33.79224, "lon": -118.31507}}, {"facility": "Randall G. Shue, Do, Inc.", "city": "Los Angeles", "state": "California", "zip": "90023", "country": "United States", "geoPoint": {"lat": 34.05223, "lon": -118.24368}}, {"facility": "National Research Institute", "city": "Los Angeles", "state": "California", "zip": "90057", "country": "United States", "geoPoint": {"lat": 34.05223, "lon": -118.24368}}, {"facility": "Cassidy Medical Group/Clinical Research Advantage", "city": "Vista", "state": "California", "zip": "92083", "country": "United States", "geoPoint": {"lat": 33.20004, "lon": -117.24254}}, {"facility": "Infosphere Clinical Research, Inc.", "city": "West Hills", "state": "California", "zip": "91307", "country": "United States", "geoPoint": {"lat": 34.19731, "lon": -118.64398}}, {"facility": "New West Physicians, Pc", "city": "Golden", "state": "Colorado", "zip": "80401", "country": "United States", "geoPoint": {"lat": 39.75554, "lon": -105.2211}}, {"facility": "Southeast Clinical Research, Llc", "city": "Chiefland", "state": "Florida", "zip": "32626", "country": "United States", "geoPoint": {"lat": 29.47496, "lon": -82.85984}}, {"facility": "Clinical Therapeutics Corporation", "city": "Coral Gables", "state": "Florida", "zip": "33134", "country": "United States", "geoPoint": {"lat": 25.72149, "lon": -80.26838}}, {"facility": "Medical Research Unlimited, Llc", "city": "Hialeah", "state": "Florida", "zip": "33012", "country": "United States", "geoPoint": {"lat": 25.8576, "lon": -80.27811}}, {"facility": "University Of Florida Endocrinology & Diabetes", "city": "Jacksonville", "state": "Florida", "zip": "32207", "country": "United States", "geoPoint": {"lat": 30.33218, "lon": -81.65565}}, {"facility": "Care Partners Clinical Research, Llc", "city": "Jacksonville", "state": "Florida", "zip": "32277", "country": "United States", "geoPoint": {"lat": 30.33218, "lon": -81.65565}}, {"facility": "Clinical Research Of Miami, Inc.", "city": "Miami", "state": "Florida", "zip": "33126", "country": "United States", "geoPoint": {"lat": 25.77427, "lon": -80.19366}}, {"facility": "Clinical Research Advantage, Inc.", "city": "Evansville", "state": "Indiana", "zip": "47725", "country": "United States", "geoPoint": {"lat": 37.97476, "lon": -87.55585}}, {"facility": "Clinical Research Advantage", "city": "Evansville", "state": "Indiana", "zip": "7714", "country": "United States", "geoPoint": {"lat": 37.97476, "lon": -87.55585}}, {"facility": "Mercy Health Research", "city": "Saint Louis", "state": "Missouri", "zip": "63141", "country": "United States", "geoPoint": {"lat": 38.62727, "lon": -90.19789}}, {"facility": "Clinical Research Advantage, Inc.", "city": "Las Vegas", "state": "Nevada", "zip": "89128", "country": "United States", "geoPoint": {"lat": 36.17497, "lon": -115.13722}}, {"facility": "Joslin Diabetes Center Affiliate Of Snhmc", "city": "Nashua", "state": "New Hampshire", "zip": "03063", "country": "United States", "geoPoint": {"lat": 42.76537, "lon": -71.46757}}, {"facility": "N. Shore Diabetes & Endoc Assoc", "city": "New Hyde Park", "state": "New York", "zip": "11042", "country": "United States", "geoPoint": {"lat": 40.7351, "lon": -73.68791}}, {"facility": "Digiovanna Institute For Medical Education & Research", "city": "North Massapequa", "state": "New York", "zip": "11758", "country": "United States", "geoPoint": {"lat": 40.70093, "lon": -73.46207}}, {"facility": "Barat Research Group, Inc.", "city": "Charlotte", "state": "North Carolina", "zip": "28262", "country": "United States", "geoPoint": {"lat": 35.22709, "lon": -80.84313}}, {"facility": "Sterling Research Grp, Ltd.", "city": "Cincinnati", "state": "Ohio", "zip": "45219", "country": "United States", "geoPoint": {"lat": 39.12713, "lon": -84.51435}}, {"facility": "Physicians Research, Inc.", "city": "Zanesville", "state": "Ohio", "zip": "43701", "country": "United States", "geoPoint": {"lat": 39.94035, "lon": -82.01319}}, {"facility": "Tlm Medical Services", "city": "Columbia", "state": "South Carolina", "zip": "29204", "country": "United States", "geoPoint": {"lat": 34.00071, "lon": -81.03481}}, {"facility": "Family Medicine Of Sayebrook", "city": "Myrtle Beach", "state": "South Carolina", "zip": "29588", "country": "United States", "geoPoint": {"lat": 33.68906, "lon": -78.88669}}, {"facility": "Holston Medical Group", "city": "Bristol", "state": "Tennessee", "zip": "37620", "country": "United States", "geoPoint": {"lat": 36.59511, "lon": -82.18874}}, {"facility": "Vanderbilt Diabetes Center", "city": "Nashville", "state": "Tennessee", "zip": "37232", "country": "United States", "geoPoint": {"lat": 36.16589, "lon": -86.78444}}, {"facility": "Padre Coast Clinical Research", "city": "Corpus Christi", "state": "Texas", "zip": "78404", "country": "United States", "geoPoint": {"lat": 27.80058, "lon": -97.39638}}, {"facility": "Local Institution", "city": "Moncton", "state": "New Brunswick", "zip": "E1G 1A7", "country": "Canada", "geoPoint": {"lat": 46.09454, "lon": -64.7965}}, {"facility": "Local Institution", "city": "St-john", "state": "Newfoundland and Labrador", "zip": "A1E 2E2", "country": "Canada", "geoPoint": {"lat": 45.2727, "lon": -66.06769}}, {"facility": "Local Institution", "city": "Halifax", "state": "Nova Scotia", "zip": "B3K2M5", "country": "Canada", "geoPoint": {"lat": 44.64533, "lon": -63.57239}}, {"facility": "Local Institution", "city": "Brampton", "state": "Ontario", "zip": "L6T-0G1", "country": "Canada", "geoPoint": {"lat": 43.68341, "lon": -79.76633}}, {"facility": "Local Institution", "city": "Sarnia", "state": "Ontario", "zip": "N7T 4X3", "country": "Canada", "geoPoint": {"lat": 42.97866, "lon": -82.40407}}, {"facility": "Local Institution", "city": "Montreal", "state": "Quebec", "zip": "H2R 1V6", "country": "Canada", "geoPoint": {"lat": 45.50884, "lon": -73.58781}}, {"facility": "Local Institution", "city": "Quebec", "zip": "G3K 2P8", "country": "Canada", "geoPoint": {"lat": 46.81228, "lon": -71.21454}}, {"facility": "Local Institution", "city": "Hradec Kralove", "zip": "500 05", "country": "Czech Republic", "geoPoint": {"lat": 50.20923, "lon": 15.83277}}, {"facility": "Local Institution", "city": "Karlovy Vary", "zip": "360 01", "country": "Czech Republic", "geoPoint": {"lat": 50.23271, "lon": 12.87117}}, {"facility": "Local Institution", "city": "Praha 5", "zip": "150 98", "country": "Czech Republic", "geoPoint": {"lat": 50.08804, "lon": 14.42076}}, {"facility": "Local Institution", "city": "Balatonfured", "zip": "H-8230", "country": "Hungary", "geoPoint": {"lat": 46.96188, "lon": 17.87187}}, {"facility": "Local Institution", "city": "Budaors", "zip": "2040", "country": "Hungary", "geoPoint": {"lat": 47.46181, "lon": 18.95845}}, {"facility": "Local Institution", "city": "Budapest", "zip": "1138", "country": "Hungary", "geoPoint": {"lat": 47.49801, "lon": 19.03991}}, {"facility": "Local Institution", "city": "Zalaegerszeg", "zip": "8900", "country": "Hungary", "geoPoint": {"lat": 46.84, "lon": 16.84389}}, {"facility": "Local Institution", "city": "Guadalajara", "state": "Jalisco", "zip": "44600", "country": "Mexico", "geoPoint": {"lat": 20.66682, "lon": -103.39182}}, {"facility": "Local Institution", "city": "Guadalajara", "state": "Jalisco", "zip": "44650", "country": "Mexico", "geoPoint": {"lat": 20.66682, "lon": -103.39182}}, {"facility": "Local Institution", "city": "Guadalajara", "state": "Jalisco", "zip": "44670", "country": "Mexico", "geoPoint": {"lat": 20.66682, "lon": -103.39182}}, {"facility": "Local Institution", "city": "Morelia", "state": "Michioacan", "zip": "58070", "country": "Mexico", "geoPoint": {"lat": 19.70078, "lon": -101.18443}}, {"facility": "Local Institution", "city": "Monterrey", "state": "Nuevo Leon", "zip": "64460", "country": "Mexico", "geoPoint": {"lat": 25.67507, "lon": -100.31847}}, {"facility": "Local Institution", "city": "Del. Benito Juarez", "zip": "03100", "country": "Mexico"}, {"facility": "Local Institution", "city": "Veracruz", "zip": "91910", "country": "Mexico", "geoPoint": {"lat": 19.18095, "lon": -96.1429}}, {"facility": "Local Institution", "city": "Bialystok", "zip": "15-435", "country": "Poland", "geoPoint": {"lat": 53.13333, "lon": 23.16433}}, {"facility": "Local Institution", "city": "Katowice", "zip": "40-750", "country": "Poland", "geoPoint": {"lat": 50.25841, "lon": 19.02754}}, {"facility": "Local Institution", "city": "Katowice", "zip": "40954", "country": "Poland", "geoPoint": {"lat": 50.25841, "lon": 19.02754}}, {"facility": "Local Institution", "city": "Krakow", "zip": "31-530", "country": "Poland", "geoPoint": {"lat": 50.06143, "lon": 19.93658}}, {"facility": "Local Institution", "city": "Pszczyna", "zip": "43-200", "country": "Poland", "geoPoint": {"lat": 49.98037, "lon": 18.95382}}, {"facility": "Local Institution", "city": "Pulawy", "zip": "24-100", "country": "Poland", "geoPoint": {"lat": 51.41655, "lon": 21.96939}}, {"facility": "Local Institution", "city": "Szczecin", "zip": "70-376", "country": "Poland", "geoPoint": {"lat": 53.42894, "lon": 14.55302}}, {"facility": "Local Institution", "city": "Warszawa", "zip": "01-868", "country": "Poland", "geoPoint": {"lat": 52.22977, "lon": 21.01178}}, {"facility": "Local Institution", "city": "Wegrow", "zip": "07-100", "country": "Poland", "geoPoint": {"lat": 52.39954, "lon": 22.01634}}, {"facility": "Local Institution", "city": "Wroclaw", "zip": "50-349", "country": "Poland", "geoPoint": {"lat": 51.1, "lon": 17.03333}}, {"facility": "Research & Cardiovascular Corp", "city": "Ponce", "zip": "00717", "country": "Puerto Rico", "geoPoint": {"lat": 18.01108, "lon": -66.61406}}, {"facility": "Local Institution", "city": "Brasov", "zip": "500365", "country": "Romania", "geoPoint": {"lat": 45.64861, "lon": 25.60613}}, {"facility": "Local Institution", "city": "Bucharest", "zip": "070208", "country": "Romania", "geoPoint": {"lat": 44.43225, "lon": 26.10626}}, {"facility": "Local Institution", "city": "Bucharest", "zip": "77108", "country": "Romania", "geoPoint": {"lat": 44.43225, "lon": 26.10626}}, {"facility": "Local Institution", "city": "Bucuresti", "zip": "020045", "country": "Romania", "geoPoint": {"lat": 44.42802, "lon": 26.09665}}, {"facility": "Local Institution", "city": "Constanta", "zip": "900591", "country": "Romania", "geoPoint": {"lat": 44.18073, "lon": 28.63432}}, {"facility": "Local Institution", "city": "Craiova", "zip": "200349", "country": "Romania", "geoPoint": {"lat": 44.31667, "lon": 23.8}}, {"facility": "Local Institution", "city": "Galati", "zip": "800098", "country": "Romania", "geoPoint": {"lat": 45.45, "lon": 28.05}}, {"facility": "Local Institution", "city": "Ploiesti", "zip": "100097", "country": "Romania", "geoPoint": {"lat": 44.95, "lon": 26.01667}}, {"facility": "Local Institution", "city": "Kursk", "zip": "305035", "country": "Russian Federation", "geoPoint": {"lat": 51.73733, "lon": 36.18735}}, {"facility": "Local Institution", "city": "Moscow", "zip": "119034", "country": "Russian Federation", "geoPoint": {"lat": 55.75222, "lon": 37.61556}}, {"facility": "Local Institution", "city": "Saint-petersburg", "zip": "194044", "country": "Russian Federation", "geoPoint": {"lat": 59.93863, "lon": 30.31413}}, {"facility": "Local Institution", "city": "St. Petersburg", "zip": "194044", "country": "Russian Federation", "geoPoint": {"lat": 59.93863, "lon": 30.31413}}, {"facility": "Local Institution", "city": "St. Petersburg", "zip": "195257", "country": "Russian Federation", "geoPoint": {"lat": 59.93863, "lon": 30.31413}}, {"facility": "Local Institution", "city": "St. Petersburg", "zip": "197136", "country": "Russian Federation", "geoPoint": {"lat": 59.93863, "lon": 30.31413}}, {"facility": "Local Institution", "city": "St. Petersburg", "zip": "197341", "country": "Russian Federation", "geoPoint": {"lat": 59.93863, "lon": 30.31413}}, {"facility": "Local Institution", "city": "St.petersburg", "zip": "195112", "country": "Russian Federation", "geoPoint": {"lat": 59.93863, "lon": 30.31413}}, {"facility": "Local Institution", "city": "St.petersburg", "zip": "197022", "country": "Russian Federation", "geoPoint": {"lat": 59.93863, "lon": 30.31413}}, {"facility": "Local Institution", "city": "Yaroslaval", "zip": "150062", "country": "Russian Federation"}]}, "referencesModule": {"references": [{"pmid": "29802530", "type": "DERIVED", "citation": "Mathieu C, Catrinoiu D, Ranetti AE, Johnsson E, Hansen L, Chen H, Garcia-Sanchez R, Iqbal N, Celinski A. Characterization of the Open-Label Lead-In Period of Two Randomized Controlled Phase 3 Trials Evaluating Dapagliflozin, Saxagliptin, and Metformin in Type 2 Diabetes. Diabetes Ther. 2018 Aug;9(4):1703-1711. doi: 10.1007/s13300-018-0445-x. Epub 2018 May 25."}, {"pmid": "26324329", "type": "DERIVED", "citation": "Matthaei S, Catrinoiu D, Celinski A, Ekholm E, Cook W, Hirshberg B, Chen H, Iqbal N, Hansen L. Randomized, Double-Blind Trial of Triple Therapy With Saxagliptin Add-on to Dapagliflozin Plus Metformin in Patients With Type 2 Diabetes. Diabetes Care. 2015 Nov;38(11):2018-24. doi: 10.2337/dc15-0811. Epub 2015 Aug 31."}], "seeAlsoLinks": [{"label": "BMS clinical trial educational resource", "url": "http://www.bms.com/studyconnect/Pages/home.aspx"}]}}, "resultsSection": {"participantFlowModule": {"recruitmentDetails": "Of 315 participants randomized, 298 completed Short-Term (ST) treatment period. Of 297 participants entered Long-Term (LT) treatment period, 280 completed.", "groups": [{"id": "FG000", "title": "Placebo + Dapagliflozin 10mg + Metformin", "description": "Participants received Saxagliptin-matching placebo, dapagliflozin 10mg once daily plus open-label metformin for up to 52 weeks"}, {"id": "FG001", "title": "Saxagliptin 5mg + Dapagliflozin 10mg + Metformin", "description": "Participants received Saxagliptin 5mg, dapagliflozin 10mg once daily plus open-label metformin for up to 52 weeks"}], "periods": [{"title": "Short-Term (ST) Treatment Period", "milestones": [{"type": "STARTED", "achievements": [{"groupId": "FG000", "numSubjects": "162"}, {"groupId": "FG001", "numSubjects": "153"}]}, {"type": "COMPLETED", "achievements": [{"groupId": "FG000", "numSubjects": "156"}, {"groupId": "FG001", "numSubjects": "142"}]}, {"type": "NOT COMPLETED", "achievements": [{"groupId": "FG000", "numSubjects": "6"}, {"groupId": "FG001", "numSubjects": "11"}]}], "dropWithdraws": [{"type": "Adverse Event", "reasons": [{"groupId": "FG000", "numSubjects": "1"}, {"groupId": "FG001", "numSubjects": "0"}]}, {"type": "Withdrawal by Subject", "reasons": [{"groupId": "FG000", "numSubjects": "2"}, {"groupId": "FG001", "numSubjects": "5"}]}, {"type": "Lost to Follow-up", "reasons": [{"groupId": "FG000", "numSubjects": "2"}, {"groupId": "FG001", "numSubjects": "4"}]}, {"type": "Non-compliance, not Met Study Criteria", "reasons": [{"groupId": "FG000", "numSubjects": "1"}, {"groupId": "FG001", "numSubjects": "2"}]}]}, {"title": "Long-Term (LT) Treatment Period", "milestones": [{"type": "STARTED", "achievements": [{"groupId": "FG000", "numSubjects": "155"}, {"groupId": "FG001", "numSubjects": "142"}]}, {"type": "COMPLETED", "achievements": [{"groupId": "FG000", "numSubjects": "147"}, {"groupId": "FG001", "numSubjects": "133"}]}, {"type": "NOT COMPLETED", "achievements": [{"groupId": "FG000", "numSubjects": "8"}, {"groupId": "FG001", "numSubjects": "9"}]}], "dropWithdraws": [{"type": "Lack of Efficacy", "reasons": [{"groupId": "FG000", "numSubjects": "0"}, {"groupId": "FG001", "numSubjects": "1"}]}, {"type": "Adverse Event", "reasons": [{"groupId": "FG000", "numSubjects": "2"}, {"groupId": "FG001", "numSubjects": "3"}]}, {"type": "Withdrawal by Subject", "reasons": [{"groupId": "FG000", "numSubjects": "3"}, {"groupId": "FG001", "numSubjects": "2"}]}, {"type": "Death", "reasons": [{"groupId": "FG000", "numSubjects": "1"}, {"groupId": "FG001", "numSubjects": "0"}]}, {"type": "Lost to Follow-up", "reasons": [{"groupId": "FG000", "numSubjects": "2"}, {"groupId": "FG001", "numSubjects": "2"}]}, {"type": "Not Met Study Criteria", "reasons": [{"groupId": "FG000", "numSubjects": "0"}, {"groupId": "FG001", "numSubjects": "1"}]}]}]}, "baselineCharacteristicsModule": {"groups": [{"id": "BG000", "title": "Placebo + Dapagliflozin 10mg + Metformin", "description": "Participants received Saxagliptin-matching placebo, dapagliflozin 10mg once daily plus open-label metformin for up to 52 weeks"}, {"id": "BG001", "title": "Saxagliptin 5mg + Dapagliflozin 10mg + Metformin", "description": "Participants received Saxagliptin 5mg, dapagliflozin 10mg once daily plus open-label metformin for up to 52 weeks"}, {"id": "BG002", "title": "Total", "description": "Total of all reporting groups"}], "denoms": [{"units": "Participants", "counts": [{"groupId": "BG000", "value": "162"}, {"groupId": "BG001", "value": "153"}, {"groupId": "BG002", "value": "315"}]}], "measures": [{"title": "Age, Continuous", "paramType": "MEAN", "dispersionType": "STANDARD_DEVIATION", "unitOfMeasure": "YEARS", "classes": [{"categories": [{"measurements": [{"groupId": "BG000", "value": "54.5", "spread": "9.32", "lowerLimit": "27", "upperLimit": "78"}, {"groupId": "BG001", "value": "54.7", "spread": "9.83", "lowerLimit": "27", "upperLimit": "77"}, {"groupId": "BG002", "value": "54.6", "spread": "9.56", "lowerLimit": "27", "upperLimit": "78"}]}]}]}, {"title": "Age, Customized", "paramType": "NUMBER", "unitOfMeasure": "Participants", "classes": [{"title": "< 65", "categories": [{"measurements": [{"groupId": "BG000", "value": "140"}, {"groupId": "BG001", "value": "132"}, {"groupId": "BG002", "value": "272"}]}]}, {"title": ">= 65", "categories": [{"measurements": [{"groupId": "BG000", "value": "22"}, {"groupId": "BG001", "value": "21"}, {"groupId": "BG002", "value": "43"}]}]}]}, {"title": "Sex: Female, Male", "paramType": "COUNT_OF_PARTICIPANTS", "unitOfMeasure": "Participants", "classes": [{"categories": [{"title": "Female", "measurements": [{"groupId": "BG000", "value": "86"}, {"groupId": "BG001", "value": "80"}, {"groupId": "BG002", "value": "166"}]}, {"title": "Male", "measurements": [{"groupId": "BG000", "value": "76"}, {"groupId": "BG001", "value": "73"}, {"groupId": "BG002", "value": "149"}]}]}]}, {"title": "Race/Ethnicity, Customized", "paramType": "NUMBER", "unitOfMeasure": "Participants", "classes": [{"title": "AMERICAN INDIAN/ALASKA NATIVE", "categories": [{"measurements": [{"groupId": "BG000", "value": "2"}, {"groupId": "BG001", "value": "0"}, {"groupId": "BG002", "value": "2"}]}]}, {"title": "ASIAN", "categories": [{"measurements": [{"groupId": "BG000", "value": "8"}, {"groupId": "BG001", "value": "5"}, {"groupId": "BG002", "value": "13"}]}]}, {"title": "BLACK/AFRICAN AMERICAN", "categories": [{"measurements": [{"groupId": "BG000", "value": "9"}, {"groupId": "BG001", "value": "11"}, {"groupId": "BG002", "value": "20"}]}]}, {"title": "OTHER", "categories": [{"measurements": [{"groupId": "BG000", "value": "2"}, {"groupId": "BG001", "value": "1"}, {"groupId": "BG002", "value": "3"}]}]}, {"title": "WHITE", "categories": [{"measurements": [{"groupId": "BG000", "value": "141"}, {"groupId": "BG001", "value": "136"}, {"groupId": "BG002", "value": "277"}]}]}]}]}, "outcomeMeasuresModule": {"outcomeMeasures": [{"type": "PRIMARY", "title": "Adjusted Mean Change From Baseline in Hemoglobin A1C (HbA1c) at Week 24", "description": "HbA1c was measured as percent of hemoglobin by a central laboratory. Baseline was defined as the last assessment on or prior to the date of the first dose of the double-blind study medication. HbA1c measurements were obtained at Week 24 in the double-blind period, including observations prior to rescue.", "populationDescription": "All randomized participants who received study medication and had nonmissing HbA1c values at baseline and Week 24", "reportingStatus": "POSTED", "paramType": "MEAN", "dispersionType": "Standard Error", "unitOfMeasure": "Percent of glycosylated haemoglobin", "timeFrame": "From Baseline to Week 24", "groups": [{"id": "OG000", "title": "Saxagliptin 5mg + Dapagliflozin 10mg + Metformin", "description": "Participants received Saxagliptin 5mg, dapagliflozin 10mg once daily plus open-label metformin for up to 52 weeks"}, {"id": "OG001", "title": "Placebo + Dapagliflozin 10mg + Metformin", "description": "Participants received Saxagliptin-matching placebo, dapagliflozin 10mg once daily plus open-label metformin for up to 52 weeks"}], "denoms": [{"units": "Participants", "counts": [{"groupId": "OG000", "value": "139"}, {"groupId": "OG001", "value": "149"}]}], "classes": [{"categories": [{"measurements": [{"groupId": "OG000", "value": "-0.51", "spread": "0.0624"}, {"groupId": "OG001", "value": "-0.16", "spread": "0.0605"}]}]}], "analyses": [{"groupIds": ["OG000", "OG001"], "testedNonInferiority": false, "nonInferiorityType": "SUPERIORITY_OR_OTHER", "pValue": "<0.0001", "pValueComment": "Tested at alpha=0.05", "statisticalMethod": "Mixed Models Analysis", "paramType": "Mean Difference (Final Values)", "paramValue": "-0.35", "ciPctValue": "95", "ciNumSides": "TWO_SIDED", "ciLowerLimit": "-0.52", "ciUpperLimit": "-0.18", "dispersionType": "STANDARD_ERROR_OF_MEAN", "dispersionValue": "0.0870"}]}, {"type": "SECONDARY", "title": "Adjusted Mean Change From Baseline in 2-hour Post Prandial Glucose (PPG) From a Liquid Meal Tolerance Test (MTT) at Week 24", "description": "Baseline was defined as the last assessment on or prior to the date of the first dose of the double-blind study medication. PPG measurements were obtained at Week 24 in the double-blind period, including observations prior to rescue.", "populationDescription": "All randomized participants who received study medication and had nonmissing PPG values at baseline and Week 24", "reportingStatus": "POSTED", "paramType": "MEAN", "dispersionType": "Standard Error", "unitOfMeasure": "mg/dL", "timeFrame": "From Baseline to Week 24", "groups": [{"id": "OG000", "title": "Saxagliptin 5mg + Dapagliflozin 10mg + Metformin", "description": "Participants received Saxagliptin 5mg, dapagliflozin 10mg once daily plus open-label metformin for up to 52 weeks"}, {"id": "OG001", "title": "Placebo + Dapagliflozin 10mg + Metformin", "description": "Participants received Saxagliptin-matching placebo, dapagliflozin 10mg once daily plus open-label metformin for up to 52 weeks"}], "denoms": [{"units": "Participants", "counts": [{"groupId": "OG000", "value": "135"}, {"groupId": "OG001", "value": "144"}]}], "classes": [{"categories": [{"measurements": [{"groupId": "OG000", "value": "-37.1", "spread": "3.286"}, {"groupId": "OG001", "value": "-31.3", "spread": "3.182"}]}]}], "analyses": [{"groupIds": ["OG000", "OG001"], "testedNonInferiority": false, "nonInferiorityType": "SUPERIORITY_OR_OTHER", "pValue": "0.2014", "pValueComment": "Secondary endpoints were tested at alpha=0.05, applying the hierarchical order for the sequential testing procedure", "statisticalMethod": "Mixed Models Analysis", "paramType": "Mean Difference (Final Values)", "paramValue": "-5.9", "ciPctValue": "95", "ciNumSides": "TWO_SIDED", "ciLowerLimit": "-14.9", "ciUpperLimit": "3.1", "dispersionType": "STANDARD_ERROR_OF_MEAN", "dispersionValue": "4.576"}]}, {"type": "SECONDARY", "title": "Adjusted Mean Change From Baseline in Fasting Plasma Glucose at Week 24", "description": "Baseline was defined as the last assessment on or prior to the date of the first dose of the double-blind study medication. FPG measurements were obtained at Week 24 in the double-blind period, including observations prior to rescue.", "populationDescription": "All randomized participants who received study medication and had nonmissing FPG values at baseline and Week 24", "reportingStatus": "POSTED", "paramType": "MEAN", "dispersionType": "Standard Error", "unitOfMeasure": "mg/dL", "timeFrame": "From Baseline to Week 24", "groups": [{"id": "OG000", "title": "Saxagliptin 5mg + Dapagliflozin 10mg + Metformin", "description": "Participants received Saxagliptin 5mg, dapagliflozin 10mg once daily plus open-label metformin for up to 52 weeks"}, {"id": "OG001", "title": "Placebo + Dapagliflozin 10mg + Metformin", "description": "Participants received Saxagliptin-matching placebo, dapagliflozin 10mg once daily plus open-label metformin for up to 52 weeks"}], "denoms": [{"units": "Participants", "counts": [{"groupId": "OG000", "value": "139"}, {"groupId": "OG001", "value": "146"}]}], "classes": [{"categories": [{"measurements": [{"groupId": "OG000", "value": "-9.1", "spread": "2.644"}, {"groupId": "OG001", "value": "-5.3", "spread": "2.590"}]}]}], "analyses": [{"groupIds": ["OG000", "OG001"], "testedNonInferiority": false, "nonInferiorityType": "SUPERIORITY_OR_OTHER", "paramType": "Mean Difference (Final Values)", "paramValue": "-3.7", "ciPctValue": "95", "ciNumSides": "TWO_SIDED", "ciLowerLimit": "-11.0", "ciUpperLimit": "3.6", "dispersionType": "STANDARD_ERROR_OF_MEAN", "dispersionValue": "3.713"}]}, {"type": "SECONDARY", "title": "Percentage of Participants Achieving a Therapeutic Glycemic Response (Hemoglobin A1c [HbA1C]) <7.0% at Week 24 (Last Observation Carried Forward [LOCF])", "description": "Therapeutic glycemic response is defined as HbA1c \\<7.0%. Data after rescue medication was excluded from this analysis. HbA1c was measured as a percent of hemoglobin.", "populationDescription": "All randomized participants who received study medication and were not missing baseline and Week 24 (LOCF) values", "reportingStatus": "POSTED", "paramType": "NUMBER", "dispersionType": "95% Confidence Interval", "unitOfMeasure": "Percent of participants", "timeFrame": "From Baseline to Week 24", "groups": [{"id": "OG000", "title": "Saxagliptin 5mg + Dapagliflozin 10mg + Metformin", "description": "Participants received Saxagliptin 5mg, dapagliflozin 10mg once daily plus open-label metformin for up to 52 weeks"}, {"id": "OG001", "title": "Placebo + Dapagliflozin 10mg + Metformin", "description": "Participants received Saxagliptin-matching placebo, dapagliflozin 10mg once daily plus open-label metformin for up to 52 weeks"}], "denoms": [{"units": "Participants", "counts": [{"groupId": "OG000", "value": "139"}, {"groupId": "OG001", "value": "146"}]}], "classes": [{"categories": [{"measurements": [{"groupId": "OG000", "value": "35.3", "spread": "2.644", "lowerLimit": "28.2", "upperLimit": "42.4"}, {"groupId": "OG001", "value": "23.1", "spread": "2.590", "lowerLimit": "16.9", "upperLimit": "29.3"}]}]}], "analyses": [{"groupIds": ["OG000", "OG001"], "testedNonInferiority": false, "nonInferiorityType": "SUPERIORITY_OR_OTHER", "paramType": "Risk Difference (RD)", "paramValue": "12.2", "ciPctValue": "95", "ciNumSides": "TWO_SIDED", "ciLowerLimit": "3.4", "ciUpperLimit": "21.0", "dispersionType": "STANDARD_ERROR_OF_MEAN", "dispersionValue": "4.504"}]}]}, "adverseEventsModule": {"frequencyThreshold": "5", "eventGroups": [{"id": "EG000", "title": "Placebo + Dapagliflozin 10mg + Metformin", "description": "Participants received Saxagliptin-matching placebo, dapagliflozin 10mg once daily plus open-label metformin for up to 52 weeks", "seriousNumAffected": 11, "seriousNumAtRisk": 162, "otherNumAffected": 37, "otherNumAtRisk": 162}, {"id": "EG001", "title": "Saxagliptin 5mg + Dapagliflozin 10mg + Metformin", "description": "Participants received Saxagliptin 5mg, dapagliflozin 10mg once daily plus open-label metformin for up to 52 weeks", "seriousNumAffected": 7, "seriousNumAtRisk": 153, "otherNumAffected": 37, "otherNumAtRisk": 153}], "seriousEvents": [{"term": "ANGINA PECTORIS", "organSystem": "Cardiac disorders", "sourceVocabulary": "MedDRA 17.1", "assessmentType": "SYSTEMATIC_ASSESSMENT", "stats": [{"groupId": "EG000", "numEvents": 1, "numAffected": 1, "numAtRisk": 162}, {"groupId": "EG001", "numEvents": 0, "numAffected": 0, "numAtRisk": 153}]}, {"term": "ATRIAL FIBRILLATION", "organSystem": "Cardiac disorders", "sourceVocabulary": "MedDRA 17.1", "assessmentType": "SYSTEMATIC_ASSESSMENT", "stats": [{"groupId": "EG000", "numEvents": 1, "numAffected": 1, "numAtRisk": 162}, {"groupId": "EG001", "numEvents": 0, "numAffected": 0, "numAtRisk": 153}]}, {"term": "MYOCARDIAL INFARCTION", "organSystem": "Cardiac disorders", "sourceVocabulary": "MedDRA 17.1", "assessmentType": "SYSTEMATIC_ASSESSMENT", "stats": [{"groupId": "EG000", "numEvents": 1, "numAffected": 1, "numAtRisk": 162}, {"groupId": "EG001", "numEvents": 0, "numAffected": 0, "numAtRisk": 153}]}, {"term": "RETINAL DETACHMENT", "organSystem": "Eye disorders", "sourceVocabulary": "MedDRA 17.1", "assessmentType": "SYSTEMATIC_ASSESSMENT", "stats": [{"groupId": "EG000", "numEvents": 1, "numAffected": 1, "numAtRisk": 162}, {"groupId": "EG001", "numEvents": 0, "numAffected": 0, "numAtRisk": 153}]}, {"term": "COLITIS", "organSystem": "Gastrointestinal disorders", "sourceVocabulary": "MedDRA 17.1", "assessmentType": "SYSTEMATIC_ASSESSMENT", "stats": [{"groupId": "EG000", "numEvents": 1, "numAffected": 1, "numAtRisk": 162}, {"groupId": "EG001", "numEvents": 0, "numAffected": 0, "numAtRisk": 153}]}, {"term": "GASTRITIS", "organSystem": "Gastrointestinal disorders", "sourceVocabulary": "MedDRA 17.1", "assessmentType": "SYSTEMATIC_ASSESSMENT", "stats": [{"groupId": "EG000", "numEvents": 1, "numAffected": 1, "numAtRisk": 162}, {"groupId": "EG001", "numEvents": 0, "numAffected": 0, "numAtRisk": 153}]}, {"term": "CHEST PAIN", "organSystem": "General disorders", "sourceVocabulary": "MedDRA 17.1", "assessmentType": "SYSTEMATIC_ASSESSMENT", "stats": [{"groupId": "EG000", "numEvents": 1, "numAffected": 1, "numAtRisk": 162}, {"groupId": "EG001", "numEvents": 0, "numAffected": 0, "numAtRisk": 153}]}, {"term": "HERNIA", "organSystem": "General disorders", "sourceVocabulary": "MedDRA 17.1", "assessmentType": "SYSTEMATIC_ASSESSMENT", "stats": [{"groupId": "EG000", "numEvents": 1, "numAffected": 1, "numAtRisk": 162}, {"groupId": "EG001", "numEvents": 0, "numAffected": 0, "numAtRisk": 153}]}, {"term": "NON-CARDIAC CHEST PAIN", "organSystem": "General disorders", "sourceVocabulary": "MedDRA 17.1", "assessmentType": "SYSTEMATIC_ASSESSMENT", "stats": [{"groupId": "EG000", "numEvents": 1, "numAffected": 1, "numAtRisk": 162}, {"groupId": "EG001", "numEvents": 0, "numAffected": 0, "numAtRisk": 153}]}, {"term": "CHOLELITHIASIS", "organSystem": "Hepatobiliary disorders", "sourceVocabulary": "MedDRA 17.1", "assessmentType": "SYSTEMATIC_ASSESSMENT", "stats": [{"groupId": "EG000", "numEvents": 0, "numAffected": 0, "numAtRisk": 162}, {"groupId": "EG001", "numEvents": 1, "numAffected": 1, "numAtRisk": 153}]}, {"term": "PYELONEPHRITIS", "organSystem": "Infections and infestations", "sourceVocabulary": "MedDRA 17.1", "assessmentType": "SYSTEMATIC_ASSESSMENT", "stats": [{"groupId": "EG000", "numEvents": 0, "numAffected": 0, "numAtRisk": 162}, {"groupId": "EG001", "numEvents": 1, "numAffected": 1, "numAtRisk": 153}]}, {"term": "FALL", "organSystem": "Injury, poisoning and procedural complications", "sourceVocabulary": "MedDRA 17.1", "assessmentType": "SYSTEMATIC_ASSESSMENT", "stats": [{"groupId": "EG000", "numEvents": 1, "numAffected": 1, "numAtRisk": 162}, {"groupId": "EG001", "numEvents": 0, "numAffected": 0, "numAtRisk": 153}]}, {"term": "STAPHYLOCOCCUS TEST POSITIVE", "organSystem": "Investigations", "sourceVocabulary": "MedDRA 17.1", "assessmentType": "SYSTEMATIC_ASSESSMENT", "stats": [{"groupId": "EG000", "numEvents": 1, "numAffected": 1, "numAtRisk": 162}, {"groupId": "EG001", "numEvents": 0, "numAffected": 0, "numAtRisk": 153}]}, {"term": "RHABDOMYOLYSIS", "organSystem": "Musculoskeletal and connective tissue disorders", "sourceVocabulary": "MedDRA 17.1", "assessmentType": "SYSTEMATIC_ASSESSMENT", "stats": [{"groupId": "EG000", "numEvents": 0, "numAffected": 0, "numAtRisk": 162}, {"groupId": "EG001", "numEvents": 1, "numAffected": 1, "numAtRisk": 153}]}, {"term": "HEPATIC CANCER", "organSystem": "Neoplasms benign, malignant and unspecified (incl cysts and polyps)", "sourceVocabulary": "MedDRA 17.1", "assessmentType": "SYSTEMATIC_ASSESSMENT", "stats": [{"groupId": "EG000", "numEvents": 0, "numAffected": 0, "numAtRisk": 162}, {"groupId": "EG001", "numEvents": 1, "numAffected": 1, "numAtRisk": 153}]}, {"term": "SYNCOPE", "organSystem": "Nervous system disorders", "sourceVocabulary": "MedDRA 17.1", "assessmentType": "SYSTEMATIC_ASSESSMENT", "stats": [{"groupId": "EG000", "numEvents": 0, "numAffected": 0, "numAtRisk": 162}, {"groupId": "EG001", "numEvents": 1, "numAffected": 1, "numAtRisk": 153}]}, {"term": "UTERINE HAEMORRHAGE", "organSystem": "Reproductive system and breast disorders", "sourceVocabulary": "MedDRA 17.1", "assessmentType": "SYSTEMATIC_ASSESSMENT", "stats": [{"groupId": "EG000", "numEvents": 1, "numAffected": 1, "numAtRisk": 162}, {"groupId": "EG001", "numEvents": 0, "numAffected": 0, "numAtRisk": 153}]}, {"term": "ASTHMA", "organSystem": "Respiratory, thoracic and mediastinal disorders", "sourceVocabulary": "MedDRA 17.1", "assessmentType": "SYSTEMATIC_ASSESSMENT", "stats": [{"groupId": "EG000", "numEvents": 1, "numAffected": 1, "numAtRisk": 162}, {"groupId": "EG001", "numEvents": 0, "numAffected": 0, "numAtRisk": 153}]}, {"term": "PULMONARY EMBOLISM", "organSystem": "Respiratory, thoracic and mediastinal disorders", "sourceVocabulary": "MedDRA 17.1", "assessmentType": "SYSTEMATIC_ASSESSMENT", "stats": [{"groupId": "EG000", "numEvents": 0, "numAffected": 0, "numAtRisk": 162}, {"groupId": "EG001", "numEvents": 1, "numAffected": 1, "numAtRisk": 153}]}, {"term": "DIABETIC FOOT", "organSystem": "Skin and subcutaneous tissue disorders", "sourceVocabulary": "MedDRA 17.1", "assessmentType": "SYSTEMATIC_ASSESSMENT", "stats": [{"groupId": "EG000", "numEvents": 0, "numAffected": 0, "numAtRisk": 162}, {"groupId": "EG001", "numEvents": 2, "numAffected": 1, "numAtRisk": 153}]}, {"term": "SKIN ULCER", "organSystem": "Skin and subcutaneous tissue disorders", "sourceVocabulary": "MedDRA 17.1", "assessmentType": "SYSTEMATIC_ASSESSMENT", "stats": [{"groupId": "EG000", "numEvents": 0, "numAffected": 0, "numAtRisk": 162}, {"groupId": "EG001", "numEvents": 1, "numAffected": 1, "numAtRisk": 153}]}, {"term": "PERIPHERAL ARTERY THROMBOSIS", "organSystem": "Vascular disorders", "sourceVocabulary": "MedDRA 17.1", "assessmentType": "SYSTEMATIC_ASSESSMENT", "stats": [{"groupId": "EG000", "numEvents": 0, "numAffected": 0, "numAtRisk": 162}, {"groupId": "EG001", "numEvents": 1, "numAffected": 1, "numAtRisk": 153}]}, {"term": "PERIPHERAL VASCULAR DISORDER", "organSystem": "Vascular disorders", "sourceVocabulary": "MedDRA 17.1", "assessmentType": "SYSTEMATIC_ASSESSMENT", "stats": [{"groupId": "EG000", "numEvents": 0, "numAffected": 0, "numAtRisk": 162}, {"groupId": "EG001", "numEvents": 1, "numAffected": 1, "numAtRisk": 153}]}], "otherEvents": [{"term": "DIARRHOEA", "organSystem": "Gastrointestinal disorders", "sourceVocabulary": "MedDRA 17.1", "assessmentType": "SYSTEMATIC_ASSESSMENT", "stats": [{"groupId": "EG000", "numEvents": 6, "numAffected": 6, "numAtRisk": 162}, {"groupId": "EG001", "numEvents": 8, "numAffected": 8, "numAtRisk": 153}]}, {"term": "NASOPHARYNGITIS", "organSystem": "Infections and infestations", "sourceVocabulary": "MedDRA 17.1", "assessmentType": "SYSTEMATIC_ASSESSMENT", "stats": [{"groupId": "EG000", "numEvents": 8, "numAffected": 8, "numAtRisk": 162}, {"groupId": "EG001", "numEvents": 10, "numAffected": 9, "numAtRisk": 153}]}, {"term": "URINARY TRACT INFECTION", "organSystem": "Infections and infestations", "sourceVocabulary": "MedDRA 17.1", "assessmentType": "SYSTEMATIC_ASSESSMENT", "stats": [{"groupId": "EG000", "numEvents": 13, "numAffected": 11, "numAtRisk": 162}, {"groupId": "EG001", "numEvents": 16, "numAffected": 11, "numAtRisk": 153}]}, {"term": "HEADACHE", "organSystem": "Nervous system disorders", "sourceVocabulary": "MedDRA 17.1", "assessmentType": "SYSTEMATIC_ASSESSMENT", "stats": [{"groupId": "EG000", "numEvents": 13, "numAffected": 12, "numAtRisk": 162}, {"groupId": "EG001", "numEvents": 12, "numAffected": 9, "numAtRisk": 153}]}]}, "moreInfoModule": {"certainAgreement": {"piSponsorEmployee": false, "restrictiveAgreement": false}, "pointOfContact": {"title": "Eva Johnsson, Clinical Science Lead", "organization": "AstraZeneca Pharmaceuticals", "email": "Eva.Johnsson@astrazeneca.com", "phone": "+46 31 7762484", "phoneExt": "762484"}}}, "derivedSection": {"miscInfoModule": {"versionHolder": "2024-06-24"}, "conditionBrowseModule": {"meshes": [{"id": "D000003920", "term": "Diabetes Mellitus"}, {"id": "D000003924", "term": "Diabetes Mellitus, Type 2"}], "ancestors": [{"id": "D000044882", "term": "Glucose Metabolism Disorders"}, {"id": "D000008659", "term": "Metabolic Diseases"}, {"id": "D000004700", "term": "Endocrine System Diseases"}], "browseLeaves": [{"id": "M7115", "name": "Diabetes Mellitus", "asFound": "Diabetes", "relevance": "HIGH"}, {"id": "M7119", "name": "Diabetes Mellitus, Type 2", "asFound": "Type 2 Diabetes", "relevance": "HIGH"}, {"id": "M11639", "name": "Metabolic Diseases", "relevance": "LOW"}, {"id": "M25403", "name": "Glucose Metabolism Disorders", "relevance": "LOW"}, {"id": "M7862", "name": "Endocrine System Diseases", "relevance": "LOW"}], "browseBranches": [{"abbrev": "BC18", "name": "Nutritional and Metabolic Diseases"}, {"abbrev": "BC19", "name": "Gland and Hormone Related Diseases"}, {"abbrev": "All", "name": "All Conditions"}]}, "interventionBrowseModule": {"meshes": [{"id": "D000008687", "term": "Metformin"}, {"id": "C000529054", "term": "Dapagliflozin"}, {"id": "C000502994", "term": "Saxagliptin"}], "ancestors": [{"id": "D000007004", "term": "Hypoglycemic Agents"}, {"id": "D000045505", "term": "Physiological Effects of Drugs"}, {"id": "D000077203", "term": "Sodium-Glucose Transporter 2 Inhibitors"}, {"id": "D000045504", "term": "Molecular Mechanisms of Pharmacological Action"}, {"id": "D000054795", "term": "Incretins"}, {"id": "D000006728", "term": "Hormones"}, {"id": "D000006730", "term": "Hormones, Hormone Substitutes, and Hormone Antagonists"}, {"id": "D000054873", "term": "Dipeptidyl-Peptidase IV Inhibitors"}, {"id": "D000011480", "term": "Protease Inhibitors"}, {"id": "D000004791", "term": "Enzyme Inhibitors"}], "browseLeaves": [{"id": "M11667", "name": "Metformin", "asFound": "Assessment", "relevance": "HIGH"}, {"id": "M348449", "name": "Dapagliflozin", "asFound": "Body weight", "relevance": "HIGH"}, {"id": "M228152", "name": "Saxagliptin", "asFound": "Manufacturer", "relevance": "HIGH"}, {"id": "M10054", "name": "Hypoglycemic Agents", "relevance": "LOW"}, {"id": "M1691", "name": "Sodium-Glucose Transporter 2 Inhibitors", "relevance": "LOW"}, {"id": "M27905", "name": "Incretins", "relevance": "LOW"}, {"id": "M9789", "name": "Hormones", "relevance": "LOW"}, {"id": "M9788", "name": "Hormone Antagonists", "relevance": "LOW"}, {"id": "M27957", "name": "Dipeptidyl-Peptidase IV Inhibitors", "relevance": "LOW"}, {"id": "M19609", "name": "HIV Protease Inhibitors", "relevance": "LOW"}, {"id": "M14343", "name": "Protease Inhibitors", "relevance": "LOW"}, {"id": "M7951", "name": "Enzyme Inhibitors", "relevance": "LOW"}], "browseBranches": [{"abbrev": "Hypo", "name": "Hypoglycemic Agents"}, {"abbrev": "All", "name": "All Drugs and Chemicals"}, {"abbrev": "Infe", "name": "Anti-Infective Agents"}]}}, "hasResults": true}