{"protocolSection": {"identificationModule": {"nctId": "NCT01719003", "orgStudyIdInfo": {"id": "1276.1"}, "secondaryIdInfos": [{"id": "2010-021375-92", "type": "EUDRACT_NUMBER", "domain": "EudraCT"}], "organization": {"fullName": "Boehringer Ingelheim", "class": "INDUSTRY"}, "briefTitle": "Safety and Efficacy Study of Empagliflozin and Metformin for 24 Weeks in Treatment Naive Patients With Type 2 Diabetes", "officialTitle": "A 24-week Phase III Randomized, Double-blind, Parallel Group Study to Evaluate the Efficacy and Safety of Twice Daily Oral Administration of Empagliflozin + Metformin Compared With the Individual Components of Empagliflozin or Metformin in Drug Naive Patients With Type 2 Diabetes Mellitus"}, "statusModule": {"statusVerifiedDate": "2016-01", "overallStatus": "COMPLETED", "expandedAccessInfo": {"hasExpandedAccess": false}, "startDateStruct": {"date": "2012-10"}, "primaryCompletionDateStruct": {"date": "2014-11", "type": "ACTUAL"}, "completionDateStruct": {"date": "2014-12", "type": "ACTUAL"}, "studyFirstSubmitDate": "2012-10-30", "studyFirstSubmitQcDate": "2012-10-30", "studyFirstPostDateStruct": {"date": "2012-11-01", "type": "ESTIMATED"}, "resultsFirstSubmitDate": "2015-11-23", "resultsFirstSubmitQcDate": "2016-01-22", "resultsFirstPostDateStruct": {"date": "2016-02-19", "type": "ESTIMATED"}, "lastUpdateSubmitDate": "2016-01-22", "lastUpdatePostDateStruct": {"date": "2016-02-19", "type": "ESTIMATED"}}, "sponsorCollaboratorsModule": {"responsibleParty": {"type": "SPONSOR"}, "leadSponsor": {"name": "Boehringer Ingelheim", "class": "INDUSTRY"}, "collaborators": [{"name": "Eli Lilly and Company", "class": "INDUSTRY"}]}, "descriptionModule": {"briefSummary": "This study will investigate the efficacy and safety of two doses (high and low) of empagliflozin in combination with metformin (500 mg and 1000 mg) administered twice daily in patients with type 2 diabetes mellitus (T2DM). Study will compare four dose combinations of empagliflozin + metformin versus each individual component after 24 weeks of treatment."}, "conditionsModule": {"conditions": ["Diabetes Mellitus, Type 2", "Hyperglycemia"]}, "designModule": {"studyType": "INTERVENTIONAL", "phases": ["PHASE3"], "designInfo": {"allocation": "RANDOMIZED", "interventionModel": "PARALLEL", "primaryPurpose": "TREATMENT", "maskingInfo": {"masking": "DOUBLE"}}, "enrollmentInfo": {"count": 1413, "type": "ACTUAL"}}, "armsInterventionsModule": {"armGroups": [{"label": "Empagliflozin low dose qd", "type": "EXPERIMENTAL", "description": "Empagliflozin low dose once daily", "interventionNames": ["Drug: Empagliflozin low dose qd"]}, {"label": "Empagliflozin high dose qd", "type": "EXPERIMENTAL", "description": "Empagliflozin high dose once daily", "interventionNames": ["Drug: Empagliflozin high dose qd"]}, {"label": "OL empa high dose + met 1000 mg bid", "type": "EXPERIMENTAL", "description": "Open label empagliflozin high dose split twice daily + metformin 1000 mg twice daily - Patients are no longer enrolled into this arm because of change in the inclusion criteria in protocol version 2.0 all patients are now enrolled into remaining double-blind arms. Patients already enrolled in the open-label arm according to protocol version 1.0 can complete the study.", "interventionNames": ["Drug: Metformin 1000 mg bid", "Drug: Empagliflozin high dose bid"]}, {"label": "Empagliflozin low dose + met 500 mg bid", "type": "EXPERIMENTAL", "description": "Empagliflozin low dose split twice daily + metformin 500 mg twice daily", "interventionNames": ["Drug: Metformin 500 mg bid", "Drug: Empagliflozin low dose bid"]}, {"label": "Empagliflozin low dose + met 1000 mg bid", "type": "EXPERIMENTAL", "description": "Empagliflozin low dose split twice daily + metformin 1000 mg twice daily", "interventionNames": ["Drug: Empagliflozin low dose bid", "Drug: Metformin 1000 mg bid"]}, {"label": "Empagliflozin high dose + met 500 mg bid", "type": "EXPERIMENTAL", "description": "Empagliflozin high dose split twice daily + metformin 500 mg twice daily", "interventionNames": ["Drug: Metformin 500 mg bid", "Drug: Empagliflozin high dose bid"]}, {"label": "Empagliflozin high dose + met 1000mg bid", "type": "EXPERIMENTAL", "description": "Empagliflozin high dose split twice daily + metformin 1000 mg twice daily", "interventionNames": ["Drug: Metformin 1000 mg bid", "Drug: Empagliflozin high dose bid"]}, {"label": "Metformin 500 mg bid", "type": "EXPERIMENTAL", "description": "Metformin 500 mg twice daily", "interventionNames": ["Drug: Metformin 500 mg bid"]}, {"label": "Metformin 1000 mg bid", "type": "EXPERIMENTAL", "description": "Metformin 1000 mg twice daily", "interventionNames": ["Drug: Metformin 1000 mg bid"]}], "interventions": [{"type": "DRUG", "name": "Metformin 500 mg bid", "description": "Metformin 500 mg twice daily", "armGroupLabels": ["Empagliflozin low dose + met 500 mg bid"]}, {"type": "DRUG", "name": "Metformin 1000 mg bid", "description": "Metformin 1000 mg twice daily", "armGroupLabels": ["OL empa high dose + met 1000 mg bid"]}, {"type": "DRUG", "name": "Empagliflozin low dose qd", "description": "Empagliflozin low dose once daily", "armGroupLabels": ["Empagliflozin low dose qd"]}, {"type": "DRUG", "name": "Empagliflozin high dose qd", "description": "Empagliflozin high dose once daily", "armGroupLabels": ["Empagliflozin high dose qd"]}, {"type": "DRUG", "name": "Empagliflozin low dose bid", "description": "Empagliflozin low dose split twice daily", "armGroupLabels": ["Empagliflozin low dose + met 500 mg bid"]}, {"type": "DRUG", "name": "Metformin 500 mg bid", "description": "Metformin 500 mg twice daily", "armGroupLabels": ["Empagliflozin high dose + met 500 mg bid"]}, {"type": "DRUG", "name": "Empagliflozin high dose bid", "description": "Empagliflozin high dose split twice daily", "armGroupLabels": ["OL empa high dose + met 1000 mg bid"]}, {"type": "DRUG", "name": "Empagliflozin low dose bid", "description": "Empagliflozin low dose split twice daily", "armGroupLabels": ["Empagliflozin low dose + met 1000 mg bid"]}, {"type": "DRUG", "name": "Metformin 1000 mg bid", "description": "Metformin 1000 mg twice daily", "armGroupLabels": ["Empagliflozin high dose + met 1000mg bid"]}, {"type": "DRUG", "name": "Metformin 500 mg bid", "description": "Metformin 500 mg twice daily", "armGroupLabels": ["Metformin 500 mg bid"]}, {"type": "DRUG", "name": "Metformin 1000 mg bid", "description": "Metformin 1000 mg twice daily", "armGroupLabels": ["Metformin 1000 mg bid"]}, {"type": "DRUG", "name": "Empagliflozin high dose bid", "description": "Empagliflozin high dose split twice daily", "armGroupLabels": ["Empagliflozin high dose + met 1000mg bid"]}, {"type": "DRUG", "name": "Metformin 1000 mg bid", "description": "Metformin 1000 mg twice daily", "armGroupLabels": ["Empagliflozin low dose + met 1000 mg bid"]}, {"type": "DRUG", "name": "Empagliflozin high dose bid", "description": "Empagliflozin high dose split twice daily", "armGroupLabels": ["Empagliflozin high dose + met 500 mg bid"]}]}, "outcomesModule": {"primaryOutcomes": [{"measure": "HbA1c (Glycosylated Haemoglobin) Change From Baseline at Week 24", "description": "Change from baseline in HbA1c (%) after 24 weeks of treatment. \"Baseline\" refers to the last observation before the start of any randomised trial treatment medication. Means presented are the adjusted means", "timeFrame": "baseline and 24 weeks"}], "secondaryOutcomes": [{"measure": "FPG (Fasting Plasma Glucose) Change From Baseline at Week 24", "description": "Change from baseline in FPG (mg/dL) after 24 weeks of treatment. \"Baseline\" refers to the last observation before the start of any randomised trial treatment medication. Means presented are the adjusted means.", "timeFrame": "baseline and 24 weeks"}, {"measure": "Body Weight Change From Baseline at Week 24", "description": "Change from baseline in body weight (kg) after 24 weeks of treatment. \"Baseline\" refers to the last observation before the start of any randomised trial treatment. medication. Means presented are the adjusted means.", "timeFrame": "baseline and 24 weeks"}]}, "eligibilityModule": {"eligibilityCriteria": "Inclusion criteria:\n\n1. Diagnosis of type 2 diabetes mellitus prior to informed consent\n2. Male and female patients on diet and exercise regimen who are drug-naive, defined as absence of any oral antidiabetic therapy for 12 weeks prior to randomization\n3. HbA1c \\>=7.5% and \\<= 12% (\\>=58.5 mmol/mol and \\<=107.7 mmol/mol)\n4. Body Mass Index (BMI) \\<= 45 kg/m2 at screening\n\nExclusion criteria:\n\n1. Uncontrolled hyperglycemia with a glucose level \\>240 mg/dl (\\>13.3 mmol/L) after an overnight fast during placebo run-in and confirmed by a second laboratory measurement (not on the same day)\n2. Any antidiabetic drug within 12 weeks prior to randomization\n3. Impaired renal function, defined as estimated creatinine clearance rate (eCCr) \\<60 ml/min (Cockcroft-Gault formula) as determined during screening and/or run-in period\n4. Contraindications to metformin according to the local label", "healthyVolunteers": false, "sex": "ALL", "minimumAge": "18 Years", "stdAges": ["ADULT", "OLDER_ADULT"]}, "contactsLocationsModule": {"overallOfficials": [{"name": "Boehringer Ingelheim", "affiliation": "Boehringer Ingelheim", "role": "STUDY_CHAIR"}], "locations": [{"facility": "1276.1.10014 Boehringer Ingelheim Investigational Site", "city": "Birmingham", "state": "Alabama", "country": "United States", "geoPoint": {"lat": 33.52066, "lon": -86.80249}}, {"facility": "1276.1.10019 Boehringer Ingelheim Investigational Site", "city": "Birmingham", "state": "Alabama", "country": "United States", "geoPoint": {"lat": 33.52066, "lon": -86.80249}}, {"facility": "1276.1.10044 Boehringer Ingelheim Investigational Site", "city": "Hot Springs", "state": "Alaska", "country": "United States"}, {"facility": "1276.1.10010 Boehringer Ingelheim Investigational Site", "city": "Glendale", "state": "Arizona", "country": "United States", "geoPoint": {"lat": 33.53865, "lon": -112.18599}}, {"facility": "1276.1.10035 Boehringer Ingelheim Investigational Site", "city": "Searcy", "state": "Arkansas", "country": "United States", "geoPoint": {"lat": 35.25064, "lon": -91.73625}}, {"facility": "1276.1.10046 Boehringer Ingelheim Investigational Site", "city": "Chula Vista", "state": "California", "country": "United States", "geoPoint": {"lat": 32.64005, "lon": -117.0842}}, {"facility": "1276.1.10006 Boehringer Ingelheim Investigational Site", "city": "Huntington Beach", "state": "California", "country": "United States", "geoPoint": {"lat": 33.6603, "lon": -117.99923}}, {"facility": "1276.1.10043 Boehringer Ingelheim Investigational Site", "city": "La Mesa", "state": "California", "country": "United States", "geoPoint": {"lat": 32.76783, "lon": -117.02308}}, {"facility": "1276.1.10009 Boehringer Ingelheim Investigational Site", "city": "Los Angeles", "state": "California", "country": "United States", "geoPoint": {"lat": 34.05223, "lon": -118.24368}}, {"facility": "1276.1.10040 Boehringer Ingelheim Investigational Site", "city": "Los Angeles", "state": "California", "country": "United States", "geoPoint": {"lat": 34.05223, "lon": -118.24368}}, {"facility": "1276.1.10045 Boehringer Ingelheim Investigational Site", "city": "Oceanside", "state": "California", "country": "United States", "geoPoint": {"lat": 33.19587, "lon": -117.37948}}, {"facility": "1276.1.10042 Boehringer Ingelheim Investigational Site", "city": "Colorado Springs", "state": "Colorado", "country": "United States", "geoPoint": {"lat": 38.83388, "lon": -104.82136}}, {"facility": "1276.1.10001 Boehringer Ingelheim Investigational Site", "city": "Denver", "state": "Colorado", "country": "United States", "geoPoint": {"lat": 39.73915, "lon": -104.9847}}, {"facility": "1276.1.10003 Boehringer Ingelheim Investigational Site", "city": "Northglenn", "state": "Colorado", "country": "United States", "geoPoint": {"lat": 39.88554, "lon": -104.9872}}, {"facility": "1276.1.10026 Boehringer Ingelheim Investigational Site", "city": "Fort Lauderdale", "state": "Florida", "country": "United States", "geoPoint": {"lat": 26.12231, "lon": -80.14338}}, {"facility": "1276.1.10024 Boehringer Ingelheim Investigational Site", "city": "Oldsmar", "state": "Florida", "country": "United States", "geoPoint": {"lat": 28.03418, "lon": -82.6651}}, {"facility": "1276.1.10027 Boehringer Ingelheim Investigational Site", "city": "Port Orange", "state": "Florida", "country": "United States", "geoPoint": {"lat": 29.13832, "lon": -80.99561}}, {"facility": "1276.1.10023 Boehringer Ingelheim Investigational Site", "city": "Marietta", "state": "Georgia", "country": "United States", "geoPoint": {"lat": 33.9526, "lon": -84.54993}}, {"facility": "1276.1.10034 Boehringer Ingelheim Investigational Site", "city": "Evansville", "state": "Indiana", "country": "United States", "geoPoint": {"lat": 37.97476, "lon": -87.55585}}, {"facility": "1276.1.10032 Boehringer Ingelheim Investigational Site", "city": "Fall River", "state": "Massachusetts", "country": "United States", "geoPoint": {"lat": 41.70149, "lon": -71.15505}}, {"facility": "1276.1.10036 Boehringer Ingelheim Investigational Site", "city": "Bridgman", "state": "Michigan", "country": "United States", "geoPoint": {"lat": 41.9431, "lon": -86.55697}}, {"facility": "1276.1.10037 Boehringer Ingelheim Investigational Site", "city": "Hazelwood", "state": "Missouri", "country": "United States", "geoPoint": {"lat": 38.77144, "lon": -90.37095}}, {"facility": "1276.1.10007 Boehringer Ingelheim Investigational Site", "city": "Las Vegas", "state": "Nevada", "country": "United States", "geoPoint": {"lat": 36.17497, "lon": -115.13722}}, {"facility": "1276.1.10015 Boehringer Ingelheim Investigational Site", "city": "Union", "state": "New Jersey", "country": "United States", "geoPoint": {"lat": 40.6976, "lon": -74.2632}}, {"facility": "1276.1.10033 Boehringer Ingelheim Investigational Site", "city": "Asheboro", "state": "North Carolina", "country": "United States", "geoPoint": {"lat": 35.70791, "lon": -79.81364}}, {"facility": "1276.1.10022 Boehringer Ingelheim Investigational Site", "city": "Burlington", "state": "North Carolina", "country": "United States", "geoPoint": {"lat": 36.09569, "lon": -79.4378}}, {"facility": "1276.1.10002 Boehringer Ingelheim Investigational Site", "city": "Lenoir", "state": "North Carolina", "country": "United States", "geoPoint": {"lat": 35.91402, "lon": -81.53898}}, {"facility": "1276.1.10005 Boehringer Ingelheim Investigational Site", "city": "Cincinnati", "state": "Ohio", "country": "United States", "geoPoint": {"lat": 39.12713, "lon": -84.51435}}, {"facility": "1276.1.10011 Boehringer Ingelheim Investigational Site", "city": "Gallipolis", "state": "Ohio", "country": "United States", "geoPoint": {"lat": 38.8098, "lon": -82.20237}}, {"facility": "1276.1.10030 Boehringer Ingelheim Investigational Site", "city": "Columbia", "state": "South Carolina", "country": "United States", "geoPoint": {"lat": 34.00071, "lon": -81.03481}}, {"facility": "1276.1.10008 Boehringer Ingelheim Investigational Site", "city": "Greer", "state": "South Carolina", "country": "United States", "geoPoint": {"lat": 34.93873, "lon": -82.22706}}, {"facility": "1276.1.10013 Boehringer Ingelheim Investigational Site", "city": "Hodges", "state": "South Carolina", "country": "United States", "geoPoint": {"lat": 34.28762, "lon": -82.24429}}, {"facility": "1276.1.10017 Boehringer Ingelheim Investigational Site", "city": "Humboldt", "state": "Tennessee", "country": "United States", "geoPoint": {"lat": 35.81979, "lon": -88.9159}}, {"facility": "1276.1.10018 Boehringer Ingelheim Investigational Site", "city": "Houston", "state": "Texas", "country": "United States", "geoPoint": {"lat": 29.76328, "lon": -95.36327}}, {"facility": "1276.1.10025 Boehringer Ingelheim Investigational Site", "city": "Houston", "state": "Texas", "country": "United States", "geoPoint": {"lat": 29.76328, "lon": -95.36327}}, {"facility": "1276.1.10028 Boehringer Ingelheim Investigational Site", "city": "Houston", "state": "Texas", "country": "United States", "geoPoint": {"lat": 29.76328, "lon": -95.36327}}, {"facility": "1276.1.10016 Boehringer Ingelheim Investigational Site", "city": "Kingwood", "state": "Texas", "country": "United States", "geoPoint": {"lat": 30.03355, "lon": -95.26104}}, {"facility": "1276.1.10021 Boehringer Ingelheim Investigational Site", "city": "San Antonio", "state": "Texas", "country": "United States", "geoPoint": {"lat": 29.42412, "lon": -98.49363}}, {"facility": "1276.1.10041 Boehringer Ingelheim Investigational Site", "city": "San Antonio", "state": "Texas", "country": "United States", "geoPoint": {"lat": 29.42412, "lon": -98.49363}}, {"facility": "1276.1.10004 Boehringer Ingelheim Investigational Site", "city": "Manassas", "state": "Virginia", "country": "United States", "geoPoint": {"lat": 38.75095, "lon": -77.47527}}, {"facility": "1276.1.10012 Boehringer Ingelheim Investigational Site", "city": "Wenatchee", "state": "Washington", "country": "United States", "geoPoint": {"lat": 47.42346, "lon": -120.31035}}, {"facility": "1276.1.55008 Boehringer Ingelheim Investigational Site", "city": "Bel\u00e9m", "country": "Brazil", "geoPoint": {"lat": -1.45583, "lon": -48.50444}}, {"facility": "1276.1.55003 Boehringer Ingelheim Investigational Site", "city": "Brasilia", "country": "Brazil", "geoPoint": {"lat": -15.77972, "lon": -47.92972}}, {"facility": "1276.1.55006 Boehringer Ingelheim Investigational Site", "city": "Fortaleza", "country": "Brazil", "geoPoint": {"lat": -3.71722, "lon": -38.54306}}, {"facility": "1276.1.55007 Boehringer Ingelheim Investigational Site", "city": "Fortaleza", "country": "Brazil", "geoPoint": {"lat": -3.71722, "lon": -38.54306}}, {"facility": "1276.1.55009 Boehringer Ingelheim Investigational Site", "city": "Fortaleza", "country": "Brazil", "geoPoint": {"lat": -3.71722, "lon": -38.54306}}, {"facility": "1276.1.55004 Boehringer Ingelheim Investigational Site", "city": "Goiania", "country": "Brazil", "geoPoint": {"lat": -16.67861, "lon": -49.25389}}, {"facility": "1276.1.55002 Boehringer Ingelheim Investigational Site", "city": "Porto Alegre", "country": "Brazil", "geoPoint": {"lat": -30.03306, "lon": -51.23}}, {"facility": "1276.1.55001 Boehringer Ingelheim Investigational Site", "city": "Sao Paulo", "country": "Brazil", "geoPoint": {"lat": -23.5475, "lon": -46.63611}}, {"facility": "1276.1.20003 Boehringer Ingelheim Investigational Site", "city": "Coquitlam", "state": "British Columbia", "country": "Canada", "geoPoint": {"lat": 49.28297, "lon": -122.75262}}, {"facility": "1276.1.20012 Boehringer Ingelheim Investigational Site", "city": "Coquitlam", "state": "British Columbia", "country": "Canada", "geoPoint": {"lat": 49.28297, "lon": -122.75262}}, {"facility": "1276.1.20008 Boehringer Ingelheim Investigational Site", "city": "Victoria", "state": "British Columbia", "country": "Canada", "geoPoint": {"lat": 48.43294, "lon": -123.3693}}, {"facility": "1276.1.20004 Boehringer Ingelheim Investigational Site", "city": "Antigonish", "state": "Nova Scotia", "country": "Canada", "geoPoint": {"lat": 45.61685, "lon": -61.99858}}, {"facility": "1276.1.20005 Boehringer Ingelheim Investigational Site", "city": "Hawkesbury", "state": "Ontario", "country": "Canada", "geoPoint": {"lat": 45.60009, "lon": -74.61595}}, {"facility": "1276.1.20013 Boehringer Ingelheim Investigational Site", "city": "Sarnia", "state": "Ontario", "country": "Canada", "geoPoint": {"lat": 42.97866, "lon": -82.40407}}, {"facility": "1276.1.20010 Boehringer Ingelheim Investigational Site", "city": "Strathroy", "state": "Ontario", "country": "Canada", "geoPoint": {"lat": 42.9551, "lon": -81.62232}}, {"facility": "1276.1.20006 Boehringer Ingelheim Investigational Site", "city": "Thornhill", "state": "Ontario", "country": "Canada"}, {"facility": "1276.1.20007 Boehringer Ingelheim Investigational Site", "city": "Mirabel", "state": "Quebec", "country": "Canada", "geoPoint": {"lat": 45.65008, "lon": -74.08251}}, {"facility": "1276.1.20001 Boehringer Ingelheim Investigational Site", "city": "Saskatoon", "state": "Saskatchewan", "country": "Canada", "geoPoint": {"lat": 52.13238, "lon": -106.66892}}, {"facility": "1276.1.20002 Boehringer Ingelheim Investigational Site", "city": "Quebec", "country": "Canada", "geoPoint": {"lat": 46.81228, "lon": -71.21454}}, {"facility": "1276.1.42002 Boehringer Ingelheim Investigational Site", "city": "Benatky nad Jizerou", "country": "Czech Republic", "geoPoint": {"lat": 50.29085, "lon": 14.82343}}, {"facility": "1276.1.42008 Boehringer Ingelheim Investigational Site", "city": "Olomouc", "country": "Czech Republic", "geoPoint": {"lat": 49.59552, "lon": 17.25175}}, {"facility": "1276.1.42007 Boehringer Ingelheim Investigational Site", "city": "Ostrava", "country": "Czech Republic", "geoPoint": {"lat": 49.83465, "lon": 18.28204}}, {"facility": "1276.1.42009 Boehringer Ingelheim Investigational Site", "city": "Plzen", "country": "Czech Republic", "geoPoint": {"lat": 49.74747, "lon": 13.37759}}, {"facility": "1276.1.42004 Boehringer Ingelheim Investigational Site", "city": "Praha 10", "country": "Czech Republic", "geoPoint": {"lat": 50.08804, "lon": 14.42076}}, {"facility": "1276.1.42010 Boehringer Ingelheim Investigational Site", "city": "Praha 1", "country": "Czech Republic", "geoPoint": {"lat": 50.08804, "lon": 14.42076}}, {"facility": "1276.1.42003 Boehringer Ingelheim Investigational Site", "city": "Praha 3", "country": "Czech Republic", "geoPoint": {"lat": 50.08804, "lon": 14.42076}}, {"facility": "1276.1.95001 Boehringer Ingelheim Investigational Site", "city": "Abbasia Cairo, Egypt", "country": "Egypt"}, {"facility": "1276.1.95003 Boehringer Ingelheim Investigational Site", "city": "Al Manial, Cairo, Egypt", "country": "Egypt"}, {"facility": "1276.1.95004 Boehringer Ingelheim Investigational Site", "city": "Alexandria", "country": "Egypt", "geoPoint": {"lat": 31.21564, "lon": 29.95527}}, {"facility": "1276.1.95002 Boehringer Ingelheim Investigational Site", "city": "El Darasa Cairo Egypt", "country": "Egypt"}, {"facility": "1276.1.33004 Boehringer Ingelheim Investigational Site", "city": "Behren Les Forbach", "country": "France", "geoPoint": {"lat": 49.1664, "lon": 6.94336}}, {"facility": "1276.1.33012 Boehringer Ingelheim Investigational Site", "city": "Bers\u00e9e", "country": "France", "geoPoint": {"lat": 50.47978, "lon": 3.14765}}, {"facility": "1276.1.33005 Boehringer Ingelheim Investigational Site", "city": "Cournonterral", "country": "France", "geoPoint": {"lat": 43.55889, "lon": 3.72}}, {"facility": "1276.1.33007 Boehringer Ingelheim Investigational Site", "city": "Hautmont", "country": "France", "geoPoint": {"lat": 50.25077, "lon": 3.92143}}, {"facility": "1276.1.33013 Boehringer Ingelheim Investigational Site", "city": "Paris", "country": "France", "geoPoint": {"lat": 48.85341, "lon": 2.3488}}, {"facility": "1276.1.33001 Boehringer Ingelheim Investigational Site", "city": "Poitiers", "country": "France", "geoPoint": {"lat": 46.58333, "lon": 0.33333}}, {"facility": "1276.1.33003 Boehringer Ingelheim Investigational Site", "city": "Savonni\u00e8res", "country": "France", "geoPoint": {"lat": 47.34769, "lon": 0.54961}}, {"facility": "1276.1.33006 Boehringer Ingelheim Investigational Site", "city": "St Genis des Fontaines", "country": "France", "geoPoint": {"lat": 42.54325, "lon": 2.9206}}, {"facility": "1276.1.33002 Boehringer Ingelheim Investigational Site", "city": "Thouars", "country": "France", "geoPoint": {"lat": 46.97602, "lon": -0.21507}}, {"facility": "1276.1.33011 Boehringer Ingelheim Investigational Site", "city": "Thun St amand", "country": "France", "geoPoint": {"lat": 50.47276, "lon": 3.45115}}, {"facility": "1276.1.33010 Boehringer Ingelheim Investigational Site", "city": "Tours", "country": "France", "geoPoint": {"lat": 47.38333, "lon": 0.68333}}, {"facility": "1276.1.33009 Boehringer Ingelheim Investigational Site", "city": "Vandome", "country": "France"}, {"facility": "1276.1.33008 Boehringer Ingelheim Investigational Site", "city": "Vieux Cond\u00e9", "country": "France", "geoPoint": {"lat": 50.45944, "lon": 3.56738}}, {"facility": "1276.1.49005 Boehringer Ingelheim Investigational Site", "city": "Berlin", "country": "Germany", "geoPoint": {"lat": 52.52437, "lon": 13.41053}}, {"facility": "1276.1.49008 Boehringer Ingelheim Investigational Site", "city": "Celle", "country": "Germany", "geoPoint": {"lat": 52.62264, "lon": 10.08047}}, {"facility": "1276.1.49006 Boehringer Ingelheim Investigational Site", "city": "Dortmund", "country": "Germany", "geoPoint": {"lat": 51.51494, "lon": 7.466}}, {"facility": "1276.1.49011 Boehringer Ingelheim Investigational Site", "city": "Dresden", "country": "Germany", "geoPoint": {"lat": 51.05089, "lon": 13.73832}}, {"facility": "1276.1.49003 Boehringer Ingelheim Investigational Site", "city": "Essen", "country": "Germany", "geoPoint": {"lat": 51.45657, "lon": 7.01228}}, {"facility": "1276.1.49007 Boehringer Ingelheim Investigational Site", "city": "Ingelheim", "country": "Germany"}, {"facility": "1276.1.49014 Boehringer Ingelheim Investigational Site", "city": "Neuwied", "country": "Germany", "geoPoint": {"lat": 50.4336, "lon": 7.47057}}, {"facility": "1276.1.49004 Boehringer Ingelheim Investigational Site", "city": "Offenbach", "country": "Germany", "geoPoint": {"lat": 50.10061, "lon": 8.76647}}, {"facility": "1276.1.49002 Boehringer Ingelheim Investigational Site", "city": "Stuhr-Brinkum", "country": "Germany"}, {"facility": "1276.1.49012 Boehringer Ingelheim Investigational Site", "city": "Teuchern", "country": "Germany", "geoPoint": {"lat": 51.12094, "lon": 12.0241}}, {"facility": "1276.1.50002 Boehringer Ingelheim Investigational Site", "city": "Barbena Santa Rosa", "country": "Guatemala"}, {"facility": "1276.1.50003 Boehringer Ingelheim Investigational Site", "city": "Guatemala", "country": "Guatemala", "geoPoint": {"lat": 14.64072, "lon": -90.51327}}, {"facility": "1276.1.50005 Boehringer Ingelheim Investigational Site", "city": "Guatemala", "country": "Guatemala", "geoPoint": {"lat": 14.64072, "lon": -90.51327}}, {"facility": "1276.1.50006 Boehringer Ingelheim Investigational Site", "city": "Guatemala", "country": "Guatemala", "geoPoint": {"lat": 14.64072, "lon": -90.51327}}, {"facility": "1276.1.50001 Boehringer Ingelheim Investigational Site", "city": "Quetzaltenango", "country": "Guatemala", "geoPoint": {"lat": 14.83472, "lon": -91.51806}}, {"facility": "1276.1.82006 Boehringer Ingelheim Investigational Site", "city": "Deagu", "country": "Korea, Republic of"}, {"facility": "1276.1.82010 Boehringer Ingelheim Investigational Site", "city": "Goyang", "country": "Korea, Republic of", "geoPoint": {"lat": 37.65639, "lon": 126.835}}, {"facility": "1276.1.82001 Boehringer Ingelheim Investigational Site", "city": "Incheon", "country": "Korea, Republic of", "geoPoint": {"lat": 37.45646, "lon": 126.70515}}, {"facility": "1276.1.82009 Boehringer Ingelheim Investigational Site", "city": "Pusan", "country": "Korea, Republic of", "geoPoint": {"lat": 35.10278, "lon": 129.04028}}, {"facility": "1276.1.82002 Boehringer Ingelheim Investigational Site", "city": "Seoul", "country": "Korea, Republic of", "geoPoint": {"lat": 37.566, "lon": 126.9784}}, {"facility": "1276.1.82004 Boehringer Ingelheim Investigational Site", "city": "Seoul", "country": "Korea, Republic of", "geoPoint": {"lat": 37.566, "lon": 126.9784}}, {"facility": "1276.1.82005 Boehringer Ingelheim Investigational Site", "city": "Seoul", "country": "Korea, Republic of", "geoPoint": {"lat": 37.566, "lon": 126.9784}}, {"facility": "1276.1.82007 Boehringer Ingelheim Investigational Site", "city": "Seoul", "country": "Korea, Republic of", "geoPoint": {"lat": 37.566, "lon": 126.9784}}, {"facility": "1276.1.82008 Boehringer Ingelheim Investigational Site", "city": "Seoul", "country": "Korea, Republic of", "geoPoint": {"lat": 37.566, "lon": 126.9784}}, {"facility": "1276.1.82003 Boehringer Ingelheim Investigational Site", "city": "Wonju", "country": "Korea, Republic of", "geoPoint": {"lat": 37.35139, "lon": 127.94528}}, {"facility": "1276.1.96001 Boehringer Ingelheim Investigational Site", "city": "Beirut", "country": "Lebanon", "geoPoint": {"lat": 33.88894, "lon": 35.49442}}, {"facility": "1276.1.96002 Boehringer Ingelheim Investigational Site", "city": "El Chouf", "country": "Lebanon"}, {"facility": "1276.1.96003 Boehringer Ingelheim Investigational Site", "city": "Saida", "country": "Lebanon"}, {"facility": "1276.1.96004 Boehringer Ingelheim Investigational Site", "city": "Saida", "country": "Lebanon"}, {"facility": "1276.1.60002 Boehringer Ingelheim Investigational Site", "city": "Ipoh, Perak", "country": "Malaysia"}, {"facility": "1276.1.60001 Boehringer Ingelheim Investigational Site", "city": "Johor Bahru", "country": "Malaysia", "geoPoint": {"lat": 1.4655, "lon": 103.7578}}, {"facility": "1276.1.60003 Boehringer Ingelheim Investigational Site", "city": "Kubang Kerian", "country": "Malaysia", "geoPoint": {"lat": 6.09123, "lon": 102.27938}}, {"facility": "1276.1.52004 Boehringer Ingelheim Investigational Site", "city": "Aguascalientes", "country": "Mexico", "geoPoint": {"lat": 21.88234, "lon": -102.28259}}, {"facility": "1276.1.52007 Boehringer Ingelheim Investigational Site", "city": "Aguascalientes", "country": "Mexico", "geoPoint": {"lat": 21.88234, "lon": -102.28259}}, {"facility": "1276.1.52002 Boehringer Ingelheim Investigational Site", "city": "Ciudad de Mexico", "country": "Mexico", "geoPoint": {"lat": 19.42847, "lon": -99.12766}}, {"facility": "1276.1.52003 Boehringer Ingelheim Investigational Site", "city": "Guadalajara", "country": "Mexico", "geoPoint": {"lat": 20.66682, "lon": -103.39182}}, {"facility": "1276.1.52001 Boehringer Ingelheim Investigational Site", "city": "Monterrey", "country": "Mexico", "geoPoint": {"lat": 25.67507, "lon": -100.31847}}, {"facility": "1276.1.52006 Boehringer Ingelheim Investigational Site", "city": "San Lucas tepetlcalco", "country": "Mexico", "geoPoint": {"lat": 19.52155, "lon": -99.2326}}, {"facility": "1276.1.52005 Boehringer Ingelheim Investigational Site", "city": "Zapopan", "country": "Mexico", "geoPoint": {"lat": 20.72356, "lon": -103.38479}}, {"facility": "1276.1.51001 Boehringer Ingelheim Investigational Site", "city": "Lima", "country": "Peru", "geoPoint": {"lat": -12.04318, "lon": -77.02824}}, {"facility": "1276.1.51002 Boehringer Ingelheim Investigational Site", "city": "Lima", "country": "Peru", "geoPoint": {"lat": -12.04318, "lon": -77.02824}}, {"facility": "1276.1.51003 Boehringer Ingelheim Investigational Site", "city": "Lima", "country": "Peru", "geoPoint": {"lat": -12.04318, "lon": -77.02824}}, {"facility": "1276.1.51004 Boehringer Ingelheim Investigational Site", "city": "Lima", "country": "Peru", "geoPoint": {"lat": -12.04318, "lon": -77.02824}}, {"facility": "1276.1.51005 Boehringer Ingelheim Investigational Site", "city": "Lima", "country": "Peru", "geoPoint": {"lat": -12.04318, "lon": -77.02824}}, {"facility": "1276.1.63009 Boehringer Ingelheim Investigational Site", "city": "Cebu City, Cebu", "country": "Philippines"}, {"facility": "1276.1.63002 Boehringer Ingelheim Investigational Site", "city": "Cebu City, Philippines", "country": "Philippines"}, {"facility": "1276.1.63004 Boehringer Ingelheim Investigational Site", "city": "Davao City", "country": "Philippines", "geoPoint": {"lat": 7.07306, "lon": 125.61278}}, {"facility": "1276.1.63003 Boehringer Ingelheim Investigational Site", "city": "Iloilo City", "country": "Philippines", "geoPoint": {"lat": 10.69694, "lon": 122.56444}}, {"facility": "1276.1.63006 Boehringer Ingelheim Investigational Site", "city": "Manila", "country": "Philippines", "geoPoint": {"lat": 14.6042, "lon": 120.9822}}, {"facility": "1276.1.63001 Boehringer Ingelheim Investigational Site", "city": "Marikina City", "country": "Philippines", "geoPoint": {"lat": 14.6481, "lon": 121.1133}}, {"facility": "1276.1.63005 Boehringer Ingelheim Investigational Site", "city": "Maybunga, Pasig City", "country": "Philippines"}, {"facility": "1276.1.63007 Boehringer Ingelheim Investigational Site", "city": "San Juan City", "country": "Philippines", "geoPoint": {"lat": 14.6, "lon": 121.0333}}, {"facility": "1276.1.63008 Boehringer Ingelheim Investigational Site", "city": "Tarlac", "country": "Philippines"}, {"facility": "1276.1.70012 Boehringer Ingelheim Investigational Site", "city": "Barnaul", "country": "Russian Federation", "geoPoint": {"lat": 53.36056, "lon": 83.76361}}, {"facility": "1276.1.70011 Boehringer Ingelheim Investigational Site", "city": "Kemerovo", "country": "Russian Federation", "geoPoint": {"lat": 55.33333, "lon": 86.08333}}, {"facility": "1276.1.70015 Boehringer Ingelheim Investigational Site", "city": "Novosibirsk", "country": "Russian Federation", "geoPoint": {"lat": 55.0415, "lon": 82.9346}}, {"facility": "1276.1.70016 Boehringer Ingelheim Investigational Site", "city": "Novosibirsk", "country": "Russian Federation", "geoPoint": {"lat": 55.0415, "lon": 82.9346}}, {"facility": "1276.1.70018 Boehringer Ingelheim Investigational Site", "city": "Novosibirsk", "country": "Russian Federation", "geoPoint": {"lat": 55.0415, "lon": 82.9346}}, {"facility": "1276.1.70007 Boehringer Ingelheim Investigational Site", "city": "Petrozavodsk", "country": "Russian Federation", "geoPoint": {"lat": 61.78491, "lon": 34.34691}}, {"facility": "1276.1.70009 Boehringer Ingelheim Investigational Site", "city": "Saratov", "country": "Russian Federation", "geoPoint": {"lat": 51.54056, "lon": 46.00861}}, {"facility": "1276.1.70010 Boehringer Ingelheim Investigational Site", "city": "Smolensk", "country": "Russian Federation", "geoPoint": {"lat": 54.7818, "lon": 32.0401}}, {"facility": "1276.1.70005 Boehringer Ingelheim Investigational Site", "city": "St. Petersburg", "country": "Russian Federation", "geoPoint": {"lat": 59.93863, "lon": 30.31413}}, {"facility": "1276.1.70006 Boehringer Ingelheim Investigational Site", "city": "St. Petersburg", "country": "Russian Federation", "geoPoint": {"lat": 59.93863, "lon": 30.31413}}, {"facility": "1276.1.70017 Boehringer Ingelheim Investigational Site", "city": "St. Petersburg", "country": "Russian Federation", "geoPoint": {"lat": 59.93863, "lon": 30.31413}}, {"facility": "1276.1.70013 Boehringer Ingelheim Investigational Site", "city": "Yaroslavl", "country": "Russian Federation", "geoPoint": {"lat": 57.62987, "lon": 39.87368}}, {"facility": "1276.1.38104 Boehringer Ingelheim Investigational Site", "city": "Belgrade", "country": "Serbia", "geoPoint": {"lat": 44.80401, "lon": 20.46513}}, {"facility": "1276.1.38105 Boehringer Ingelheim Investigational Site", "city": "Belgrade", "country": "Serbia", "geoPoint": {"lat": 44.80401, "lon": 20.46513}}, {"facility": "1276.1.38106 Boehringer Ingelheim Investigational Site", "city": "Belgrade", "country": "Serbia", "geoPoint": {"lat": 44.80401, "lon": 20.46513}}, {"facility": "1276.1.38107 Boehringer Ingelheim Investigational Site", "city": "Belgrade", "country": "Serbia", "geoPoint": {"lat": 44.80401, "lon": 20.46513}}, {"facility": "1276.1.38103 Boehringer Ingelheim Investigational Site", "city": "Kragujevac", "country": "Serbia", "geoPoint": {"lat": 44.01667, "lon": 20.91667}}, {"facility": "1276.1.38101 Boehringer Ingelheim Investigational Site", "city": "Nis", "country": "Serbia", "geoPoint": {"lat": 43.32472, "lon": 21.90333}}, {"facility": "1276.1.38108 Boehringer Ingelheim Investigational Site", "city": "Novi Sad", "country": "Serbia", "geoPoint": {"lat": 45.25167, "lon": 19.83694}}, {"facility": "1276.1.38102 Boehringer Ingelheim Investigational Site", "city": "Zajecar", "country": "Serbia", "geoPoint": {"lat": 43.90358, "lon": 22.26405}}, {"facility": "1276.1.34048 Boehringer Ingelheim Investigational Site", "city": "Alicante", "country": "Spain", "geoPoint": {"lat": 38.34517, "lon": -0.48149}}, {"facility": "1276.1.34050 Boehringer Ingelheim Investigational Site", "city": "Alzira", "country": "Spain", "geoPoint": {"lat": 39.15, "lon": -0.43333}}, {"facility": "1276.1.34028 Boehringer Ingelheim Investigational Site", "city": "Madrid", "country": "Spain", "geoPoint": {"lat": 40.4165, "lon": -3.70256}}, {"facility": "1276.1.34045 Boehringer Ingelheim Investigational Site", "city": "pozuelo de Alarcon", "country": "Spain", "geoPoint": {"lat": 40.43293, "lon": -3.81338}}, {"facility": "1276.1.34034 Boehringer Ingelheim Investigational Site", "city": "Sabadell (Barcelona)", "country": "Spain"}, {"facility": "1276.1.34027 Boehringer Ingelheim Investigational Site", "city": "Salamanca", "country": "Spain", "geoPoint": {"lat": 40.96882, "lon": -5.66388}}, {"facility": "1276.1.34052 Boehringer Ingelheim Investigational Site", "city": "Tarragona", "country": "Spain", "geoPoint": {"lat": 41.11667, "lon": 1.25}}, {"facility": "1276.1.34051 Boehringer Ingelheim Investigational Site", "city": "Zaragoza", "country": "Spain", "geoPoint": {"lat": 41.65606, "lon": -0.87734}}, {"facility": "1276.1.88005 Boehringer Ingelheim Investigational Site", "city": "Kaohsiung City,", "country": "Taiwan", "geoPoint": {"lat": 22.61626, "lon": 120.31333}}, {"facility": "1276.1.88002 Boehringer Ingelheim Investigational Site", "city": "New Taipei City", "country": "Taiwan", "geoPoint": {"lat": 25.01111, "lon": 121.44583}}, {"facility": "1276.1.88001 Boehringer Ingelheim Investigational Site", "city": "Taichung", "country": "Taiwan", "geoPoint": {"lat": 24.1469, "lon": 120.6839}}, {"facility": "1276.1.88003 Boehringer Ingelheim Investigational Site", "city": "Taichung", "country": "Taiwan", "geoPoint": {"lat": 24.1469, "lon": 120.6839}}, {"facility": "1276.1.88004 Boehringer Ingelheim Investigational Site", "city": "Taichung", "country": "Taiwan", "geoPoint": {"lat": 24.1469, "lon": 120.6839}}, {"facility": "1276.1.88006 Boehringer Ingelheim Investigational Site", "city": "Taipei", "country": "Taiwan", "geoPoint": {"lat": 25.04776, "lon": 121.53185}}, {"facility": "1276.1.66001 Boehringer Ingelheim Investigational Site", "city": "Bangkok, Thailand", "country": "Thailand", "geoPoint": {"lat": 13.75398, "lon": 100.50144}}, {"facility": "1276.1.66003 Boehringer Ingelheim Investigational Site", "city": "Bangkok, Thailand", "country": "Thailand", "geoPoint": {"lat": 13.75398, "lon": 100.50144}}, {"facility": "1276.1.66002 Boehringer Ingelheim Investigational Site", "city": "Nakhon Ratchasima", "country": "Thailand", "geoPoint": {"lat": 14.97066, "lon": 102.10196}}, {"facility": "1276.1.90003 Boehringer Ingelheim Investigational Site", "city": "Ankara", "country": "Turkey", "geoPoint": {"lat": 39.91987, "lon": 32.85427}}, {"facility": "1276.1.90004 Boehringer Ingelheim Investigational Site", "city": "Antalya", "country": "Turkey", "geoPoint": {"lat": 36.90812, "lon": 30.69556}}, {"facility": "1276.1.90006 Boehringer Ingelheim Investigational Site", "city": "Denizli", "country": "Turkey", "geoPoint": {"lat": 37.77417, "lon": 29.0875}}, {"facility": "1276.1.90002 Boehringer Ingelheim Investigational Site", "city": "Erzurum", "country": "Turkey", "geoPoint": {"lat": 39.90861, "lon": 41.27694}}, {"facility": "1276.1.90005 Boehringer Ingelheim Investigational Site", "city": "Istanbul", "country": "Turkey", "geoPoint": {"lat": 41.01384, "lon": 28.94966}}, {"facility": "1276.1.90001 Boehringer Ingelheim Investigational Site", "city": "Izmir", "country": "Turkey", "geoPoint": {"lat": 38.41273, "lon": 27.13838}}, {"facility": "1276.1.44002 Boehringer Ingelheim Investigational Site", "city": "Bolton", "country": "United Kingdom", "geoPoint": {"lat": 53.58333, "lon": -2.43333}}, {"facility": "1276.1.44001 Boehringer Ingelheim Investigational Site", "city": "Bradford on Avon", "country": "United Kingdom", "geoPoint": {"lat": 51.34772, "lon": -2.25065}}, {"facility": "1276.1.44005 Boehringer Ingelheim Investigational Site", "city": "Chippenham", "country": "United Kingdom", "geoPoint": {"lat": 51.46, "lon": -2.12472}}, {"facility": "1276.1.44006 Boehringer Ingelheim Investigational Site", "city": "Dagenham", "country": "United Kingdom", "geoPoint": {"lat": 51.55, "lon": 0.16667}}, {"facility": "1276.1.44004 Boehringer Ingelheim Investigational Site", "city": "Doncaster", "country": "United Kingdom", "geoPoint": {"lat": 53.52285, "lon": -1.13116}}, {"facility": "1276.1.44008 Boehringer Ingelheim Investigational Site", "city": "Glasgow", "country": "United Kingdom", "geoPoint": {"lat": 55.86515, "lon": -4.25763}}, {"facility": "1276.1.44003 Boehringer Ingelheim Investigational Site", "city": "Leeds", "country": "United Kingdom", "geoPoint": {"lat": 53.79648, "lon": -1.54785}}, {"facility": "1276.1.44007 Boehringer Ingelheim Investigational Site", "city": "Manchester", "country": "United Kingdom", "geoPoint": {"lat": 53.48095, "lon": -2.23743}}, {"facility": "1276.1.44011 Boehringer Ingelheim Investigational Site", "city": "Mortimer", "country": "United Kingdom"}, {"facility": "1276.1.44009 Boehringer Ingelheim Investigational Site", "city": "Sandbach", "country": "United Kingdom", "geoPoint": {"lat": 53.14515, "lon": -2.36251}}]}, "referencesModule": {"references": [{"pmid": "27493136", "type": "DERIVED", "citation": "Hadjadj S, Rosenstock J, Meinicke T, Woerle HJ, Broedl UC. Initial Combination of Empagliflozin and Metformin in Patients With Type 2 Diabetes. Diabetes Care. 2016 Oct;39(10):1718-28. doi: 10.2337/dc16-0522. Epub 2016 Aug 4."}]}}, "resultsSection": {"participantFlowModule": {"preAssignmentDetails": "Patients with an (Glycosylated Haemoglobin) HbA1c \\>10.0% at screening and meeting all other inclusion criteria were initially directly included in an OL treatment group", "recruitmentDetails": "With the first global protocol amendment (13-Dec-2012), the HbA1c inclusion criterion changed and further enrolment in the open label (OL) group was stopped, but the patients already entered in the OL group could continue until the scheduled end of the study.", "groups": [{"id": "FG000", "title": "Empagliflozin 12.5 mg Bid+ Metformin 1000 mg Bid", "description": "Oral administration of Empagliflozin 12.5 mg and Metformin 1000 mg twice daily (bid)"}, {"id": "FG001", "title": "Empagliflozin 12.5 mg Bid+ Metformin 500 mg Bid", "description": "Oral administration of Empagliflozin 12.5 mg and Metformin 500 mg bid"}, {"id": "FG002", "title": "Empagliflozin 5 mg Bid + Metformin 1000 mg Bid", "description": "Oral administration of Empagliflozin 5 mg and Metformin 1000 mg bid"}, {"id": "FG003", "title": "Empagliflozin 5 mg Bid + Metformin 500 mg Bid", "description": "Oral administration of Empagliflozin 5 mg and Metformin 500 mg bid"}, {"id": "FG004", "title": "Empagliflozin 25 mg qd", "description": "Oral administration of Empagliflozin 25 mg once daily (qd)"}, {"id": "FG005", "title": "Empagliflozin 10 mg qd", "description": "Oral administration of Empagliflozin 10 mg qd"}, {"id": "FG006", "title": "Metformin 1000 mg Bid", "description": "Oral administration of Metformin 1000 mg bid"}, {"id": "FG007", "title": "Metformin 500 mg Bid", "description": "Oral administration of Metformin 500 mg bid"}, {"id": "FG008", "title": "Empagliflozin 12.5 mg Bid + Metformin 1000 mg Bid OL", "description": "Oral administration of Empagliflozin 12.5 mg and Metformin 1000 mg bid in an open label (OL)"}], "periods": [{"title": "Overall Study", "milestones": [{"type": "STARTED", "achievements": [{"groupId": "FG000", "numSubjects": "170"}, {"groupId": "FG001", "numSubjects": "170"}, {"groupId": "FG002", "numSubjects": "171"}, {"groupId": "FG003", "numSubjects": "169"}, {"groupId": "FG004", "numSubjects": "167"}, {"groupId": "FG005", "numSubjects": "172"}, {"groupId": "FG006", "numSubjects": "170"}, {"groupId": "FG007", "numSubjects": "171"}, {"groupId": "FG008", "numSubjects": "53"}]}, {"type": "COMPLETED", "achievements": [{"groupId": "FG000", "numSubjects": "161"}, {"groupId": "FG001", "numSubjects": "153"}, {"groupId": "FG002", "numSubjects": "154"}, {"groupId": "FG003", "numSubjects": "156"}, {"groupId": "FG004", "numSubjects": "150"}, {"groupId": "FG005", "numSubjects": "160"}, {"groupId": "FG006", "numSubjects": "150"}, {"groupId": "FG007", "numSubjects": "151"}, {"groupId": "FG008", "numSubjects": "49"}]}, {"type": "NOT COMPLETED", "achievements": [{"groupId": "FG000", "numSubjects": "9"}, {"groupId": "FG001", "numSubjects": "17"}, {"groupId": "FG002", "numSubjects": "17"}, {"groupId": "FG003", "numSubjects": "13"}, {"groupId": "FG004", "numSubjects": "17"}, {"groupId": "FG005", "numSubjects": "12"}, {"groupId": "FG006", "numSubjects": "20"}, {"groupId": "FG007", "numSubjects": "20"}, {"groupId": "FG008", "numSubjects": "4"}]}], "dropWithdraws": [{"type": "Non compliant with protocol", "reasons": [{"groupId": "FG000", "numSubjects": "1"}, {"groupId": "FG001", "numSubjects": "1"}, {"groupId": "FG002", "numSubjects": "0"}, {"groupId": "FG003", "numSubjects": "1"}, {"groupId": "FG004", "numSubjects": "2"}, {"groupId": "FG005", "numSubjects": "1"}, {"groupId": "FG006", "numSubjects": "2"}, {"groupId": "FG007", "numSubjects": "3"}, {"groupId": "FG008", "numSubjects": "0"}]}, {"type": "Adverse Event", "reasons": [{"groupId": "FG000", "numSubjects": "6"}, {"groupId": "FG001", "numSubjects": "5"}, {"groupId": "FG002", "numSubjects": "4"}, {"groupId": "FG003", "numSubjects": "3"}, {"groupId": "FG004", "numSubjects": "4"}, {"groupId": "FG005", "numSubjects": "3"}, {"groupId": "FG006", "numSubjects": "6"}, {"groupId": "FG007", "numSubjects": "5"}, {"groupId": "FG008", "numSubjects": "0"}]}, {"type": "Lost to Follow-up", "reasons": [{"groupId": "FG000", "numSubjects": "0"}, {"groupId": "FG001", "numSubjects": "6"}, {"groupId": "FG002", "numSubjects": "7"}, {"groupId": "FG003", "numSubjects": "2"}, {"groupId": "FG004", "numSubjects": "3"}, {"groupId": "FG005", "numSubjects": "4"}, {"groupId": "FG006", "numSubjects": "3"}, {"groupId": "FG007", "numSubjects": "2"}, {"groupId": "FG008", "numSubjects": "2"}]}, {"type": "Refusal to continue, not due to AE", "reasons": [{"groupId": "FG000", "numSubjects": "2"}, {"groupId": "FG001", "numSubjects": "5"}, {"groupId": "FG002", "numSubjects": "4"}, {"groupId": "FG003", "numSubjects": "4"}, {"groupId": "FG004", "numSubjects": "4"}, {"groupId": "FG005", "numSubjects": "3"}, {"groupId": "FG006", "numSubjects": "8"}, {"groupId": "FG007", "numSubjects": "7"}, {"groupId": "FG008", "numSubjects": "1"}]}, {"type": "Reason other than those specified", "reasons": [{"groupId": "FG000", "numSubjects": "0"}, {"groupId": "FG001", "numSubjects": "0"}, {"groupId": "FG002", "numSubjects": "2"}, {"groupId": "FG003", "numSubjects": "3"}, {"groupId": "FG004", "numSubjects": "4"}, {"groupId": "FG005", "numSubjects": "1"}, {"groupId": "FG006", "numSubjects": "0"}, {"groupId": "FG007", "numSubjects": "3"}, {"groupId": "FG008", "numSubjects": "1"}]}, {"type": "Lack of Efficacy", "reasons": [{"groupId": "FG000", "numSubjects": "0"}, {"groupId": "FG001", "numSubjects": "0"}, {"groupId": "FG002", "numSubjects": "0"}, {"groupId": "FG003", "numSubjects": "0"}, {"groupId": "FG004", "numSubjects": "0"}, {"groupId": "FG005", "numSubjects": "0"}, {"groupId": "FG006", "numSubjects": "1"}, {"groupId": "FG007", "numSubjects": "0"}, {"groupId": "FG008", "numSubjects": "0"}]}]}]}, "baselineCharacteristicsModule": {"populationDescription": "Full analysis set (FAS): FAS comprised all randomised patients treated with at least 1 dose of trial medication, with a baseline and at least 1 on-treatment HbA1c assessment.", "groups": [{"id": "BG000", "title": "Empagliflozin 12.5 mg Bid+ Metformin 1000 mg Bid", "description": "Oral administration of Empagliflozin 12.5 mg and Metformin 1000 mg twice daily (bid)"}, {"id": "BG001", "title": "Empagliflozin 12.5 mg Bid+ Metformin 500 mg Bid", "description": "Oral administration of Empagliflozin 12.5 mg and Metformin 500 mg bid"}, {"id": "BG002", "title": "Empagliflozin 5 mg Bid + Metformin 1000 mg Bid", "description": "Oral administration of Empagliflozin 5 mg and Metformin 1000 mg bid"}, {"id": "BG003", "title": "Empagliflozin 5 mg Bid + Metformin 500 mg Bid", "description": "Oral administration of Empagliflozin 5 mg and Metformin 500 mg bid"}, {"id": "BG004", "title": "Empagliflozin 25 mg qd", "description": "Oral administration of Empagliflozin 25 mg once daily (qd)"}, {"id": "BG005", "title": "Empagliflozin 10 mg qd", "description": "Oral administration of Empagliflozin 10 mg qd"}, {"id": "BG006", "title": "Metformin 1000 mg Bid", "description": "Oral administration of Metformin 1000 mg bid"}, {"id": "BG007", "title": "Metformin 500 mg Bid", "description": "Oral administration of Metformin 500 mg bid"}, {"id": "BG008", "title": "Total", "description": "Total of all reporting groups"}], "denoms": [{"units": "Participants", "counts": [{"groupId": "BG000", "value": "169"}, {"groupId": "BG001", "value": "165"}, {"groupId": "BG002", "value": "167"}, {"groupId": "BG003", "value": "161"}, {"groupId": "BG004", "value": "164"}, {"groupId": "BG005", "value": "169"}, {"groupId": "BG006", "value": "164"}, {"groupId": "BG007", "value": "168"}, {"groupId": "BG008", "value": "1327"}]}], "measures": [{"title": "Age, Continuous", "paramType": "MEAN", "dispersionType": "STANDARD_DEVIATION", "unitOfMeasure": "years", "classes": [{"categories": [{"measurements": [{"groupId": "BG000", "value": "53.6", "spread": "10.7"}, {"groupId": "BG001", "value": "51.0", "spread": "10.7"}, {"groupId": "BG002", "value": "52.3", "spread": "11.3"}, {"groupId": "BG003", "value": "52.2", "spread": "11.7"}, {"groupId": "BG004", "value": "53.3", "spread": "10.7"}, {"groupId": "BG005", "value": "53.1", "spread": "10.7"}, {"groupId": "BG006", "value": "51.6", "spread": "10.8"}, {"groupId": "BG007", "value": "53.4", "spread": "10.9"}, {"groupId": "BG008", "value": "52.6", "spread": "10.9"}]}]}]}, {"title": "Sex: Female, Male", "paramType": "COUNT_OF_PARTICIPANTS", "unitOfMeasure": "Participants", "classes": [{"categories": [{"title": "Female", "measurements": [{"groupId": "BG000", "value": "81"}, {"groupId": "BG001", "value": "60"}, {"groupId": "BG002", "value": "68"}, {"groupId": "BG003", "value": "64"}, {"groupId": "BG004", "value": "81"}, {"groupId": "BG005", "value": "72"}, {"groupId": "BG006", "value": "72"}, {"groupId": "BG007", "value": "82"}, {"groupId": "BG008", "value": "580"}]}, {"title": "Male", "measurements": [{"groupId": "BG000", "value": "88"}, {"groupId": "BG001", "value": "105"}, {"groupId": "BG002", "value": "99"}, {"groupId": "BG003", "value": "97"}, {"groupId": "BG004", "value": "83"}, {"groupId": "BG005", "value": "97"}, {"groupId": "BG006", "value": "92"}, {"groupId": "BG007", "value": "86"}, {"groupId": "BG008", "value": "747"}]}]}]}]}, "outcomeMeasuresModule": {"outcomeMeasures": [{"type": "PRIMARY", "title": "HbA1c (Glycosylated Haemoglobin) Change From Baseline at Week 24", "description": "Change from baseline in HbA1c (%) after 24 weeks of treatment. \"Baseline\" refers to the last observation before the start of any randomised trial treatment medication. Means presented are the adjusted means", "populationDescription": "FAS observed cases (OC) (Only patients with available data are analysed)", "reportingStatus": "POSTED", "paramType": "MEAN", "dispersionType": "Standard Error", "unitOfMeasure": "percentage of HbA1c", "timeFrame": "baseline and 24 weeks", "groups": [{"id": "OG000", "title": "Empagliflozin 12.5 mg Bid+ Metformin 1000 mg Bid", "description": "Oral administration of Empagliflozin 12.5 mg and Metformin 1000 mg twice daily (bid)"}, {"id": "OG001", "title": "Empagliflozin 12.5 mg Bid+ Metformin 500 mg Bid", "description": "Oral administration of Empagliflozin 12.5 mg and Metformin 500 mg bid"}, {"id": "OG002", "title": "Empagliflozin 5 mg Bid + Metformin 1000 mg Bid", "description": "Oral administration of Empagliflozin 5 mg and Metformin 1000 mg bid"}, {"id": "OG003", "title": "Empagliflozin 5 mg Bid + Metformin 500 mg Bid", "description": "Oral administration of Empagliflozin 5 mg and Metformin 500 mg bid"}, {"id": "OG004", "title": "Empagliflozin 25 mg qd", "description": "Oral administration of Empagliflozin 25 mg once daily (qd)"}, {"id": "OG005", "title": "Empagliflozin 10 mg qd", "description": "Oral administration of Empagliflozin 10 mg qd"}, {"id": "OG006", "title": "Metformin 1000 mg Bid", "description": "Oral administration of Metformin 1000 mg bid"}, {"id": "OG007", "title": "Metformin 500 mg Bid", "description": "Oral administration of Metformin 500 mg bid"}], "denoms": [{"units": "Participants", "counts": [{"groupId": "OG000", "value": "159"}, {"groupId": "OG001", "value": "149"}, {"groupId": "OG002", "value": "151"}, {"groupId": "OG003", "value": "153"}, {"groupId": "OG004", "value": "143"}, {"groupId": "OG005", "value": "156"}, {"groupId": "OG006", "value": "146"}, {"groupId": "OG007", "value": "142"}]}], "classes": [{"categories": [{"measurements": [{"groupId": "OG000", "value": "-2.08", "spread": "0.08"}, {"groupId": "OG001", "value": "-1.93", "spread": "0.08"}, {"groupId": "OG002", "value": "-2.07", "spread": "0.08"}, {"groupId": "OG003", "value": "-1.98", "spread": "0.08"}, {"groupId": "OG004", "value": "-1.36", "spread": "0.08"}, {"groupId": "OG005", "value": "-1.35", "spread": "0.08"}, {"groupId": "OG006", "value": "-1.75", "spread": "0.09"}, {"groupId": "OG007", "value": "-1.18", "spread": "0.08"}]}]}], "analyses": [{"groupIds": ["OG000", "OG006"], "groupDescription": "Restricted maximum likelihood (REML)-based mixed model repeated measures (MMRM) approach comparing the change from baseline of HbA1c (in units of %) after 24 weeks of double-blind treatment.", "testedNonInferiority": false, "nonInferiorityType": "SUPERIORITY_OR_OTHER", "pValue": "0.0056", "statisticalMethod": "Mixed Models Analysis", "statisticalComment": "'Baseline HbA1c':linear covariate;'treatment','baseline renal function','region','visit' \\& 'visit by treatment interaction':fixed effects.", "paramType": "Adjusted mean", "paramValue": "-0.33", "ciPctValue": "95", "ciNumSides": "TWO_SIDED", "ciLowerLimit": "-0.56", "ciUpperLimit": "-0.10", "dispersionType": "STANDARD_ERROR_OF_MEAN", "dispersionValue": "0.12", "estimateComment": "Empagliflozin 12.5 mg bid+ Metformin 1000 mg bid minus Metformin 1000 mg bid"}, {"groupIds": ["OG000", "OG004"], "groupDescription": "Restricted maximum likelihood (REML)-based mixed model repeated measures (MMRM) approach comparing the change from baseline of HbA1c (in units of %) after 24 weeks of double-blind treatment.", "testedNonInferiority": false, "nonInferiorityType": "SUPERIORITY_OR_OTHER", "pValue": "<0.0001", "statisticalMethod": "Mixed Models Analysis", "statisticalComment": "'Baseline HbA1c':linear covariate;'treatment','baseline renal function','region','visit' \\& 'visit by treatment interaction':fixed effects.", "paramType": "Adjusted mean", "paramValue": "-0.72", "ciPctValue": "95", "ciNumSides": "TWO_SIDED", "ciLowerLimit": "-0.95", "ciUpperLimit": "-0.48", "dispersionType": "STANDARD_ERROR_OF_MEAN", "dispersionValue": "0.12", "estimateComment": "Empagliflozin 12.5 mg bid+ Metformin 1000 mg bid minus Empagliflozin 25 mg qd"}, {"groupIds": ["OG001", "OG007"], "groupDescription": "Restricted maximum likelihood (REML)-based mixed model repeated measures (MMRM) approach comparing the change from baseline of HbA1c (in units of %) after 24 weeks of double-blind treatment.", "testedNonInferiority": false, "nonInferiorityType": "SUPERIORITY_OR_OTHER", "pValue": "<0.0001", "statisticalMethod": "Mixed Models Analysis", "statisticalComment": "'Baseline HbA1c':linear covariate;'treatment','baseline renal function','region','visit' \\& 'visit by treatment interaction':fixed effects.", "paramType": "Adjusted Mean", "paramValue": "-0.75", "ciPctValue": "95", "ciNumSides": "TWO_SIDED", "ciLowerLimit": "-0.98", "ciUpperLimit": "-0.51", "dispersionType": "STANDARD_ERROR_OF_MEAN", "dispersionValue": "0.12", "estimateComment": "Empagliflozin 12.5 mg bid+ Metformin 500 mg bid minus Metformin 500 mg bid"}, {"groupIds": ["OG001", "OG004"], "groupDescription": "Restricted maximum likelihood (REML)-based mixed model repeated measures (MMRM) approach comparing the change from baseline of HbA1c (in units of %) after 24 weeks of double-blind treatment.", "testedNonInferiority": false, "nonInferiorityType": "SUPERIORITY_OR_OTHER", "pValue": "<0.0001", "statisticalMethod": "Mixed Models Analysis", "statisticalComment": "'Baseline HbA1c':linear covariate;'treatment','baseline renal function','region','visit' \\& 'visit by treatment interaction':fixed effects.", "paramType": "Adjusted mean", "paramValue": "-0.57", "ciPctValue": "95", "ciNumSides": "TWO_SIDED", "ciLowerLimit": "-0.81", "ciUpperLimit": "-0.34", "dispersionType": "STANDARD_ERROR_OF_MEAN", "dispersionValue": "0.12", "estimateComment": "Empagliflozin 12.5 mg bid+ Metformin 500 mg bid minus Empagliflozin 25 mg qd"}, {"groupIds": ["OG002", "OG006"], "groupDescription": "Restricted maximum likelihood (REML)-based mixed model repeated measures (MMRM) approach comparing the change from baseline of HbA1c (in units of %) after 24 weeks of double-blind treatment", "testedNonInferiority": false, "nonInferiorityType": "SUPERIORITY_OR_OTHER", "pValue": "0.0062", "statisticalMethod": "Mixed Models Analysis", "statisticalComment": "'Baseline HbA1c':linear covariate;'treatment','baseline renal function','region','visit' \\& 'visit by treatment interaction':fixed effects.", "paramType": "Adjusted mean", "paramValue": "-0.33", "ciPctValue": "95", "ciNumSides": "TWO_SIDED", "ciLowerLimit": "-0.56", "ciUpperLimit": "-0.09", "dispersionType": "STANDARD_ERROR_OF_MEAN", "dispersionValue": "0.12", "estimateComment": "Empagliflozin 5 mg bid + Metformin 1000 mg bid minus Metformin 1000 mg bid"}, {"groupIds": ["OG002", "OG005"], "groupDescription": "Restricted maximum likelihood (REML)-based mixed model repeated measures (MMRM) approach comparing the change from baseline of HbA1c (in units of %) after 24 weeks of double-blind treatment.", "testedNonInferiority": false, "nonInferiorityType": "SUPERIORITY_OR_OTHER", "pValue": "<0.0001", "statisticalMethod": "Mixed Models Analysis", "statisticalComment": "'Baseline HbA1c':linear covariate;'treatment','baseline renal function','region','visit' \\& 'visit by treatment interaction':fixed effects.", "paramType": "Adjusted Mean", "paramValue": "-0.72", "ciPctValue": "95", "ciNumSides": "TWO_SIDED", "ciLowerLimit": "-0.95", "ciUpperLimit": "-0.49", "dispersionType": "STANDARD_ERROR_OF_MEAN", "dispersionValue": "0.12", "estimateComment": "Empagliflozin 5 mg bid + Metformin 1000 mg bid minus Empagliflozin 10 mg qd"}, {"groupIds": ["OG003", "OG007"], "groupDescription": "Restricted maximum likelihood (REML)-based mixed model repeated measures (MMRM) approach comparing the change from baseline of HbA1c (in units of %) after 24 weeks of double-blind treatment.", "testedNonInferiority": false, "nonInferiorityType": "SUPERIORITY_OR_OTHER", "pValue": "<0.0001", "statisticalMethod": "Mixed Models Analysis", "statisticalComment": "'Baseline HbA1c':linear covariate;'treatment','baseline renal function','region','visit' \\& 'visit by treatment interaction':fixed effects.", "paramType": "Adjusted Mean", "paramValue": "-0.79", "ciPctValue": "95", "ciNumSides": "TWO_SIDED", "ciLowerLimit": "-1.03", "ciUpperLimit": "-0.56", "dispersionType": "STANDARD_ERROR_OF_MEAN", "dispersionValue": "0.12", "estimateComment": "Empagliflozin 5 mg bid + Metformin 500 mg bid minus Metformin 500 mg bid"}, {"groupIds": ["OG003", "OG005"], "groupDescription": "Restricted maximum likelihood (REML)-based mixed model repeated measures (MMRM) approach comparing the change from baseline of HbA1c (in units of %) after 24 weeks of double-blind treatment.", "testedNonInferiority": false, "nonInferiorityType": "SUPERIORITY_OR_OTHER", "pValue": "<0.0001", "statisticalMethod": "Mixed Models Analysis", "statisticalComment": "'Baseline HbA1c':linear covariate;'treatment','baseline renal function','region','visit' \\& 'visit by treatment interaction':fixed effects.", "paramType": "Adjusted mean", "paramValue": "-0.63", "ciPctValue": "95", "ciNumSides": "TWO_SIDED", "ciLowerLimit": "-0.86", "ciUpperLimit": "-0.40", "dispersionType": "STANDARD_ERROR_OF_MEAN", "dispersionValue": "0.12", "estimateComment": "Empagliflozin 5 mg bid + Metformin 500 mg bid minus Empagliflozin 10 mg qd"}, {"groupIds": ["OG004", "OG006"], "groupDescription": "Restricted maximum likelihood (REML)-based mixed model repeated measures (MMRM) approach comparing the change from baseline of HbA1c (in units of %) after 24 weeks of double-blind treatment.", "testedNonInferiority": true, "nonInferiorityType": "NON_INFERIORITY_OR_EQUIVALENCE", "nonInferiorityComment": "The noninferiority of empagliflozin 10 mg qd against metformin 1000 mg bid were to be tested for HbA1c change from baseline to Week 24 at the level of \u03b1=0.025 (one-sided), through application of a non-inferiority margin of 0.35%.", "pValue": "0.6246", "statisticalMethod": "Mixed Models Analysis", "statisticalComment": "'Baseline HbA1c':linear covariate;'treatment','baseline renal function','region','visit' \\& 'visit by treatment interaction':fixed effects.", "paramType": "Adjusted mean", "paramValue": "0.39", "ciPctValue": "95", "ciNumSides": "TWO_SIDED", "ciLowerLimit": "0.15", "ciUpperLimit": "0.62", "dispersionType": "STANDARD_ERROR_OF_MEAN", "dispersionValue": "0.12", "estimateComment": "Empagliflozin 25 mg qd minus Metformin 1000 mg bid"}, {"groupIds": ["OG005", "OG006"], "groupDescription": "Restricted maximum likelihood (REML)-based mixed model repeated measures (MMRM) approach comparing the change from baseline of HbA1c (in units of %) after 24 weeks of double-blind treatment.", "testedNonInferiority": true, "nonInferiorityType": "NON_INFERIORITY_OR_EQUIVALENCE", "nonInferiorityComment": "The noninferiority of empagliflozin 10 mg qd against metformin 1000 mg bid were to be tested for HbA1c change from baseline to Week 24 at the level of \u03b1=0.025 (one-sided), through application of a non-inferiority margin of 0.35%.", "pValue": "0.6558", "statisticalMethod": "Mixed Models Analysis", "statisticalComment": "'Baseline HbA1c':linear covariate;'treatment','baseline renal function','region','visit' \\& 'visit by treatment interaction':fixed effects.", "paramType": "Adjusted mean", "paramValue": "0.40", "ciPctValue": "95", "ciNumSides": "TWO_SIDED", "ciLowerLimit": "0.16", "ciUpperLimit": "0.63", "dispersionType": "STANDARD_ERROR_OF_MEAN", "dispersionValue": "0.12", "estimateComment": "Empagliflozin 10 mg qd minus Metformin 1000 mg bid"}]}, {"type": "SECONDARY", "title": "FPG (Fasting Plasma Glucose) Change From Baseline at Week 24", "description": "Change from baseline in FPG (mg/dL) after 24 weeks of treatment. \"Baseline\" refers to the last observation before the start of any randomised trial treatment medication. Means presented are the adjusted means.", "populationDescription": "FAS observed cases (OC) (Only patients with available data are analysed)", "reportingStatus": "POSTED", "paramType": "MEAN", "dispersionType": "Standard Error", "unitOfMeasure": "mg/dL", "timeFrame": "baseline and 24 weeks", "groups": [{"id": "OG000", "title": "Empagliflozin 12.5 mg Bid+ Metformin 1000 mg Bid", "description": "Oral administration of Empagliflozin 12.5 mg and Metformin 1000 mg twice daily (bid)"}, {"id": "OG001", "title": "Empagliflozin 12.5 mg Bid+ Metformin 500 mg Bid", "description": "Oral administration of Empagliflozin 12.5 mg and Metformin 500 mg bid"}, {"id": "OG002", "title": "Empagliflozin 5 mg Bid + Metformin 1000 mg Bid", "description": "Oral administration of Empagliflozin 5 mg and Metformin 1000 mg bid"}, {"id": "OG003", "title": "Empagliflozin 5 mg Bid + Metformin 500 mg Bid", "description": "Oral administration of Empagliflozin 5 mg and Metformin 500 mg bid"}, {"id": "OG004", "title": "Empagliflozin 25 mg qd", "description": "Oral administration of Empagliflozin 25 mg once daily (qd)"}, {"id": "OG005", "title": "Empagliflozin 10 mg qd", "description": "Oral administration of Empagliflozin 10 mg qd"}, {"id": "OG006", "title": "Metformin 1000 mg Bid", "description": "Oral administration of Metformin 1000 mg bid"}, {"id": "OG007", "title": "Metformin 500 mg Bid", "description": "Oral administration of Metformin 500 mg bid"}], "denoms": [{"units": "Participants", "counts": [{"groupId": "OG000", "value": "158"}, {"groupId": "OG001", "value": "146"}, {"groupId": "OG002", "value": "146"}, {"groupId": "OG003", "value": "153"}, {"groupId": "OG004", "value": "139"}, {"groupId": "OG005", "value": "154"}, {"groupId": "OG006", "value": "145"}, {"groupId": "OG007", "value": "139"}]}], "classes": [{"categories": [{"measurements": [{"groupId": "OG000", "value": "-51.0", "spread": "2.4"}, {"groupId": "OG001", "value": "-44.0", "spread": "2.4"}, {"groupId": "OG002", "value": "-47.8", "spread": "2.4"}, {"groupId": "OG003", "value": "-45.5", "spread": "2.4"}, {"groupId": "OG004", "value": "-28.0", "spread": "2.5"}, {"groupId": "OG005", "value": "-32.9", "spread": "2.4"}, {"groupId": "OG006", "value": "-32.1", "spread": "2.4"}, {"groupId": "OG007", "value": "-17.2", "spread": "2.5"}]}]}], "analyses": [{"groupIds": ["OG000", "OG006"], "groupDescription": "Restricted maximum likelihood (REML)-based mixed model repeated measures (MMRM) approach comparing the change from baseline of FPG after 24 weeks of double-blind treatment.", "testedNonInferiority": false, "nonInferiorityType": "SUPERIORITY_OR_OTHER", "pValue": "<0.0001", "pValueComment": "Since previous step in the hierarchical testing failed (primary measure analyses 9 and 10), the analyses for secondary measures of FPG and body weight are considered exploratory and not confirmatory", "statisticalMethod": "Mixed Models Analysis", "statisticalComment": "'Baseline HbA1c':linear covariate;'treatment','baseline renal function','region','visit' \\& 'visit by treatment interaction':fixed effects.", "paramType": "Adjusted mean", "paramValue": "-18.8", "ciPctValue": "95", "ciNumSides": "TWO_SIDED", "ciLowerLimit": "-25.5", "ciUpperLimit": "-12.2", "dispersionType": "STANDARD_ERROR_OF_MEAN", "dispersionValue": "3.4", "estimateComment": "Empagliflozin 12.5 mg bid+ Metformin 1000 mg bid minus Metformin 1000 mg bid"}, {"groupIds": ["OG000", "OG004"], "groupDescription": "Restricted maximum likelihood (REML)-based mixed model repeated measures (MMRM) approach comparing the change from baseline of FPG after 24 weeks of double-blind treatment.", "testedNonInferiority": false, "nonInferiorityType": "SUPERIORITY_OR_OTHER", "pValue": "<0.0001", "pValueComment": "Since previous step in the hierarchical testing failed (primary measure analyses 9 and 10), the analyses for secondary measures of FPG and body weight are considered exploratory and not confirmatory", "statisticalMethod": "Mixed Models Analysis", "statisticalComment": "'Baseline HbA1c':linear covariate;'treatment','baseline renal function','region','visit' \\& 'visit by treatment interaction':fixed effects.", "paramType": "Adjusted mean", "paramValue": "-23.0", "ciPctValue": "95", "ciNumSides": "TWO_SIDED", "ciLowerLimit": "-29.7", "ciUpperLimit": "-16.3", "dispersionType": "STANDARD_ERROR_OF_MEAN", "dispersionValue": "3.4", "estimateComment": "Empagliflozin 12.5 mg bid+ Metformin 1000 mg bid minus Empagliflozin 25 mg qd"}, {"groupIds": ["OG001", "OG007"], "groupDescription": "Restricted maximum likelihood (REML)-based mixed model repeated measures (MMRM) approach comparing the change from baseline of FPG after 24 weeks of double-blind treatment.", "testedNonInferiority": false, "nonInferiorityType": "SUPERIORITY_OR_OTHER", "pValue": "<0.0001", "pValueComment": "Since previous step in the hierarchical testing failed (primary measure analyses 9 and 10), the analyses for secondary measures of FPG and body weight are considered exploratory and not confirmatory", "statisticalMethod": "Mixed Models Analysis", "statisticalComment": "'Baseline HbA1c':linear covariate;'treatment','baseline renal function','region','visit' \\& 'visit by treatment interaction':fixed effects.", "paramType": "Adjusted Mean", "paramValue": "-26.7", "ciPctValue": "95", "ciNumSides": "TWO_SIDED", "ciLowerLimit": "-33.5", "ciUpperLimit": "-20.0", "dispersionType": "STANDARD_ERROR_OF_MEAN", "dispersionValue": "3.4", "estimateComment": "Empagliflozin 12.5 mg bid+ Metformin 500 mg bid minus Metformin 500 mg bid"}, {"groupIds": ["OG001", "OG004"], "groupDescription": "Restricted maximum likelihood (REML)-based mixed model repeated measures (MMRM) approach comparing the change from baseline of FPG after 24 weeks of double-blind treatment.", "testedNonInferiority": false, "nonInferiorityType": "SUPERIORITY_OR_OTHER", "pValue": "<0.0001", "pValueComment": "Since previous step in the hierarchical testing failed (primary measure analyses 9 and 10), the analyses for secondary measures of FPG and body weight are considered exploratory and not confirmatory", "statisticalMethod": "Mixed Models Analysis", "statisticalComment": "'Baseline HbA1c':linear covariate;'treatment','baseline renal function','region','visit' \\& 'visit by treatment interaction':fixed effects.", "paramType": "Adjusted mean", "paramValue": "-16.0", "ciPctValue": "95", "ciNumSides": "TWO_SIDED", "ciLowerLimit": "-22.8", "ciUpperLimit": "-9.2", "dispersionType": "STANDARD_ERROR_OF_MEAN", "dispersionValue": "3.4", "estimateComment": "Empagliflozin 12.5 mg bid+ Metformin 500 mg bid minus Empagliflozin 25 mg qd"}, {"groupIds": ["OG002", "OG006"], "groupDescription": "Restricted maximum likelihood (REML)-based mixed model repeated measures (MMRM) approach comparing the change from baseline of FPG of double-blind treatment", "testedNonInferiority": false, "nonInferiorityType": "SUPERIORITY_OR_OTHER", "pValue": "<0.0001", "pValueComment": "Since previous step in the hierarchical testing failed (primary measure analyses 9 and 10), the analyses for secondary measures of FPG and body weight are considered exploratory and not confirmatory", "statisticalMethod": "Mixed Models Analysis", "statisticalComment": "'Baseline HbA1c':linear covariate;'treatment','baseline renal function','region','visit' \\& 'visit by treatment interaction':fixed effects.", "paramType": "Adjusted mean", "paramValue": "-15.6", "ciPctValue": "95", "ciNumSides": "TWO_SIDED", "ciLowerLimit": "-22.3", "ciUpperLimit": "-8.9", "dispersionType": "STANDARD_ERROR_OF_MEAN", "dispersionValue": "3.4", "estimateComment": "Empagliflozin 5 mg bid + Metformin 1000 mg bid minus Metformin 1000 mg bid"}, {"groupIds": ["OG002", "OG005"], "groupDescription": "Restricted maximum likelihood (REML)-based mixed model repeated measures (MMRM) approach comparing the change from baseline of FPG after 24 weeks of double-blind treatment.", "testedNonInferiority": false, "nonInferiorityType": "SUPERIORITY_OR_OTHER", "pValue": "<0.0001", "pValueComment": "Since previous step in the hierarchical testing failed (primary measure analyses 9 and 10), the analyses for secondary measures of FPG and body weight are considered exploratory and not confirmatory", "statisticalMethod": "Mixed Models Analysis", "statisticalComment": "'Baseline HbA1c':linear covariate;'treatment','baseline renal function','region','visit' \\& 'visit by treatment interaction':fixed effects.", "paramType": "Adjusted Mean", "paramValue": "-14.8", "ciPctValue": "95", "ciNumSides": "TWO_SIDED", "ciLowerLimit": "-21.4", "ciUpperLimit": "-8.2", "dispersionType": "STANDARD_ERROR_OF_MEAN", "dispersionValue": "3.4", "estimateComment": "Empagliflozin 5 mg bid + Metformin 1000 mg bid minus Empagliflozin 10 mg qd"}, {"groupIds": ["OG003", "OG007"], "groupDescription": "Restricted maximum likelihood (REML)-based mixed model repeated measures (MMRM) approach comparing the change from baseline of FPG after 24 weeks of double-blind treatment.", "testedNonInferiority": false, "nonInferiorityType": "SUPERIORITY_OR_OTHER", "pValue": "<0.0001", "pValueComment": "Since previous step in the hierarchical testing failed (primary measure analyses 9 and 10), the analyses for secondary measures of FPG and body weight are considered exploratory and not confirmatory", "statisticalMethod": "Mixed Models Analysis", "statisticalComment": "'Baseline HbA1c':linear covariate;'treatment','baseline renal function','region','visit' \\& 'visit by treatment interaction':fixed effects.", "paramType": "Adjusted Mean", "paramValue": "-28.2", "ciPctValue": "95", "ciNumSides": "TWO_SIDED", "ciLowerLimit": "-35.0", "ciUpperLimit": "-21.5", "dispersionType": "STANDARD_ERROR_OF_MEAN", "dispersionValue": "3.4", "estimateComment": "Empagliflozin 5 mg bid + Metformin 500 mg bid minus Metformin 500 mg bid"}, {"groupIds": ["OG003", "OG005"], "groupDescription": "Restricted maximum likelihood (REML)-based mixed model repeated measures (MMRM) approach comparing the change from baseline of FPG after 24 weeks of double-blind treatment.", "testedNonInferiority": false, "nonInferiorityType": "SUPERIORITY_OR_OTHER", "pValue": "0.0002", "pValueComment": "Since previous step in the hierarchical testing failed (primary measure analyses 9 and 10), the analyses for secondary measures of FPG and body weight are considered exploratory and not confirmatory", "statisticalMethod": "Mixed Models Analysis", "statisticalComment": "'Baseline HbA1c':linear covariate;'treatment','baseline renal function','region','visit' \\& 'visit by treatment interaction':fixed effects.", "paramType": "Adjusted mean", "paramValue": "-12.6", "ciPctValue": "95", "ciNumSides": "TWO_SIDED", "ciLowerLimit": "-19.1", "ciUpperLimit": "-6.0", "dispersionType": "STANDARD_ERROR_OF_MEAN", "dispersionValue": "3.4", "estimateComment": "Empagliflozin 5 mg bid + Metformin 500 mg bid minus Empagliflozin 10 mg qd"}]}, {"type": "SECONDARY", "title": "Body Weight Change From Baseline at Week 24", "description": "Change from baseline in body weight (kg) after 24 weeks of treatment. \"Baseline\" refers to the last observation before the start of any randomised trial treatment. medication. Means presented are the adjusted means.", "populationDescription": "FAS observed cases (OC) (Only patients with available data are analysed)", "reportingStatus": "POSTED", "paramType": "MEAN", "dispersionType": "Standard Error", "unitOfMeasure": "kg", "timeFrame": "baseline and 24 weeks", "groups": [{"id": "OG000", "title": "Empagliflozin 12.5 mg Bid+ Metformin 1000 mg Bid", "description": "Oral administration of Empagliflozin 12.5 mg and Metformin 1000 mg twice daily (bid)"}, {"id": "OG001", "title": "Empagliflozin 12.5 mg Bid+ Metformin 500 mg Bid", "description": "Oral administration of Empagliflozin 12.5 mg and Metformin 500 mg bid"}, {"id": "OG002", "title": "Empagliflozin 5 mg Bid + Metformin 1000 mg Bid", "description": "Oral administration of Empagliflozin 5 mg and Metformin 1000 mg bid"}, {"id": "OG003", "title": "Empagliflozin 5 mg Bid + Metformin 500 mg Bid", "description": "Oral administration of Empagliflozin 5 mg and Metformin 500 mg bid"}, {"id": "OG004", "title": "Empagliflozin 25 mg qd", "description": "Oral administration of Empagliflozin 25 mg once daily (qd)"}, {"id": "OG005", "title": "Empagliflozin 10 mg qd", "description": "Oral administration of Empagliflozin 10 mg qd"}, {"id": "OG006", "title": "Metformin 1000 mg Bid", "description": "Oral administration of Metformin 1000 mg bid"}, {"id": "OG007", "title": "Metformin 500 mg Bid", "description": "Oral administration of Metformin 500 mg bid"}], "denoms": [{"units": "Participants", "counts": [{"groupId": "OG000", "value": "160"}, {"groupId": "OG001", "value": "149"}, {"groupId": "OG002", "value": "150"}, {"groupId": "OG003", "value": "155"}, {"groupId": "OG004", "value": "143"}, {"groupId": "OG005", "value": "155"}, {"groupId": "OG006", "value": "148"}, {"groupId": "OG007", "value": "140"}]}], "classes": [{"categories": [{"measurements": [{"groupId": "OG000", "value": "-3.78", "spread": "0.29"}, {"groupId": "OG001", "value": "-3.04", "spread": "0.30"}, {"groupId": "OG002", "value": "-3.48", "spread": "0.30"}, {"groupId": "OG003", "value": "-2.77", "spread": "0.30"}, {"groupId": "OG004", "value": "-2.38", "spread": "0.30"}, {"groupId": "OG005", "value": "-2.39", "spread": "0.29"}, {"groupId": "OG006", "value": "-1.27", "spread": "0.30"}, {"groupId": "OG007", "value": "-0.52", "spread": "0.30"}]}]}], "analyses": [{"groupIds": ["OG000", "OG006"], "groupDescription": "Restricted maximum likelihood (REML)-based mixed model repeated measures (MMRM) approach comparing the change from baseline of body weight after 24 weeks of double-blind treatment.", "testedNonInferiority": false, "nonInferiorityType": "SUPERIORITY_OR_OTHER", "pValue": "<0.0001", "pValueComment": "Since previous step in the hierarchical testing failed (primary measure analyses 9 and 10), the analyses for secondary measures of FPG and body weight are considered exploratory and not confirmatory", "statisticalMethod": "Mixed Models Analysis", "statisticalComment": "'Baseline HbA1c':linear covariate;'treatment','baseline renal function','region','visit' \\& 'visit by treatment interaction':fixed effects.", "paramType": "Adjusted mean", "paramValue": "-2.50", "ciPctValue": "95", "ciNumSides": "TWO_SIDED", "ciLowerLimit": "-3.33", "ciUpperLimit": "-1.68", "dispersionType": "STANDARD_ERROR_OF_MEAN", "dispersionValue": "0.42", "estimateComment": "Empagliflozin 12.5 mg bid+ Metformin 1000 mg bid minus Metformin 1000 mg bid"}, {"groupIds": ["OG001", "OG007"], "groupDescription": "Restricted maximum likelihood (REML)-based mixed model repeated measures (MMRM) approach comparing the change from baseline of body weight after 24 weeks of double-blind treatment.", "testedNonInferiority": false, "nonInferiorityType": "SUPERIORITY_OR_OTHER", "pValue": "<0.0001", "pValueComment": "Since previous step in the hierarchical testing failed (primary measure analyses 9 and 10), the analyses for secondary measures of FPG and body weight are considered exploratory and not confirmatory", "statisticalMethod": "Mixed Models Analysis", "statisticalComment": "'Baseline HbA1c':linear covariate;'treatment','baseline renal function','region','visit' \\& 'visit by treatment interaction':fixed effects.", "paramType": "Adjusted Mean", "paramValue": "-2.52", "ciPctValue": "95", "ciNumSides": "TWO_SIDED", "ciLowerLimit": "-3.35", "ciUpperLimit": "-1.69", "dispersionType": "STANDARD_ERROR_OF_MEAN", "dispersionValue": "0.42", "estimateComment": "Empagliflozin 12.5 mg bid+ Metformin 500 mg bid minus Metformin 500 mg bid"}, {"groupIds": ["OG002", "OG006"], "groupDescription": "Restricted maximum likelihood (REML)-based mixed model repeated measures (MMRM) approach comparing the change from baseline of body weight after 24 weeks of double-blind treatment", "testedNonInferiority": false, "nonInferiorityType": "SUPERIORITY_OR_OTHER", "pValue": "<0.0001", "pValueComment": "Since previous step in the hierarchical testing failed (primary measure analyses 9 and 10), the analyses for secondary measures of FPG and body weight are considered exploratory and not confirmatory", "statisticalMethod": "Mixed Models Analysis", "statisticalComment": "'Baseline HbA1c':linear covariate;'treatment','baseline renal function','region','visit' \\& 'visit by treatment interaction':fixed effects.", "paramType": "Adjusted mean", "paramValue": "-2.20", "ciPctValue": "95", "ciNumSides": "TWO_SIDED", "ciLowerLimit": "-3.03", "ciUpperLimit": "-1.37", "dispersionType": "STANDARD_ERROR_OF_MEAN", "dispersionValue": "0.42", "estimateComment": "Empagliflozin 5 mg bid + Metformin 1000 mg bid minus Metformin 1000 mg bid"}, {"groupIds": ["OG003", "OG007"], "groupDescription": "Restricted maximum likelihood (REML)-based mixed model repeated measures (MMRM) approach comparing the change from baseline of body weight after 24 weeks of double-blind treatment.", "testedNonInferiority": false, "nonInferiorityType": "SUPERIORITY_OR_OTHER", "pValue": "<0.0001", "pValueComment": "Since previous step in the hierarchical testing failed (primary measure analyses 9 and 10), the analyses for secondary measures of FPG and body weight are considered exploratory and not confirmatory", "statisticalMethod": "Mixed Models Analysis", "statisticalComment": "'Baseline HbA1c':linear covariate;'treatment','baseline renal function','region','visit' \\& 'visit by treatment interaction':fixed effects.", "paramType": "Adjusted Mean", "paramValue": "-2.26", "ciPctValue": "95", "ciNumSides": "TWO_SIDED", "ciLowerLimit": "-3.09", "ciUpperLimit": "-1.43", "dispersionType": "STANDARD_ERROR_OF_MEAN", "dispersionValue": "0.42", "estimateComment": "Empagliflozin 5 mg bid + Metformin 500 mg bid minus Metformin 500 mg bid"}]}]}, "adverseEventsModule": {"frequencyThreshold": "5", "timeFrame": "Adverse events with an onset after the first dose of randomised trial medication up to a period of 7 days after the last dose (Up to 237 days)", "eventGroups": [{"id": "EG000", "title": "Empagliflozin 12.5 mg Bid+ Metformin 1000 mg Bid", "description": "Oral administration of Empagliflozin 12.5 mg and Metformin 1000 mg twice daily (bid)", "seriousNumAffected": 2, "seriousNumAtRisk": 170, "otherNumAffected": 48, "otherNumAtRisk": 170}, {"id": "EG001", "title": "Empagliflozin 12.5 mg Bid+ Metformin 500 mg Bid", "description": "Oral administration of Empagliflozin 12.5 mg and Metformin 500 mg bid", "seriousNumAffected": 6, "seriousNumAtRisk": 170, "otherNumAffected": 40, "otherNumAtRisk": 170}, {"id": "EG002", "title": "Empagliflozin 5 mg Bid + Metformin 1000 mg Bid", "description": "Oral administration of Empagliflozin 5 mg and Metformin 1000 mg bid", "seriousNumAffected": 3, "seriousNumAtRisk": 171, "otherNumAffected": 35, "otherNumAtRisk": 171}, {"id": "EG003", "title": "Empagliflozin 5 mg Bid + Metformin 500 mg Bid", "description": "Oral administration of Empagliflozin 5 mg and Metformin 500 mg bid", "seriousNumAffected": 2, "seriousNumAtRisk": 169, "otherNumAffected": 42, "otherNumAtRisk": 169}, {"id": "EG004", "title": "Empagliflozin 25 mg qd", "description": "Oral administration of Empagliflozin 25 mg once daily (qd)", "seriousNumAffected": 3, "seriousNumAtRisk": 167, "otherNumAffected": 41, "otherNumAtRisk": 167}, {"id": "EG005", "title": "Empagliflozin 10 mg qd", "description": "Oral administration of Empagliflozin 10 mg qd", "seriousNumAffected": 1, "seriousNumAtRisk": 172, "otherNumAffected": 36, "otherNumAtRisk": 172}, {"id": "EG006", "title": "Metformin 1000 mg Bid", "description": "Oral administration of Metformin 1000 mg bid", "seriousNumAffected": 3, "seriousNumAtRisk": 170, "otherNumAffected": 53, "otherNumAtRisk": 170}, {"id": "EG007", "title": "Metformin 500 mg Bid", "description": "Oral administration of Metformin 500 mg bid", "seriousNumAffected": 3, "seriousNumAtRisk": 171, "otherNumAffected": 38, "otherNumAtRisk": 171}, {"id": "EG008", "title": "Empagliflozin 12.5 mg Bid + Metformin 1000 mg Bid OL", "description": "Oral administration of Empagliflozin 12.5 mg and Metformin 1000 mg bid in an open label (OL)", "seriousNumAffected": 2, "seriousNumAtRisk": 53, "otherNumAffected": 16, "otherNumAtRisk": 53}], "seriousEvents": [{"term": "Anaemia", "organSystem": "Blood and lymphatic system disorders", "sourceVocabulary": "MedDRA 17.1", "assessmentType": "SYSTEMATIC_ASSESSMENT", "stats": [{"groupId": "EG000", "numAffected": 0, "numAtRisk": 170}, {"groupId": "EG001", "numAffected": 0, "numAtRisk": 170}, {"groupId": "EG002", "numAffected": 1, "numAtRisk": 171}, {"groupId": "EG003", "numAffected": 0, "numAtRisk": 169}, {"groupId": "EG004", "numAffected": 0, "numAtRisk": 167}, {"groupId": "EG005", "numAffected": 0, "numAtRisk": 172}, {"groupId": "EG006", "numAffected": 0, "numAtRisk": 170}, {"groupId": "EG007", "numAffected": 0, "numAtRisk": 171}, {"groupId": "EG008", "numAffected": 0, "numAtRisk": 53}]}, {"term": "Acute myocardial infarction", "organSystem": "Cardiac disorders", "sourceVocabulary": "MedDRA 17.1", "assessmentType": "SYSTEMATIC_ASSESSMENT", "stats": [{"groupId": "EG000", "numAffected": 0, "numAtRisk": 170}, {"groupId": "EG001", "numAffected": 0, "numAtRisk": 170}, {"groupId": "EG002", "numAffected": 0, "numAtRisk": 171}, {"groupId": "EG003", "numAffected": 0, "numAtRisk": 169}, {"groupId": "EG004", "numAffected": 0, "numAtRisk": 167}, {"groupId": "EG005", "numAffected": 1, "numAtRisk": 172}, {"groupId": "EG006", "numAffected": 0, "numAtRisk": 170}, {"groupId": "EG007", "numAffected": 1, "numAtRisk": 171}, {"groupId": "EG008", "numAffected": 1, "numAtRisk": 53}]}, {"term": "Tachycardia paroxysmal", "organSystem": "Cardiac disorders", "sourceVocabulary": "MedDRA 17.1", "assessmentType": "SYSTEMATIC_ASSESSMENT", "stats": [{"groupId": "EG000", "numAffected": 0, "numAtRisk": 170}, {"groupId": "EG001", "numAffected": 1, "numAtRisk": 170}, {"groupId": "EG002", "numAffected": 0, "numAtRisk": 171}, {"groupId": "EG003", "numAffected": 0, "numAtRisk": 169}, {"groupId": "EG004", "numAffected": 0, "numAtRisk": 167}, {"groupId": "EG005", "numAffected": 0, "numAtRisk": 172}, {"groupId": "EG006", "numAffected": 0, "numAtRisk": 170}, {"groupId": "EG007", "numAffected": 0, "numAtRisk": 171}, {"groupId": "EG008", "numAffected": 0, "numAtRisk": 53}]}, {"term": "Pancreatitis acute", "organSystem": "Gastrointestinal disorders", "sourceVocabulary": "MedDRA 17.1", "assessmentType": "SYSTEMATIC_ASSESSMENT", "stats": [{"groupId": "EG000", "numAffected": 0, "numAtRisk": 170}, {"groupId": "EG001", "numAffected": 1, "numAtRisk": 170}, {"groupId": "EG002", "numAffected": 0, "numAtRisk": 171}, {"groupId": "EG003", "numAffected": 0, "numAtRisk": 169}, {"groupId": "EG004", "numAffected": 0, "numAtRisk": 167}, {"groupId": "EG005", "numAffected": 0, "numAtRisk": 172}, {"groupId": "EG006", "numAffected": 0, "numAtRisk": 170}, {"groupId": "EG007", "numAffected": 0, "numAtRisk": 171}, {"groupId": "EG008", "numAffected": 0, "numAtRisk": 53}]}, {"term": "Chest pain", "organSystem": "General disorders", "sourceVocabulary": "MedDRA 17.1", "assessmentType": "SYSTEMATIC_ASSESSMENT", "stats": [{"groupId": "EG000", "numAffected": 0, "numAtRisk": 170}, {"groupId": "EG001", "numAffected": 0, "numAtRisk": 170}, {"groupId": "EG002", "numAffected": 0, "numAtRisk": 171}, {"groupId": "EG003", "numAffected": 1, "numAtRisk": 169}, {"groupId": "EG004", "numAffected": 0, "numAtRisk": 167}, {"groupId": "EG005", "numAffected": 0, "numAtRisk": 172}, {"groupId": "EG006", "numAffected": 0, "numAtRisk": 170}, {"groupId": "EG007", "numAffected": 0, "numAtRisk": 171}, {"groupId": "EG008", "numAffected": 1, "numAtRisk": 53}]}, {"term": "Bile duct stone", "organSystem": "Hepatobiliary disorders", "sourceVocabulary": "MedDRA 17.1", "assessmentType": "SYSTEMATIC_ASSESSMENT", "stats": [{"groupId": "EG000", "numAffected": 0, "numAtRisk": 170}, {"groupId": "EG001", "numAffected": 0, "numAtRisk": 170}, {"groupId": "EG002", "numAffected": 0, "numAtRisk": 171}, {"groupId": "EG003", "numAffected": 0, "numAtRisk": 169}, {"groupId": "EG004", "numAffected": 1, "numAtRisk": 167}, {"groupId": "EG005", "numAffected": 0, "numAtRisk": 172}, {"groupId": "EG006", "numAffected": 0, "numAtRisk": 170}, {"groupId": "EG007", "numAffected": 0, "numAtRisk": 171}, {"groupId": "EG008", "numAffected": 0, "numAtRisk": 53}]}, {"term": "Cholangitis acute", "organSystem": "Hepatobiliary disorders", "sourceVocabulary": "MedDRA 17.1", "assessmentType": "SYSTEMATIC_ASSESSMENT", "stats": [{"groupId": "EG000", "numAffected": 0, "numAtRisk": 170}, {"groupId": "EG001", "numAffected": 0, "numAtRisk": 170}, {"groupId": "EG002", "numAffected": 0, "numAtRisk": 171}, {"groupId": "EG003", "numAffected": 0, "numAtRisk": 169}, {"groupId": "EG004", "numAffected": 1, "numAtRisk": 167}, {"groupId": "EG005", "numAffected": 0, "numAtRisk": 172}, {"groupId": "EG006", "numAffected": 0, "numAtRisk": 170}, {"groupId": "EG007", "numAffected": 0, "numAtRisk": 171}, {"groupId": "EG008", "numAffected": 0, "numAtRisk": 53}]}, {"term": "Cholelithiasis", "organSystem": "Hepatobiliary disorders", "sourceVocabulary": "MedDRA 17.1", "assessmentType": "SYSTEMATIC_ASSESSMENT", "stats": [{"groupId": "EG000", "numAffected": 0, "numAtRisk": 170}, {"groupId": "EG001", "numAffected": 1, "numAtRisk": 170}, {"groupId": "EG002", "numAffected": 0, "numAtRisk": 171}, {"groupId": "EG003", "numAffected": 0, "numAtRisk": 169}, {"groupId": "EG004", "numAffected": 1, "numAtRisk": 167}, {"groupId": "EG005", "numAffected": 0, "numAtRisk": 172}, {"groupId": "EG006", "numAffected": 0, "numAtRisk": 170}, {"groupId": "EG007", "numAffected": 0, "numAtRisk": 171}, {"groupId": "EG008", "numAffected": 0, "numAtRisk": 53}]}, {"term": "Hepatic cirrhosis", "organSystem": "Hepatobiliary disorders", "sourceVocabulary": "MedDRA 17.1", "assessmentType": "SYSTEMATIC_ASSESSMENT", "stats": [{"groupId": "EG000", "numAffected": 0, "numAtRisk": 170}, {"groupId": "EG001", "numAffected": 1, "numAtRisk": 170}, {"groupId": "EG002", "numAffected": 0, "numAtRisk": 171}, {"groupId": "EG003", "numAffected": 0, "numAtRisk": 169}, {"groupId": "EG004", "numAffected": 0, "numAtRisk": 167}, {"groupId": "EG005", "numAffected": 0, "numAtRisk": 172}, {"groupId": "EG006", "numAffected": 0, "numAtRisk": 170}, {"groupId": "EG007", "numAffected": 0, "numAtRisk": 171}, {"groupId": "EG008", "numAffected": 0, "numAtRisk": 53}]}, {"term": "Appendicitis", "organSystem": "Infections and infestations", "sourceVocabulary": "MedDRA 17.1", "assessmentType": "SYSTEMATIC_ASSESSMENT", "stats": [{"groupId": "EG000", "numAffected": 0, "numAtRisk": 170}, {"groupId": "EG001", "numAffected": 1, "numAtRisk": 170}, {"groupId": "EG002", "numAffected": 0, "numAtRisk": 171}, {"groupId": "EG003", "numAffected": 0, "numAtRisk": 169}, {"groupId": "EG004", "numAffected": 0, "numAtRisk": 167}, {"groupId": "EG005", "numAffected": 0, "numAtRisk": 172}, {"groupId": "EG006", "numAffected": 0, "numAtRisk": 170}, {"groupId": "EG007", "numAffected": 0, "numAtRisk": 171}, {"groupId": "EG008", "numAffected": 0, "numAtRisk": 53}]}, {"term": "Dengue fever", "organSystem": "Infections and infestations", "sourceVocabulary": "MedDRA 17.1", "assessmentType": "SYSTEMATIC_ASSESSMENT", "stats": [{"groupId": "EG000", "numAffected": 0, "numAtRisk": 170}, {"groupId": "EG001", "numAffected": 0, "numAtRisk": 170}, {"groupId": "EG002", "numAffected": 0, "numAtRisk": 171}, {"groupId": "EG003", "numAffected": 0, "numAtRisk": 169}, {"groupId": "EG004", "numAffected": 0, "numAtRisk": 167}, {"groupId": "EG005", "numAffected": 0, "numAtRisk": 172}, {"groupId": "EG006", "numAffected": 0, "numAtRisk": 170}, {"groupId": "EG007", "numAffected": 1, "numAtRisk": 171}, {"groupId": "EG008", "numAffected": 0, "numAtRisk": 53}]}, {"term": "Herpes simplex encephalitis", "organSystem": "Infections and infestations", "sourceVocabulary": "MedDRA 17.1", "assessmentType": "SYSTEMATIC_ASSESSMENT", "stats": [{"groupId": "EG000", "numAffected": 0, "numAtRisk": 170}, {"groupId": "EG001", "numAffected": 0, "numAtRisk": 170}, {"groupId": "EG002", "numAffected": 0, "numAtRisk": 171}, {"groupId": "EG003", "numAffected": 0, "numAtRisk": 169}, {"groupId": "EG004", "numAffected": 0, "numAtRisk": 167}, {"groupId": "EG005", "numAffected": 0, "numAtRisk": 172}, {"groupId": "EG006", "numAffected": 0, "numAtRisk": 170}, {"groupId": "EG007", "numAffected": 1, "numAtRisk": 171}, {"groupId": "EG008", "numAffected": 0, "numAtRisk": 53}]}, {"term": "Nasal abscess", "organSystem": "Infections and infestations", "sourceVocabulary": "MedDRA 17.1", "assessmentType": "SYSTEMATIC_ASSESSMENT", "stats": [{"groupId": "EG000", "numAffected": 0, "numAtRisk": 170}, {"groupId": "EG001", "numAffected": 1, "numAtRisk": 170}, {"groupId": "EG002", "numAffected": 0, "numAtRisk": 171}, {"groupId": "EG003", "numAffected": 0, "numAtRisk": 169}, {"groupId": "EG004", "numAffected": 0, "numAtRisk": 167}, {"groupId": "EG005", "numAffected": 0, "numAtRisk": 172}, {"groupId": "EG006", "numAffected": 0, "numAtRisk": 170}, {"groupId": "EG007", "numAffected": 0, "numAtRisk": 171}, {"groupId": "EG008", "numAffected": 0, "numAtRisk": 53}]}, {"term": "Accidental overdose", "organSystem": "Injury, poisoning and procedural complications", "sourceVocabulary": "MedDRA 17.1", "assessmentType": "SYSTEMATIC_ASSESSMENT", "stats": [{"groupId": "EG000", "numAffected": 0, "numAtRisk": 170}, {"groupId": "EG001", "numAffected": 0, "numAtRisk": 170}, {"groupId": "EG002", "numAffected": 1, "numAtRisk": 171}, {"groupId": "EG003", "numAffected": 0, "numAtRisk": 169}, {"groupId": "EG004", "numAffected": 0, "numAtRisk": 167}, {"groupId": "EG005", "numAffected": 0, "numAtRisk": 172}, {"groupId": "EG006", "numAffected": 0, "numAtRisk": 170}, {"groupId": "EG007", "numAffected": 0, "numAtRisk": 171}, {"groupId": "EG008", "numAffected": 0, "numAtRisk": 53}]}, {"term": "Rib fracture", "organSystem": "Injury, poisoning and procedural complications", "sourceVocabulary": "MedDRA 17.1", "assessmentType": "SYSTEMATIC_ASSESSMENT", "stats": [{"groupId": "EG000", "numAffected": 0, "numAtRisk": 170}, {"groupId": "EG001", "numAffected": 0, "numAtRisk": 170}, {"groupId": "EG002", "numAffected": 1, "numAtRisk": 171}, {"groupId": "EG003", "numAffected": 0, "numAtRisk": 169}, {"groupId": "EG004", "numAffected": 0, "numAtRisk": 167}, {"groupId": "EG005", "numAffected": 0, "numAtRisk": 172}, {"groupId": "EG006", "numAffected": 0, "numAtRisk": 170}, {"groupId": "EG007", "numAffected": 0, "numAtRisk": 171}, {"groupId": "EG008", "numAffected": 0, "numAtRisk": 53}]}, {"term": "Diabetes mellitus inadequate control", "organSystem": "Metabolism and nutrition disorders", "sourceVocabulary": "MedDRA 17.1", "assessmentType": "SYSTEMATIC_ASSESSMENT", "stats": [{"groupId": "EG000", "numAffected": 0, "numAtRisk": 170}, {"groupId": "EG001", "numAffected": 0, "numAtRisk": 170}, {"groupId": "EG002", "numAffected": 0, "numAtRisk": 171}, {"groupId": "EG003", "numAffected": 0, "numAtRisk": 169}, {"groupId": "EG004", "numAffected": 0, "numAtRisk": 167}, {"groupId": "EG005", "numAffected": 0, "numAtRisk": 172}, {"groupId": "EG006", "numAffected": 1, "numAtRisk": 170}, {"groupId": "EG007", "numAffected": 0, "numAtRisk": 171}, {"groupId": "EG008", "numAffected": 0, "numAtRisk": 53}]}, {"term": "Chronic lymphocytic leukaemia", "organSystem": "Neoplasms benign, malignant and unspecified (incl cysts and polyps)", "sourceVocabulary": "MedDRA 17.1", "assessmentType": "SYSTEMATIC_ASSESSMENT", "stats": [{"groupId": "EG000", "numAffected": 0, "numAtRisk": 170}, {"groupId": "EG001", "numAffected": 1, "numAtRisk": 170}, {"groupId": "EG002", "numAffected": 0, "numAtRisk": 171}, {"groupId": "EG003", "numAffected": 0, "numAtRisk": 169}, {"groupId": "EG004", "numAffected": 0, "numAtRisk": 167}, {"groupId": "EG005", "numAffected": 0, "numAtRisk": 172}, {"groupId": "EG006", "numAffected": 0, "numAtRisk": 170}, {"groupId": "EG007", "numAffected": 0, "numAtRisk": 171}, {"groupId": "EG008", "numAffected": 0, "numAtRisk": 53}]}, {"term": "Uterine leiomyoma", "organSystem": "Neoplasms benign, malignant and unspecified (incl cysts and polyps)", "sourceVocabulary": "MedDRA 17.1", "assessmentType": "SYSTEMATIC_ASSESSMENT", "stats": [{"groupId": "EG000", "numAffected": 1, "numAtRisk": 170}, {"groupId": "EG001", "numAffected": 0, "numAtRisk": 170}, {"groupId": "EG002", "numAffected": 0, "numAtRisk": 171}, {"groupId": "EG003", "numAffected": 0, "numAtRisk": 169}, {"groupId": "EG004", "numAffected": 0, "numAtRisk": 167}, {"groupId": "EG005", "numAffected": 0, "numAtRisk": 172}, {"groupId": "EG006", "numAffected": 0, "numAtRisk": 170}, {"groupId": "EG007", "numAffected": 0, "numAtRisk": 171}, {"groupId": "EG008", "numAffected": 0, "numAtRisk": 53}]}, {"term": "Cerebral infarction", "organSystem": "Nervous system disorders", "sourceVocabulary": "MedDRA 17.1", "assessmentType": "SYSTEMATIC_ASSESSMENT", "stats": [{"groupId": "EG000", "numAffected": 1, "numAtRisk": 170}, {"groupId": "EG001", "numAffected": 0, "numAtRisk": 170}, {"groupId": "EG002", "numAffected": 0, "numAtRisk": 171}, {"groupId": "EG003", "numAffected": 0, "numAtRisk": 169}, {"groupId": "EG004", "numAffected": 0, "numAtRisk": 167}, {"groupId": "EG005", "numAffected": 0, "numAtRisk": 172}, {"groupId": "EG006", "numAffected": 0, "numAtRisk": 170}, {"groupId": "EG007", "numAffected": 0, "numAtRisk": 171}, {"groupId": "EG008", "numAffected": 0, "numAtRisk": 53}]}, {"term": "Cerebrovascular accident", "organSystem": "Nervous system disorders", "sourceVocabulary": "MedDRA 17.1", "assessmentType": "SYSTEMATIC_ASSESSMENT", "stats": [{"groupId": "EG000", "numAffected": 0, "numAtRisk": 170}, {"groupId": "EG001", "numAffected": 0, "numAtRisk": 170}, {"groupId": "EG002", "numAffected": 0, "numAtRisk": 171}, {"groupId": "EG003", "numAffected": 0, "numAtRisk": 169}, {"groupId": "EG004", "numAffected": 0, "numAtRisk": 167}, {"groupId": "EG005", "numAffected": 0, "numAtRisk": 172}, {"groupId": "EG006", "numAffected": 1, "numAtRisk": 170}, {"groupId": "EG007", "numAffected": 0, "numAtRisk": 171}, {"groupId": "EG008", "numAffected": 0, "numAtRisk": 53}]}, {"term": "Haematuria", "organSystem": "Renal and urinary disorders", "sourceVocabulary": "MedDRA 17.1", "assessmentType": "SYSTEMATIC_ASSESSMENT", "stats": [{"groupId": "EG000", "numAffected": 0, "numAtRisk": 170}, {"groupId": "EG001", "numAffected": 0, "numAtRisk": 170}, {"groupId": "EG002", "numAffected": 0, "numAtRisk": 171}, {"groupId": "EG003", "numAffected": 0, "numAtRisk": 169}, {"groupId": "EG004", "numAffected": 1, "numAtRisk": 167}, {"groupId": "EG005", "numAffected": 0, "numAtRisk": 172}, {"groupId": "EG006", "numAffected": 0, "numAtRisk": 170}, {"groupId": "EG007", "numAffected": 0, "numAtRisk": 171}, {"groupId": "EG008", "numAffected": 0, "numAtRisk": 53}]}, {"term": "Chronic obstructive pulmonary disease", "organSystem": "Respiratory, thoracic and mediastinal disorders", "sourceVocabulary": "MedDRA 17.1", "assessmentType": "SYSTEMATIC_ASSESSMENT", "stats": [{"groupId": "EG000", "numAffected": 0, "numAtRisk": 170}, {"groupId": "EG001", "numAffected": 1, "numAtRisk": 170}, {"groupId": "EG002", "numAffected": 0, "numAtRisk": 171}, {"groupId": "EG003", "numAffected": 0, "numAtRisk": 169}, {"groupId": "EG004", "numAffected": 0, "numAtRisk": 167}, {"groupId": "EG005", "numAffected": 0, "numAtRisk": 172}, {"groupId": "EG006", "numAffected": 0, "numAtRisk": 170}, {"groupId": "EG007", "numAffected": 0, "numAtRisk": 171}, {"groupId": "EG008", "numAffected": 0, "numAtRisk": 53}]}, {"term": "Hypertensive crisis", "organSystem": "Vascular disorders", "sourceVocabulary": "MedDRA 17.1", "assessmentType": "SYSTEMATIC_ASSESSMENT", "stats": [{"groupId": "EG000", "numAffected": 0, "numAtRisk": 170}, {"groupId": "EG001", "numAffected": 0, "numAtRisk": 170}, {"groupId": "EG002", "numAffected": 0, "numAtRisk": 171}, {"groupId": "EG003", "numAffected": 0, "numAtRisk": 169}, {"groupId": "EG004", "numAffected": 0, "numAtRisk": 167}, {"groupId": "EG005", "numAffected": 0, "numAtRisk": 172}, {"groupId": "EG006", "numAffected": 1, "numAtRisk": 170}, {"groupId": "EG007", "numAffected": 0, "numAtRisk": 171}, {"groupId": "EG008", "numAffected": 0, "numAtRisk": 53}]}, {"term": "Peripheral arterial occlusive disease", "organSystem": "Vascular disorders", "sourceVocabulary": "MedDRA 17.1", "assessmentType": "SYSTEMATIC_ASSESSMENT", "stats": [{"groupId": "EG000", "numAffected": 0, "numAtRisk": 170}, {"groupId": "EG001", "numAffected": 0, "numAtRisk": 170}, {"groupId": "EG002", "numAffected": 0, "numAtRisk": 171}, {"groupId": "EG003", "numAffected": 1, "numAtRisk": 169}, {"groupId": "EG004", "numAffected": 0, "numAtRisk": 167}, {"groupId": "EG005", "numAffected": 0, "numAtRisk": 172}, {"groupId": "EG006", "numAffected": 0, "numAtRisk": 170}, {"groupId": "EG007", "numAffected": 0, "numAtRisk": 171}, {"groupId": "EG008", "numAffected": 0, "numAtRisk": 53}]}, {"term": "Peripheral ischaemia", "organSystem": "Vascular disorders", "sourceVocabulary": "MedDRA 17.1", "assessmentType": "SYSTEMATIC_ASSESSMENT", "stats": [{"groupId": "EG000", "numAffected": 0, "numAtRisk": 170}, {"groupId": "EG001", "numAffected": 0, "numAtRisk": 170}, {"groupId": "EG002", "numAffected": 0, "numAtRisk": 171}, {"groupId": "EG003", "numAffected": 0, "numAtRisk": 169}, {"groupId": "EG004", "numAffected": 1, "numAtRisk": 167}, {"groupId": "EG005", "numAffected": 0, "numAtRisk": 172}, {"groupId": "EG006", "numAffected": 0, "numAtRisk": 170}, {"groupId": "EG007", "numAffected": 0, "numAtRisk": 171}, {"groupId": "EG008", "numAffected": 0, "numAtRisk": 53}]}, {"term": "Angina unstable", "organSystem": "Cardiac disorders", "sourceVocabulary": "MedDRA 17.1", "assessmentType": "SYSTEMATIC_ASSESSMENT", "stats": [{"groupId": "EG000", "numAffected": 0, "numAtRisk": 170}, {"groupId": "EG001", "numAffected": 0, "numAtRisk": 170}, {"groupId": "EG002", "numAffected": 0, "numAtRisk": 171}, {"groupId": "EG003", "numAffected": 0, "numAtRisk": 169}, {"groupId": "EG004", "numAffected": 0, "numAtRisk": 167}, {"groupId": "EG005", "numAffected": 0, "numAtRisk": 172}, {"groupId": "EG006", "numAffected": 0, "numAtRisk": 170}, {"groupId": "EG007", "numAffected": 0, "numAtRisk": 171}, {"groupId": "EG008", "numAffected": 1, "numAtRisk": 53}]}, {"term": "Hypomagnesaemia", "organSystem": "Metabolism and nutrition disorders", "sourceVocabulary": "MedDRA 17.1", "assessmentType": "SYSTEMATIC_ASSESSMENT", "stats": [{"groupId": "EG000", "numAffected": 0, "numAtRisk": 170}, {"groupId": "EG001", "numAffected": 0, "numAtRisk": 170}, {"groupId": "EG002", "numAffected": 0, "numAtRisk": 171}, {"groupId": "EG003", "numAffected": 0, "numAtRisk": 169}, {"groupId": "EG004", "numAffected": 0, "numAtRisk": 167}, {"groupId": "EG005", "numAffected": 0, "numAtRisk": 172}, {"groupId": "EG006", "numAffected": 0, "numAtRisk": 170}, {"groupId": "EG007", "numAffected": 0, "numAtRisk": 171}, {"groupId": "EG008", "numAffected": 1, "numAtRisk": 53}]}], "otherEvents": [{"term": "Diarrhoea", "organSystem": "Gastrointestinal disorders", "sourceVocabulary": "MedDRA 17.1", "assessmentType": "SYSTEMATIC_ASSESSMENT", "stats": [{"groupId": "EG000", "numAffected": 12, "numAtRisk": 170}, {"groupId": "EG001", "numAffected": 6, "numAtRisk": 170}, {"groupId": "EG002", "numAffected": 5, "numAtRisk": 171}, {"groupId": "EG003", "numAffected": 9, "numAtRisk": 169}, {"groupId": "EG004", "numAffected": 6, "numAtRisk": 167}, {"groupId": "EG005", "numAffected": 2, "numAtRisk": 172}, {"groupId": "EG006", "numAffected": 24, "numAtRisk": 170}, {"groupId": "EG007", "numAffected": 6, "numAtRisk": 171}, {"groupId": "EG008", "numAffected": 4, "numAtRisk": 53}]}, {"term": "Upper respiratory tract infection", "organSystem": "Infections and infestations", "sourceVocabulary": "MedDRA 17.1", "assessmentType": "SYSTEMATIC_ASSESSMENT", "stats": [{"groupId": "EG000", "numAffected": 4, "numAtRisk": 170}, {"groupId": "EG001", "numAffected": 5, "numAtRisk": 170}, {"groupId": "EG002", "numAffected": 8, "numAtRisk": 171}, {"groupId": "EG003", "numAffected": 4, "numAtRisk": 169}, {"groupId": "EG004", "numAffected": 7, "numAtRisk": 167}, {"groupId": "EG005", "numAffected": 5, "numAtRisk": 172}, {"groupId": "EG006", "numAffected": 5, "numAtRisk": 170}, {"groupId": "EG007", "numAffected": 10, "numAtRisk": 171}, {"groupId": "EG008", "numAffected": 3, "numAtRisk": 53}]}, {"term": "Urinary tract infection", "organSystem": "Infections and infestations", "sourceVocabulary": "MedDRA 17.1", "assessmentType": "SYSTEMATIC_ASSESSMENT", "stats": [{"groupId": "EG000", "numAffected": 18, "numAtRisk": 170}, {"groupId": "EG001", "numAffected": 17, "numAtRisk": 170}, {"groupId": "EG002", "numAffected": 12, "numAtRisk": 171}, {"groupId": "EG003", "numAffected": 9, "numAtRisk": 169}, {"groupId": "EG004", "numAffected": 13, "numAtRisk": 167}, {"groupId": "EG005", "numAffected": 12, "numAtRisk": 172}, {"groupId": "EG006", "numAffected": 14, "numAtRisk": 170}, {"groupId": "EG007", "numAffected": 12, "numAtRisk": 171}, {"groupId": "EG008", "numAffected": 0, "numAtRisk": 53}]}, {"term": "Dyslipidaemia", "organSystem": "Metabolism and nutrition disorders", "sourceVocabulary": "MedDRA 17.1", "assessmentType": "SYSTEMATIC_ASSESSMENT", "stats": [{"groupId": "EG000", "numAffected": 8, "numAtRisk": 170}, {"groupId": "EG001", "numAffected": 6, "numAtRisk": 170}, {"groupId": "EG002", "numAffected": 8, "numAtRisk": 171}, {"groupId": "EG003", "numAffected": 15, "numAtRisk": 169}, {"groupId": "EG004", "numAffected": 11, "numAtRisk": 167}, {"groupId": "EG005", "numAffected": 15, "numAtRisk": 172}, {"groupId": "EG006", "numAffected": 8, "numAtRisk": 170}, {"groupId": "EG007", "numAffected": 7, "numAtRisk": 171}, {"groupId": "EG008", "numAffected": 2, "numAtRisk": 53}]}, {"term": "Dizziness", "organSystem": "Nervous system disorders", "sourceVocabulary": "MedDRA 17.1", "assessmentType": "SYSTEMATIC_ASSESSMENT", "stats": [{"groupId": "EG000", "numAffected": 6, "numAtRisk": 170}, {"groupId": "EG001", "numAffected": 9, "numAtRisk": 170}, {"groupId": "EG002", "numAffected": 4, "numAtRisk": 171}, {"groupId": "EG003", "numAffected": 5, "numAtRisk": 169}, {"groupId": "EG004", "numAffected": 3, "numAtRisk": 167}, {"groupId": "EG005", "numAffected": 4, "numAtRisk": 172}, {"groupId": "EG006", "numAffected": 4, "numAtRisk": 170}, {"groupId": "EG007", "numAffected": 7, "numAtRisk": 171}, {"groupId": "EG008", "numAffected": 3, "numAtRisk": 53}]}, {"term": "Gastritis", "organSystem": "Gastrointestinal disorders", "sourceVocabulary": "MedDRA 17.1", "assessmentType": "SYSTEMATIC_ASSESSMENT", "stats": [{"groupId": "EG000", "numAffected": 0, "numAtRisk": 170}, {"groupId": "EG001", "numAffected": 1, "numAtRisk": 170}, {"groupId": "EG002", "numAffected": 2, "numAtRisk": 171}, {"groupId": "EG003", "numAffected": 1, "numAtRisk": 169}, {"groupId": "EG004", "numAffected": 2, "numAtRisk": 167}, {"groupId": "EG005", "numAffected": 0, "numAtRisk": 172}, {"groupId": "EG006", "numAffected": 4, "numAtRisk": 170}, {"groupId": "EG007", "numAffected": 2, "numAtRisk": 171}, {"groupId": "EG008", "numAffected": 3, "numAtRisk": 53}]}, {"term": "Nausea", "organSystem": "Gastrointestinal disorders", "sourceVocabulary": "MedDRA 17.1", "assessmentType": "SYSTEMATIC_ASSESSMENT", "stats": [{"groupId": "EG000", "numAffected": 6, "numAtRisk": 170}, {"groupId": "EG001", "numAffected": 4, "numAtRisk": 170}, {"groupId": "EG002", "numAffected": 5, "numAtRisk": 171}, {"groupId": "EG003", "numAffected": 5, "numAtRisk": 169}, {"groupId": "EG004", "numAffected": 1, "numAtRisk": 167}, {"groupId": "EG005", "numAffected": 1, "numAtRisk": 172}, {"groupId": "EG006", "numAffected": 3, "numAtRisk": 170}, {"groupId": "EG007", "numAffected": 1, "numAtRisk": 171}, {"groupId": "EG008", "numAffected": 3, "numAtRisk": 53}]}, {"term": "Hypoglycaemia", "organSystem": "Metabolism and nutrition disorders", "sourceVocabulary": "MedDRA 17.1", "assessmentType": "SYSTEMATIC_ASSESSMENT", "stats": [{"groupId": "EG000", "numAffected": 4, "numAtRisk": 170}, {"groupId": "EG001", "numAffected": 4, "numAtRisk": 170}, {"groupId": "EG002", "numAffected": 1, "numAtRisk": 171}, {"groupId": "EG003", "numAffected": 0, "numAtRisk": 169}, {"groupId": "EG004", "numAffected": 1, "numAtRisk": 167}, {"groupId": "EG005", "numAffected": 2, "numAtRisk": 172}, {"groupId": "EG006", "numAffected": 2, "numAtRisk": 170}, {"groupId": "EG007", "numAffected": 0, "numAtRisk": 171}, {"groupId": "EG008", "numAffected": 3, "numAtRisk": 53}]}]}, "moreInfoModule": {"certainAgreement": {"piSponsorEmployee": false, "restrictionType": "OTHER", "restrictiveAgreement": true, "otherDetails": "Boehringer Ingelheim (BI) acknowledges that investigators have the right to publish the study results. Investigators shall provide BI with a copy of any publication or presentation for review prior to any submission. Such review will be done with regard to proprietary information, information related to patentable inventions, medical, scientific, and statistical accuracy within 60 days. BI may request a delay of the publication in order to protect BI's intellectual property rights"}, "pointOfContact": {"title": "Boehringer Ingelheim Call Center", "organization": "Boehringer Ingelheim", "email": "clintriage.rdg@boehringer-ingelheim.com", "phone": "800-243-0127", "phoneExt": "+1"}}}, "derivedSection": {"miscInfoModule": {"versionHolder": "2024-06-24", "removedCountries": ["India", "Indonesia", "United Arab Emirates"]}, "conditionBrowseModule": {"meshes": [{"id": "D000003920", "term": "Diabetes Mellitus"}, {"id": "D000003924", "term": "Diabetes Mellitus, Type 2"}, {"id": "D000006943", "term": "Hyperglycemia"}], "ancestors": [{"id": "D000044882", "term": "Glucose Metabolism Disorders"}, {"id": "D000008659", "term": "Metabolic Diseases"}, {"id": "D000004700", "term": "Endocrine System Diseases"}], "browseLeaves": [{"id": "M7115", "name": "Diabetes Mellitus", "asFound": "Diabetes Mellitus", "relevance": "HIGH"}, {"id": "M7119", "name": "Diabetes Mellitus, Type 2", "asFound": "Diabetes Mellitus, Type 2", "relevance": "HIGH"}, {"id": "M9994", "name": "Hyperglycemia", "asFound": "Hyperglycemia", "relevance": "HIGH"}, {"id": "M11639", "name": "Metabolic Diseases", "relevance": "LOW"}, {"id": "M25403", "name": "Glucose Metabolism Disorders", "relevance": "LOW"}, {"id": "M7862", "name": "Endocrine System Diseases", "relevance": "LOW"}], "browseBranches": [{"abbrev": "BC18", "name": "Nutritional and Metabolic Diseases"}, {"abbrev": "BC19", "name": "Gland and Hormone Related Diseases"}, {"abbrev": "All", "name": "All Conditions"}]}, "interventionBrowseModule": {"meshes": [{"id": "D000008687", "term": "Metformin"}, {"id": "C000570240", "term": "Empagliflozin"}], "ancestors": [{"id": "D000007004", "term": "Hypoglycemic Agents"}, {"id": "D000045505", "term": "Physiological Effects of Drugs"}, {"id": "D000077203", "term": "Sodium-Glucose Transporter 2 Inhibitors"}, {"id": "D000045504", "term": "Molecular Mechanisms of Pharmacological Action"}], "browseLeaves": [{"id": "M258082", "name": "Empagliflozin", "asFound": "Peer", "relevance": "HIGH"}, {"id": "M11667", "name": "Metformin", "asFound": "Assessment", "relevance": "HIGH"}, {"id": "M10054", "name": "Hypoglycemic Agents", "relevance": "LOW"}, {"id": "M1691", "name": "Sodium-Glucose Transporter 2 Inhibitors", "relevance": "LOW"}], "browseBranches": [{"abbrev": "Hypo", "name": "Hypoglycemic Agents"}, {"abbrev": "All", "name": "All Drugs and Chemicals"}]}}, "hasResults": true}