{"protocolSection": {"identificationModule": {"nctId": "NCT02555371", "orgStudyIdInfo": {"id": "201810"}, "secondaryIdInfos": [{"id": "2015-002361-32", "type": "EUDRACT_NUMBER"}], "organization": {"fullName": "GlaxoSmithKline", "class": "INDUSTRY"}, "briefTitle": "Cessation Versus Continuation of Long-term Mepolizumab in Severe Eosinophilic Asthma Patients", "officialTitle": "A Multi-center, Randomized, Double-blind, Placebo Controlled, Parallel Group Study to Compare Cessation Versus Continuation of Long-term Mepolizumab Treatment in Patients With Severe Eosinophilic Asthma (201810)"}, "statusModule": {"statusVerifiedDate": "2020-01", "overallStatus": "COMPLETED", "expandedAccessInfo": {"hasExpandedAccess": true, "nctId": "NCT00244686", "statusForNctId": "NO_LONGER_AVAILABLE"}, "startDateStruct": {"date": "2016-01-07", "type": "ACTUAL"}, "primaryCompletionDateStruct": {"date": "2019-07-24", "type": "ACTUAL"}, "completionDateStruct": {"date": "2019-07-24", "type": "ACTUAL"}, "studyFirstSubmitDate": "2015-09-17", "studyFirstSubmitQcDate": "2015-09-17", "studyFirstPostDateStruct": {"date": "2015-09-21", "type": "ESTIMATED"}, "resultsFirstSubmitDate": "2020-01-23", "resultsFirstSubmitQcDate": "2020-01-23", "resultsFirstPostDateStruct": {"date": "2020-02-05", "type": "ACTUAL"}, "lastUpdateSubmitDate": "2020-01-23", "lastUpdatePostDateStruct": {"date": "2020-02-05", "type": "ACTUAL"}}, "sponsorCollaboratorsModule": {"responsibleParty": {"type": "SPONSOR"}, "leadSponsor": {"name": "GlaxoSmithKline", "class": "INDUSTRY"}}, "oversightModule": {"oversightHasDmc": false, "isFdaRegulatedDrug": true, "isFdaRegulatedDevice": false}, "descriptionModule": {"briefSummary": "Primary objective of the study is to evaluate whether patients with severe eosinophilic asthma who have received long-term treatment with mepolizumab (at least 3 years) need to maintain treatment with mepolizumab to continue to receive benefit. Subjects who participated in the open-label studies MEA115666 or 201312 with at least 6 months of treatment with mepolizumab prior to Visit 1 and who have no more than 2 consecutive missed doses of mepolizumab treatment will be eligible to participate in this study. This study will be conducted in 4 parts in approximately 300 subjects. Part A will be Variable Open-Label Run-in (for subjects with less than 3 years of mepolizumab treatment). Once the required 3 year exposure is reached, subjects will enter Part B- Fixed Open-Label Run-In (4 weeks to 8 weeks). During Part A and B subjects will be administered Open-label mepolizumab (100 milligram \\[mg\\] Subcutaneous \\[SC\\]) every 4 weeks. Part C will be the randomized double-blinded part. Upon completion of Part B, eligible subjects will be randomized to mepolizumab (100 mg SC) every 4 weeks or placebo administered SC every 4 weeks for 52 weeks.\n\nSubjects discontinuing investigational product (IP) due to a clinically significant asthma exacerbation will then enter optional Part D of the study. During Part D, subjects receive open-label mepolizumab in addition to their standard of care therapy for the remainder of the study, through Part D up to 52-weeks post-randomization. An Exit Visit will be conducted 52 weeks after randomization in order to assess subject's efficacy parameters, immunogenicity status, and to conduct additional safety assessments. Eligible subjects will participate in the study ranging from 56 to192 weeks, depending on the duration of Part A (0 to 132 weeks) and Part B (4 to 8 weeks)."}, "conditionsModule": {"conditions": ["Asthma"], "keywords": ["Severe eosinophilic asthma", "mepolizumab", "asthma exacerbation"]}, "designModule": {"studyType": "INTERVENTIONAL", "phases": ["PHASE3"], "designInfo": {"allocation": "RANDOMIZED", "interventionModel": "PARALLEL", "primaryPurpose": "TREATMENT", "maskingInfo": {"masking": "TRIPLE", "whoMasked": ["PARTICIPANT", "CARE_PROVIDER", "INVESTIGATOR"]}}, "enrollmentInfo": {"count": 306, "type": "ACTUAL"}}, "armsInterventionsModule": {"armGroups": [{"label": "Arm Mepolizumab 100 mg", "type": "EXPERIMENTAL", "description": "There will be 4 parts during the study. Part A will be Variable Open-Label Run-in (maximum up to 132 weeks). Part B- Fixed Open-Label Run-In (4 Weeks to 8 weeks). Part C will be randomized double-blind treatment period (Up to 52 weeks) and in case of clinically significant asthma exacerbation, optional open label switch Part D (Up to 52 weeks post randomization). Subjects will receive mepolizumab (100 mg SC) every 4 weeks throughout study", "interventionNames": ["Biological: Mepolizumab 100mg"]}, {"label": "Arm Placebo", "type": "PLACEBO_COMPARATOR", "description": "There will be 4 parts during the study. Part A will be Variable Open-Label Run-in (maximum up to 132 weeks). Part B- Fixed Open-Label Run-In (4 Weeks to 8 weeks). Part C will be randomized double-blind treatment period (Up to 52 weeks) and in case of clinically significant asthma exacerbation, optional open label switch Part D (Up to 52 weeks post randomization). During Part A, B and D, subjects will receive open label mepolizumab (100 mg SC) every 4 weeks and during Part C, subjects will receive placebo SC every 4 weeks.", "interventionNames": ["Biological: Mepolizumab 100mg", "Drug: Placebo"]}], "interventions": [{"type": "BIOLOGICAL", "name": "Mepolizumab 100mg", "description": "Mepolizumab is a fully humanised Immunoglobulin (IgG) antibody (IgG1, kappa) with human heavy and light chain frameworks. Mepolizumab will be provided as a lyophilised cake in sterile vials for individual use.", "armGroupLabels": ["Arm Mepolizumab 100 mg", "Arm Placebo"]}, {"type": "DRUG", "name": "Placebo", "description": "The placebo will be 0.9% sodium chloride solution and will be provided by the study site.", "armGroupLabels": ["Arm Placebo"]}]}, "outcomesModule": {"primaryOutcomes": [{"measure": "Percentage of Participants With First Clinically Significant Exacerbation in Part C", "description": "Clinically significant exacerbation was defined as worsening of asthma which requires use of systemic corticosteroids (e.g., prednisone) for at least 3 days or a single intramuscular (IM) corticosteroid dose and/or hospitalization and/or emergency department (ED) visits. For participants on maintenance systemic corticosteroids, at least double the existing maintenance dose for at least 3 days is required. Percentage of participants with clinically significant exacerbation over time during the on-treatment period of Part C and 95% confidence interval were estimated using Kaplan-Meier estimates. Intent-to-Treat Population includes all randomized participants who received at least one dose of double-blind study medication within Part C.", "timeFrame": "Weeks 12, 24, 36 and 52"}], "secondaryOutcomes": [{"measure": "Ratio to Baseline in Blood Eosinophil Count in Part C", "description": "Blood samples were collected at specific time points to measure blood eosinophils level. Baseline was defined as the latest available assessment prior to first dose of double-blind treatment within Part C. Ratio to Baseline is defined as visit value divided by Baseline value and was analyzed using Mixed Model Repeated Measures with covariates of Baseline, region, exacerbations in the year prior to randomization (as an ordinal variable), Baseline maintenance oral corticosteroids (OCS) therapy (OCS versus no OCS), treatment and visit, plus interaction terms for visit by Baseline and visit by treatment group. The log transformation was applied to blood eosinophil counts prior to analysis. If a blood eosinophil count of zero was reported, a small value was added prior to log transforming the data. The dispersion measure used was log standard error.", "timeFrame": "Baseline and Weeks 12, 24, 36 and 52"}, {"measure": "Percentage of Participants With 0.5 Point or More Increase in Asthma Control Questionnaire (ACQ)-5 Score From Baseline in Part C", "description": "The ACQ-5 is a five-item, self-completed questionnaire. Five questions (concerning nocturnal awakening, waking in the morning, activity limitation, shortness of breath and wheeze) enquire about the frequency and/or severity of symptoms over the previous week. The response ranges from zero (no impairment/limitation) to six (total impairment/ limitation) scale. Increase in score of \\>= 0.5 units from Baseline indicates decrease in asthma control. Baseline is the latest available assessment prior to first dose of double-blind treatment within Part C. Percentage of participants with a 0.5 point or more increase in ACQ-5 score from Baseline over time during the on-treatment period of Part C and its 95% confidence interval were estimated using Kaplan-Meier estimates.", "timeFrame": "Baseline and Weeks 12, 24, 36 and 52"}, {"measure": "Percentage of Participants With Time to First Exacerbation Requiring Hospitalization or ED Visit in Part C", "description": "Exacerbations of asthma requiring hospitalization or ED visit were assessed. The analysis was performed from Cox Proportional Hazards Model with covariates of treatment group, region, exacerbations in the year prior to randomization (as an ordinal variable) and Baseline maintenance OCS therapy (OCS versus no OCS). Percentage of participants with an exacerbation over time and its 95% confidence intervals were estimated using Kaplan-Meier estimates", "timeFrame": "Weeks 12, 24, 36 and 52"}]}, "eligibilityModule": {"eligibilityCriteria": "Inclusion Criteria:\n\n* Informed Consent: Prior to commencing any study related activities, subjects must be able and willing to provide written informed consent, and an assent for subjects under 18 years of age, at Visit 0 (or Visit 1 if these Visits are conducted on the same day).\n* MEA115666 or 201312 Study Participation: Participation (through the Follow Up/Exit Visit or Early Withdrawal) in either study with documented evidence of at least 6 months of continuous mepolizumab treatment prior to Visit 1. Continuous treatment with mepolizumab is defined as no more than 2 consecutive missed doses (no treatment gaps of more than 12 weeks \\[84 days\\] between any two doses).\n* Current Anti-Asthma Therapy: Asthma is currently being treated with a controller medication and the subject has been on a controller medication for the past 12 weeks. Subjects will be expected to continue controller therapy for the duration of the study.\n* Male or Eligible Female Subjects: A female is eligible to enter and participate in the study if she is of: Non-child bearing potential (i.e., physiologically incapable of becoming pregnant, including any female who is post-menopausal or surgically sterile). Surgically sterile females are defined as those with a documented hysterectomy and/or bilateral oophorectomy or tubal ligation. Post-menopausal females are defined as being amenorrhoeic for greater than 1 year with an appropriate clinical profile, e.g., age appropriate, \\> 45 years, in the absence of hormone replacement therapy.\n\nOR Child bearing potential, has a negative pregnancy test at screening, and agrees to acceptable contraceptive methods approved in their local country, when used consistently and correctly (i.e., in accordance with the approved product label and the instructions of the physician) for the duration of the study and for 4 months after the last study drug administration.\n\nA urine pregnancy test is required of all females of child-bearing potential at each scheduled study visit prior to the injection of study treatment, and at the Exit Visit, Early Withdrawal (EW) or Discontinuation of IP Visit.\n\n* French subjects: In France, a subject will be eligible for inclusion in this study only if either affiliated to or a beneficiary of a social security category.\n\nExclusion Criteria:\n\n* MEA115666 or 201312 IP Discontinuation: Subjects withdrawn from IP or withdrawn from study participation from either MEA115666 or 201312 for safety reasons.\n* Health Status: Clinically significant deterioration in health status at the completion of participation or EW from either the MEA115666 or 201312 trials which in the opinion of the investigator would make the subject unsuitable for participation in this study.\n* Pregnancy: Subjects who are pregnant or breastfeeding. Subjects should not be enrolled if they plan to become pregnant during the time of study participation.\n* Cardiovascular: Subjects who have severe or clinically significant cardiovascular disease uncontrolled with standard treatment. Including but not limited to:\n\nknown ejection fraction of \\<30% OR severe heart failure meeting New York Heart Association Class IV classification OR hospitalised in the 12 months prior to Visit 1 for severe heart failure meeting New York Heart Association Class III OR angina diagnosed less than 3 months prior to Visit 1 or at Visit 1.\n\n* 12-Lead Electrocardiogram (ECG): ECG which has a clinically significant abnormality observed at the Screening Visit as determined by the investigator. Subjects with the following abnormalities are excluded from study participation: QT interval corrected for heart rate by Fridericia's formula (QTcF) \\> 450 milliseconds (msec), or QTcF \\>480 msec for subjects with Bundle Branch Block.\n* Malignancy: A current malignancy or previous history of cancer in remission for less than 12 months prior to screening (Subjects that had localized carcinoma of the skin which was resected for cure will not be excluded).\n\nNote for South Korea: Korean subjects with a diagnosis of malignancy within 5 years are excluded.\n\n* Other Monoclonal Antibodies: Subjects who have received any monoclonal antibody (other than XOLAIR\u00ae) to treat inflammatory disease within 5 half-lives of Visit 1.\n\nXOLAIR is a registered trademark of Genentech USA, Inc. and Novartis Pharmaceuticals Corporation.\n\n* Adherence: Subjects who have known evidence of lack of adherence within studies MEA115666 or 201312 (less than 80%) to controller medications, scheduled study visits and/or ability to follow physician's recommendations.\n* Smoking status: Current smokers\n* Inability to read: In the opinion of the Investigator, any subject who is unable to read and/or would not be able to complete a questionnaire.", "healthyVolunteers": false, "sex": "ALL", "minimumAge": "12 Years", "stdAges": ["CHILD", "ADULT", "OLDER_ADULT"]}, "contactsLocationsModule": {"overallOfficials": [{"name": "GSK Clinical Trials", "affiliation": "GlaxoSmithKline", "role": "STUDY_DIRECTOR"}], "locations": [{"facility": "GSK Investigational Site", "city": "Long Beach", "state": "California", "zip": "90808", "country": "United States", "geoPoint": {"lat": 33.76696, "lon": -118.18923}}, {"facility": "GSK Investigational Site", "city": "Riverside", "state": "California", "zip": "92506", "country": "United States", "geoPoint": {"lat": 33.95335, "lon": -117.39616}}, {"facility": "GSK Investigational Site", "city": "Denver", "state": "Colorado", "zip": "80206", "country": "United States", "geoPoint": {"lat": 39.73915, "lon": -104.9847}}, {"facility": "GSK Investigational Site", "city": "New Haven", "state": "Connecticut", "zip": "6504", "country": "United States", "geoPoint": {"lat": 41.30815, "lon": -72.92816}}, {"facility": "GSK Investigational Site", "city": "Albany", "state": "Georgia", "zip": "31707", "country": "United States", "geoPoint": {"lat": 31.57851, "lon": -84.15574}}, {"facility": "GSK Investigational Site", "city": "Baltimore", "state": "Maryland", "zip": "21224", "country": "United States", "geoPoint": {"lat": 39.29038, "lon": -76.61219}}, {"facility": "GSK Investigational Site", "city": "Rochester", "state": "Minnesota", "zip": "55905", "country": "United States", "geoPoint": {"lat": 44.02163, "lon": -92.4699}}, {"facility": "GSK Investigational Site", "city": "Rochester", "state": "New York", "zip": "14642", "country": "United States", "geoPoint": {"lat": 43.15478, "lon": -77.61556}}, {"facility": "GSK Investigational Site", "city": "Durham", "state": "North Carolina", "zip": "27705", "country": "United States", "geoPoint": {"lat": 35.99403, "lon": -78.89862}}, {"facility": "GSK Investigational Site", "city": "Winston-Salem", "state": "North Carolina", "zip": "27104", "country": "United States", "geoPoint": {"lat": 36.09986, "lon": -80.24422}}, {"facility": "GSK Investigational Site", "city": "Hershey", "state": "Pennsylvania", "zip": "17033", "country": "United States", "geoPoint": {"lat": 40.28592, "lon": -76.65025}}, {"facility": "GSK Investigational Site", "city": "Nashville", "state": "Tennessee", "zip": "37212", "country": "United States", "geoPoint": {"lat": 36.16589, "lon": -86.78444}}, {"facility": "GSK Investigational Site", "city": "Murray", "state": "Utah", "zip": "84107", "country": "United States", "geoPoint": {"lat": 40.66689, "lon": -111.88799}}, {"facility": "GSK Investigational Site", "city": "San Rafael", "state": "Mendoza", "zip": "5600", "country": "Argentina", "geoPoint": {"lat": -34.61772, "lon": -68.33007}}, {"facility": "GSK Investigational Site", "city": "Rosario", "state": "Santa Fe", "zip": "S2000DBS", "country": "Argentina", "geoPoint": {"lat": -32.94682, "lon": -60.63932}}, {"facility": "GSK Investigational Site", "city": "Buenos Aires", "zip": "C1424BSF", "country": "Argentina", "geoPoint": {"lat": -34.61315, "lon": -58.37723}}, {"facility": "GSK Investigational Site", "city": "Ciudad Aut\u00f3noma de Buenos Aires", "zip": "C1426ABP", "country": "Argentina", "geoPoint": {"lat": -34.61315, "lon": -58.37723}}, {"facility": "GSK Investigational Site", "city": "Mendoza", "zip": "M5500CCG", "country": "Argentina", "geoPoint": {"lat": -32.89084, "lon": -68.82717}}, {"facility": "GSK Investigational Site", "city": "New Lambton", "state": "New South Wales", "zip": "2305", "country": "Australia", "geoPoint": {"lat": -32.95, "lon": 151.68333}}, {"facility": "GSK Investigational Site", "city": "Nedlands", "state": "Western Australia", "zip": "6009", "country": "Australia", "geoPoint": {"lat": -31.98184, "lon": 115.8073}}, {"facility": "GSK Investigational Site", "city": "Montreal", "state": "Quebec", "zip": "H4J 1C5", "country": "Canada", "geoPoint": {"lat": 45.50884, "lon": -73.58781}}, {"facility": "GSK Investigational Site", "city": "Montr\u00e9al", "state": "Quebec", "zip": "H2X 3E4", "country": "Canada", "geoPoint": {"lat": 45.50884, "lon": -73.58781}}, {"facility": "GSK Investigational Site", "city": "St. Charles-Borromee", "state": "Quebec", "zip": "J6E 2B4", "country": "Canada", "geoPoint": {"lat": 46.05007, "lon": -73.46586}}, {"facility": "GSK Investigational Site", "city": "Qu\u00e9bec", "zip": "G1V 4G5", "country": "Canada", "geoPoint": {"lat": 46.81228, "lon": -71.21454}}, {"facility": "GSK Investigational Site", "city": "Le Kremlin-Bic\u00eatre Cedex", "zip": "94275", "country": "France", "geoPoint": {"lat": 48.81471, "lon": 2.36073}}, {"facility": "GSK Investigational Site", "city": "Lille cedex", "zip": "59037", "country": "France", "geoPoint": {"lat": 50.63297, "lon": 3.05858}}, {"facility": "GSK Investigational Site", "city": "Marseille Cedex 20", "zip": "13915", "country": "France", "geoPoint": {"lat": 43.29551, "lon": 5.38958}}, {"facility": "GSK Investigational Site", "city": "Montpellier cedex 5", "zip": "34295", "country": "France", "geoPoint": {"lat": 43.61092, "lon": 3.87723}}, {"facility": "GSK Investigational Site", "city": "Paris Cedex 18", "zip": "75877", "country": "France", "geoPoint": {"lat": 48.85341, "lon": 2.3488}}, {"facility": "GSK Investigational Site", "city": "Frankfurt am Main", "state": "Hessen", "zip": "60596", "country": "Germany", "geoPoint": {"lat": 50.11552, "lon": 8.68417}}, {"facility": "GSK Investigational Site", "city": "Frankfurt", "state": "Hessen", "zip": "60596", "country": "Germany", "geoPoint": {"lat": 50.11552, "lon": 8.68417}}, {"facility": "GSK Investigational Site", "city": "Gelnhausen", "state": "Hessen", "zip": "63571", "country": "Germany", "geoPoint": {"lat": 50.20164, "lon": 9.18742}}, {"facility": "GSK Investigational Site", "city": "Neu-Isenburg", "state": "Hessen", "zip": "63263", "country": "Germany", "geoPoint": {"lat": 50.04832, "lon": 8.69406}}, {"facility": "GSK Investigational Site", "city": "Luebeck", "state": "Schleswig-Holstein", "zip": "23552", "country": "Germany", "geoPoint": {"lat": 53.86893, "lon": 10.68729}}, {"facility": "GSK Investigational Site", "city": "Berlin", "zip": "10367", "country": "Germany", "geoPoint": {"lat": 52.52437, "lon": 13.41053}}, {"facility": "GSK Investigational Site", "city": "Magdeburg", "zip": "39120", "country": "Germany", "geoPoint": {"lat": 52.12773, "lon": 11.62916}}, {"facility": "GSK Investigational Site", "city": "Chiba", "zip": "296-8602", "country": "Japan", "geoPoint": {"lat": 35.6, "lon": 140.11667}}, {"facility": "GSK Investigational Site", "city": "Fukuoka", "zip": "802-0052", "country": "Japan", "geoPoint": {"lat": 33.6, "lon": 130.41667}}, {"facility": "GSK Investigational Site", "city": "Fukuoka", "zip": "811-1394", "country": "Japan", "geoPoint": {"lat": 33.6, "lon": 130.41667}}, {"facility": "GSK Investigational Site", "city": "Gunma", "zip": "370-0615", "country": "Japan", "geoPoint": {"lat": 36.52592, "lon": 138.97142}}, {"facility": "GSK Investigational Site", "city": "Ibaraki", "zip": "319-1113", "country": "Japan", "geoPoint": {"lat": 34.81641, "lon": 135.56828}}, {"facility": "GSK Investigational Site", "city": "Kanagawa", "zip": "252-0392", "country": "Japan", "geoPoint": {"lat": 37.58333, "lon": 139.91667}}, {"facility": "GSK Investigational Site", "city": "Osaka", "zip": "596-8501", "country": "Japan", "geoPoint": {"lat": 34.69374, "lon": 135.50218}}, {"facility": "GSK Investigational Site", "city": "Tokyo", "zip": "102-0083", "country": "Japan", "geoPoint": {"lat": 35.6895, "lon": 139.69171}}, {"facility": "GSK Investigational Site", "city": "Tokyo", "zip": "103-0027", "country": "Japan", "geoPoint": {"lat": 35.6895, "lon": 139.69171}}, {"facility": "GSK Investigational Site", "city": "Anyang-Si, Gyeonggi-do", "zip": "14068", "country": "Korea, Republic of"}, {"facility": "GSK Investigational Site", "city": "Bucheon-si, Gyeonggi-do", "zip": "14584", "country": "Korea, Republic of", "geoPoint": {"lat": 37.49889, "lon": 126.78306}}, {"facility": "GSK Investigational Site", "city": "Cheongju-si, Chungcheongbuk-do", "zip": "28644", "country": "Korea, Republic of"}, {"facility": "GSK Investigational Site", "city": "Gwangju", "zip": "61469", "country": "Korea, Republic of", "geoPoint": {"lat": 35.15472, "lon": 126.91556}}, {"facility": "GSK Investigational Site", "city": "Seoul", "zip": "06973", "country": "Korea, Republic of", "geoPoint": {"lat": 37.566, "lon": 126.9784}}, {"facility": "GSK Investigational Site", "city": "Seoul", "zip": "120/752", "country": "Korea, Republic of", "geoPoint": {"lat": 37.566, "lon": 126.9784}}, {"facility": "GSK Investigational Site", "city": "Suwon-si, Gyeonggi-do", "zip": "16499", "country": "Korea, Republic of", "geoPoint": {"lat": 37.29111, "lon": 127.00889}}, {"facility": "GSK Investigational Site", "city": "Amsterdam", "zip": "1105 AZ", "country": "Netherlands", "geoPoint": {"lat": 52.37403, "lon": 4.88969}}, {"facility": "GSK Investigational Site", "city": "Leeuwarden", "zip": "8934 AD", "country": "Netherlands", "geoPoint": {"lat": 53.20139, "lon": 5.80859}}, {"facility": "GSK Investigational Site", "city": "Bialystok", "zip": "15-044", "country": "Poland", "geoPoint": {"lat": 53.13333, "lon": 23.16433}}, {"facility": "GSK Investigational Site", "city": "Krakow", "zip": "30-033", "country": "Poland", "geoPoint": {"lat": 50.06143, "lon": 19.93658}}, {"facility": "GSK Investigational Site", "city": "Lodz", "zip": "90-153", "country": "Poland", "geoPoint": {"lat": 51.75, "lon": 19.46667}}, {"facility": "GSK Investigational Site", "city": "Wroclaw", "zip": "54-239", "country": "Poland", "geoPoint": {"lat": 51.1, "lon": 17.03333}}, {"facility": "GSK Investigational Site", "city": "Bucharest", "zip": "050159", "country": "Romania", "geoPoint": {"lat": 44.43225, "lon": 26.10626}}, {"facility": "GSK Investigational Site", "city": "Iasi", "zip": "700115", "country": "Romania", "geoPoint": {"lat": 47.16667, "lon": 27.6}}, {"facility": "GSK Investigational Site", "city": "Barnaul", "zip": "656 045", "country": "Russian Federation", "geoPoint": {"lat": 53.36056, "lon": 83.76361}}, {"facility": "GSK Investigational Site", "city": "Chelyabinsk", "zip": "454106", "country": "Russian Federation", "geoPoint": {"lat": 55.15402, "lon": 61.42915}}, {"facility": "GSK Investigational Site", "city": "Moscow", "zip": "123182", "country": "Russian Federation", "geoPoint": {"lat": 55.75222, "lon": 37.61556}}, {"facility": "GSK Investigational Site", "city": "Saint-Petersburg", "zip": "194354", "country": "Russian Federation", "geoPoint": {"lat": 59.93863, "lon": 30.31413}}, {"facility": "GSK Investigational Site", "city": "St. Petersburg", "zip": "194356", "country": "Russian Federation", "geoPoint": {"lat": 59.93863, "lon": 30.31413}}, {"facility": "GSK Investigational Site", "city": "Alicante", "zip": "03004", "country": "Spain", "geoPoint": {"lat": 38.34517, "lon": -0.48149}}, {"facility": "GSK Investigational Site", "city": "Barcelona", "zip": "08025", "country": "Spain", "geoPoint": {"lat": 41.38879, "lon": 2.15899}}, {"facility": "GSK Investigational Site", "city": "Barcelona", "zip": "08036", "country": "Spain", "geoPoint": {"lat": 41.38879, "lon": 2.15899}}, {"facility": "GSK Investigational Site", "city": "Pozuelo De Alarc\u00f3n/Madrid", "zip": "28223", "country": "Spain"}, {"facility": "GSK Investigational Site", "city": "Sabadell (Barcelona)", "zip": "08208", "country": "Spain"}, {"facility": "GSK Investigational Site", "city": "Dnipropetrovsk", "zip": "49074", "country": "Ukraine", "geoPoint": {"lat": 48.4593, "lon": 35.03864}}, {"facility": "GSK Investigational Site", "city": "Kharkiv", "zip": "61124", "country": "Ukraine", "geoPoint": {"lat": 49.98081, "lon": 36.25272}}, {"facility": "GSK Investigational Site", "city": "Mykolayiv", "zip": "54003", "country": "Ukraine", "geoPoint": {"lat": 46.96591, "lon": 31.9974}}, {"facility": "GSK Investigational Site", "city": "Vinnytsia", "zip": "21018", "country": "Ukraine", "geoPoint": {"lat": 49.23278, "lon": 28.48097}}]}, "referencesModule": {"references": [{"pmid": "34172470", "type": "DERIVED", "citation": "Moore WC, Kornmann O, Humbert M, Poirier C, Bel EH, Kaneko N, Smith SG, Martin N, Gilson MJ, Price RG, Bradford ES, Liu MC. Stopping versus continuing long-term mepolizumab treatment in severe eosinophilic asthma (COMET study). Eur Respir J. 2022 Jan 6;59(1):2100396. doi: 10.1183/13993003.00396-2021. Print 2022 Jan."}]}, "ipdSharingStatementModule": {"ipdSharing": "YES", "description": "IPD for this study will be made available via the Clinical Study Data Request site.", "infoTypes": ["STUDY_PROTOCOL", "SAP", "ICF", "CSR"], "timeFrame": "IPD will be made available within 6 months of publishing the results of the primary endpoints of the study.", "accessCriteria": "Access is provided after a research proposal is submitted and has received approval from the Independent Review Panel and after a Data Sharing Agreement is in place. Access is provided for an initial period of 12 months but an extension can be granted, when justified, for up to another 12 months.", "url": "http://clinicalstudydatarequest.com"}}, "resultsSection": {"participantFlowModule": {"preAssignmentDetails": "This is a 3 period study including variable open-label (OL) run-in, double-blind (DB) treatment period and open-label treatment switch period. The study was conducted in 75 centers across 14 countries from 07-Jan-2016 to 24-Jul-2019.", "recruitmentDetails": "A multi-center, randomized, double-blind, placebo controlled, parallel group study to compare cessation versus continuation of long-term mepolizumab treatment. Participants (par.) who completed the Follow Up/Exit Visit or Early Withdrawal Visit from study MEA115666 (NCT01691859) or 201312 (NCT02135692) were eligible to participate in this study.", "groups": [{"id": "FG000", "title": "Part A/B: Mepolizumab 100mg SC", "description": "Participants with less than 3 years of mepolizumab treatment entered variable open-label run-in period-Part A in order to reach 3 years of exposure and received 100 mg of mepolizumab injected subcutaneously (SC) once every 4 weeks (W) up to 132 weeks. Upon achieving 3 years exposure, participants entered Part B. Participants with at least 3 years of mepolizumab treatment directly entered fixed open-label run-in period-Part B and received 100 mg of mepolizumab injected SC once every 4 weeks up to 8 weeks."}, {"id": "FG001", "title": "Part C: Placebo", "description": "Upon completion of the fixed run-in period, participants entered a double-blind study treatment and received placebo SC every 4 weeks up to 52 weeks. Participants who experienced a clinically significant asthma exacerbation were assessed by the investigator to determine if they could continue double-blind treatment or should instead enter OL mepolizumab 100 mg SC every 4 weeks for the remainder of the treatment period (up to 52 weeks post-randomization)."}, {"id": "FG002", "title": "Part C: Mepolizumab 100mg SC", "description": "Upon completion of the fixed run-in period, participants entered a double-blind study treatment and received continued mepolizumab 100 mg SC every 4 weeks up to 52 weeks. Participants who experienced a clinically significant asthma exacerbation were assessed by the investigator to determine if they could continue double-blind treatment or should instead enter OL mepolizumab 100 mg SC every 4 weeks for the remainder of the treatment period (up to 52 weeks post-randomization)."}, {"id": "FG003", "title": "Part D: Mepolizumab 100mg SC (Previous Placebo)", "description": "Participants who experienced a clinically significant asthma exacerbation were assessed by the investigator to determine if they could continue double-blind treatment or should instead enter OL mepolizumab 100 mg SC every 4 weeks for the remainder of the treatment period (up to 52 weeks post-randomization in Part C)."}, {"id": "FG004", "title": "Part D: Mepolizumab 100mg SC (Previous Mepolizumab)", "description": "Participants who experienced a clinically significant asthma exacerbation were assessed by the investigator to determine if they could continue double-blind treatment or should instead enter OL mepolizumab 100 mg SC every 4 weeks for the remainder of the treatment period (up to 52 weeks post-randomization in Part C )."}], "periods": [{"title": "PartA(Upto 132W)+PartB(Upto 8W)", "milestones": [{"type": "STARTED", "comment": "Variable \\& fixed run-in periods have been combined since all par. received OL mepolizumab 100 mg SC", "achievements": [{"groupId": "FG000", "numSubjects": "306"}, {"groupId": "FG001", "numSubjects": "0"}, {"groupId": "FG002", "numSubjects": "0"}, {"groupId": "FG003", "numSubjects": "0"}, {"groupId": "FG004", "numSubjects": "0"}]}, {"type": "COMPLETED", "achievements": [{"groupId": "FG000", "numSubjects": "295"}, {"groupId": "FG001", "numSubjects": "0"}, {"groupId": "FG002", "numSubjects": "0"}, {"groupId": "FG003", "numSubjects": "0"}, {"groupId": "FG004", "numSubjects": "0"}]}, {"type": "NOT COMPLETED", "achievements": [{"groupId": "FG000", "numSubjects": "11"}, {"groupId": "FG001", "numSubjects": "0"}, {"groupId": "FG002", "numSubjects": "0"}, {"groupId": "FG003", "numSubjects": "0"}, {"groupId": "FG004", "numSubjects": "0"}]}], "dropWithdraws": [{"type": "Adverse Event", "reasons": [{"groupId": "FG000", "numSubjects": "1"}, {"groupId": "FG001", "numSubjects": "0"}, {"groupId": "FG002", "numSubjects": "0"}, {"groupId": "FG003", "numSubjects": "0"}, {"groupId": "FG004", "numSubjects": "0"}]}, {"type": "Failure to meet continuation criteria", "reasons": [{"groupId": "FG000", "numSubjects": "2"}, {"groupId": "FG001", "numSubjects": "0"}, {"groupId": "FG002", "numSubjects": "0"}, {"groupId": "FG003", "numSubjects": "0"}, {"groupId": "FG004", "numSubjects": "0"}]}, {"type": "Withdrawal by Subject", "reasons": [{"groupId": "FG000", "numSubjects": "5"}, {"groupId": "FG001", "numSubjects": "0"}, {"groupId": "FG002", "numSubjects": "0"}, {"groupId": "FG003", "numSubjects": "0"}, {"groupId": "FG004", "numSubjects": "0"}]}, {"type": "Physician Decision", "reasons": [{"groupId": "FG000", "numSubjects": "1"}, {"groupId": "FG001", "numSubjects": "0"}, {"groupId": "FG002", "numSubjects": "0"}, {"groupId": "FG003", "numSubjects": "0"}, {"groupId": "FG004", "numSubjects": "0"}]}, {"type": "Lack of Efficacy", "reasons": [{"groupId": "FG000", "numSubjects": "2"}, {"groupId": "FG001", "numSubjects": "0"}, {"groupId": "FG002", "numSubjects": "0"}, {"groupId": "FG003", "numSubjects": "0"}, {"groupId": "FG004", "numSubjects": "0"}]}]}, {"title": "Part C (DB Period: Up to 52W)", "milestones": [{"type": "STARTED", "comment": "Double-blind Treatment Period", "achievements": [{"groupId": "FG000", "numSubjects": "0"}, {"groupId": "FG001", "numSubjects": "151"}, {"groupId": "FG002", "numSubjects": "144"}, {"groupId": "FG003", "numSubjects": "0"}, {"groupId": "FG004", "numSubjects": "0"}]}, {"type": "COMPLETED", "achievements": [{"groupId": "FG000", "numSubjects": "0"}, {"groupId": "FG001", "numSubjects": "62"}, {"groupId": "FG002", "numSubjects": "96"}, {"groupId": "FG003", "numSubjects": "0"}, {"groupId": "FG004", "numSubjects": "0"}]}, {"type": "NOT COMPLETED", "achievements": [{"groupId": "FG000", "numSubjects": "0"}, {"groupId": "FG001", "numSubjects": "89"}, {"groupId": "FG002", "numSubjects": "48"}, {"groupId": "FG003", "numSubjects": "0"}, {"groupId": "FG004", "numSubjects": "0"}]}], "dropWithdraws": [{"type": "Switched to Part D treatment", "reasons": [{"groupId": "FG000", "numSubjects": "0"}, {"groupId": "FG001", "numSubjects": "84"}, {"groupId": "FG002", "numSubjects": "45"}, {"groupId": "FG003", "numSubjects": "0"}, {"groupId": "FG004", "numSubjects": "0"}]}, {"type": "Withdrawal by Subject", "reasons": [{"groupId": "FG000", "numSubjects": "0"}, {"groupId": "FG001", "numSubjects": "2"}, {"groupId": "FG002", "numSubjects": "2"}, {"groupId": "FG003", "numSubjects": "0"}, {"groupId": "FG004", "numSubjects": "0"}]}, {"type": "Lack of Efficacy", "reasons": [{"groupId": "FG000", "numSubjects": "0"}, {"groupId": "FG001", "numSubjects": "1"}, {"groupId": "FG002", "numSubjects": "0"}, {"groupId": "FG003", "numSubjects": "0"}, {"groupId": "FG004", "numSubjects": "0"}]}, {"type": "Adverse Event", "reasons": [{"groupId": "FG000", "numSubjects": "0"}, {"groupId": "FG001", "numSubjects": "2"}, {"groupId": "FG002", "numSubjects": "1"}, {"groupId": "FG003", "numSubjects": "0"}, {"groupId": "FG004", "numSubjects": "0"}]}]}, {"title": "PartD(OL: 52W Post-randomization PartC)", "milestones": [{"type": "STARTED", "achievements": [{"groupId": "FG000", "numSubjects": "0"}, {"groupId": "FG001", "numSubjects": "0"}, {"groupId": "FG002", "numSubjects": "0"}, {"groupId": "FG003", "numSubjects": "84"}, {"groupId": "FG004", "numSubjects": "45"}]}, {"type": "COMPLETED", "achievements": [{"groupId": "FG000", "numSubjects": "0"}, {"groupId": "FG001", "numSubjects": "0"}, {"groupId": "FG002", "numSubjects": "0"}, {"groupId": "FG003", "numSubjects": "80"}, {"groupId": "FG004", "numSubjects": "42"}]}, {"type": "NOT COMPLETED", "achievements": [{"groupId": "FG000", "numSubjects": "0"}, {"groupId": "FG001", "numSubjects": "0"}, {"groupId": "FG002", "numSubjects": "0"}, {"groupId": "FG003", "numSubjects": "4"}, {"groupId": "FG004", "numSubjects": "3"}]}], "dropWithdraws": [{"type": "Withdrawal by Subject", "reasons": [{"groupId": "FG000", "numSubjects": "0"}, {"groupId": "FG001", "numSubjects": "0"}, {"groupId": "FG002", "numSubjects": "0"}, {"groupId": "FG003", "numSubjects": "1"}, {"groupId": "FG004", "numSubjects": "0"}]}, {"type": "Physician Decision", "reasons": [{"groupId": "FG000", "numSubjects": "0"}, {"groupId": "FG001", "numSubjects": "0"}, {"groupId": "FG002", "numSubjects": "0"}, {"groupId": "FG003", "numSubjects": "2"}, {"groupId": "FG004", "numSubjects": "0"}]}, {"type": "Lost to Follow-up", "reasons": [{"groupId": "FG000", "numSubjects": "0"}, {"groupId": "FG001", "numSubjects": "0"}, {"groupId": "FG002", "numSubjects": "0"}, {"groupId": "FG003", "numSubjects": "0"}, {"groupId": "FG004", "numSubjects": "2"}]}, {"type": "Lack of Efficacy", "reasons": [{"groupId": "FG000", "numSubjects": "0"}, {"groupId": "FG001", "numSubjects": "0"}, {"groupId": "FG002", "numSubjects": "0"}, {"groupId": "FG003", "numSubjects": "0"}, {"groupId": "FG004", "numSubjects": "1"}]}, {"type": "Adverse Event", "reasons": [{"groupId": "FG000", "numSubjects": "0"}, {"groupId": "FG001", "numSubjects": "0"}, {"groupId": "FG002", "numSubjects": "0"}, {"groupId": "FG003", "numSubjects": "1"}, {"groupId": "FG004", "numSubjects": "0"}]}]}]}, "baselineCharacteristicsModule": {"groups": [{"id": "BG000", "title": "Parts A/B: Mepolizumab 100mg SC", "description": "Participants with less than 3 years of mepolizumab treatment entered variable open-label run-in period-Part A in order to reach 3 years of exposure and received 100 mg of mepolizumab injected subcutaneously (SC) once every 4 weeks up to 132 weeks. Upon achieving 3 years exposure, participants entered Part B. Participants with at least 3 years of mepolizumab treatment directly entered fixed open-label run-in period-Part B and received 100 mg of mepolizumab injected SC once every 4 weeks up to 8 weeks."}], "denoms": [{"units": "Participants", "counts": [{"groupId": "BG000", "value": "306"}]}], "measures": [{"title": "Age, Continuous", "paramType": "MEAN", "dispersionType": "STANDARD_DEVIATION", "unitOfMeasure": "Years", "classes": [{"categories": [{"measurements": [{"groupId": "BG000", "value": "55.6", "spread": "11.74"}]}]}]}, {"title": "Sex: Female, Male", "paramType": "COUNT_OF_PARTICIPANTS", "unitOfMeasure": "Participants", "classes": [{"categories": [{"title": "Female", "measurements": [{"groupId": "BG000", "value": "180"}]}, {"title": "Male", "measurements": [{"groupId": "BG000", "value": "126"}]}]}]}, {"title": "Race/Ethnicity, Customized", "paramType": "COUNT_OF_PARTICIPANTS", "unitOfMeasure": "Participants", "classes": [{"title": "ASIAN - CENTRAL/SOUTH ASIAN HERITAGE", "categories": [{"measurements": [{"groupId": "BG000", "value": "1"}]}]}, {"title": "ASIAN - EAST ASIAN HERITAGE", "categories": [{"measurements": [{"groupId": "BG000", "value": "28"}]}]}, {"title": "ASIAN - JAPANESE HERITAGE", "categories": [{"measurements": [{"groupId": "BG000", "value": "21"}]}]}, {"title": "BLACK OR AFRICAN AMERICAN", "categories": [{"measurements": [{"groupId": "BG000", "value": "8"}]}]}, {"title": "WHITE - ARABIC/NORTH AFRICAN HERITAGE", "categories": [{"measurements": [{"groupId": "BG000", "value": "3"}]}]}, {"title": "WHITE - WHITE/CAUCASIAN/EUROPEAN HERITAGE", "categories": [{"measurements": [{"groupId": "BG000", "value": "245"}]}]}]}]}, "outcomeMeasuresModule": {"outcomeMeasures": [{"type": "PRIMARY", "title": "Percentage of Participants With First Clinically Significant Exacerbation in Part C", "description": "Clinically significant exacerbation was defined as worsening of asthma which requires use of systemic corticosteroids (e.g., prednisone) for at least 3 days or a single intramuscular (IM) corticosteroid dose and/or hospitalization and/or emergency department (ED) visits. For participants on maintenance systemic corticosteroids, at least double the existing maintenance dose for at least 3 days is required. Percentage of participants with clinically significant exacerbation over time during the on-treatment period of Part C and 95% confidence interval were estimated using Kaplan-Meier estimates. Intent-to-Treat Population includes all randomized participants who received at least one dose of double-blind study medication within Part C.", "populationDescription": "Intent-to-Treat Population.", "reportingStatus": "POSTED", "paramType": "NUMBER", "dispersionType": "95% Confidence Interval", "unitOfMeasure": "Percentage of participants", "timeFrame": "Weeks 12, 24, 36 and 52", "groups": [{"id": "OG000", "title": "Part C: Placebo", "description": "Upon completion of the fixed run-in period, participants entered a double-blind study treatment and received placebo SC every 4 weeks up to 52 weeks. Participants who experienced a clinically significant asthma exacerbation were assessed by the investigator to determine if they could continue double-blind treatment or should instead enter OL mepolizumab 100 mg SC every 4 weeks for the remainder of the treatment period (up to 52 weeks post-randomization)."}, {"id": "OG001", "title": "Part C: Mepolizumab 100mg SC", "description": "Upon completion of the fixed run-in period, participants entered a double-blind study treatment and received continued mepolizumab 100 mg SC every 4 weeks up to 52 weeks. Participants who experienced a clinically significant asthma exacerbation were assessed by the investigator to determine if they could continue double-blind treatment or should instead enter OL mepolizumab 100 mg SC every 4 weeks for the remainder of the treatment period (up to 52 weeks post-randomization)."}], "denoms": [{"units": "Participants", "counts": [{"groupId": "OG000", "value": "151"}, {"groupId": "OG001", "value": "144"}]}], "classes": [{"title": "Week 12", "categories": [{"measurements": [{"groupId": "OG000", "value": "31.8", "lowerLimit": "25.0", "upperLimit": "39.9"}, {"groupId": "OG001", "value": "20.2", "lowerLimit": "14.5", "upperLimit": "27.7"}]}]}, {"title": "Week 24", "categories": [{"measurements": [{"groupId": "OG000", "value": "49.3", "lowerLimit": "41.5", "upperLimit": "57.6"}, {"groupId": "OG001", "value": "32.3", "lowerLimit": "25.3", "upperLimit": "40.7"}]}]}, {"title": "Week 36", "categories": [{"measurements": [{"groupId": "OG000", "value": "56.0", "lowerLimit": "48.1", "upperLimit": "64.2"}, {"groupId": "OG001", "value": "40.3", "lowerLimit": "32.8", "upperLimit": "48.9"}]}]}, {"title": "Weeks 52", "categories": [{"measurements": [{"groupId": "OG000", "value": "60.7", "lowerLimit": "52.7", "upperLimit": "68.8"}, {"groupId": "OG001", "value": "47.1", "lowerLimit": "39.2", "upperLimit": "55.7"}]}]}], "analyses": [{"groupIds": ["OG000", "OG001"], "nonInferiorityType": "SUPERIORITY", "pValue": "0.004", "statisticalMethod": "Cox Proportional Hazards Model", "paramType": "Hazard Ratio (HR)", "paramValue": "0.62", "ciPctValue": "95", "ciNumSides": "TWO_SIDED", "ciLowerLimit": "0.45", "ciUpperLimit": "0.86", "estimateComment": "Treatment comparison between mepolizumab 100 mg SC and placebo using hazards ratio and 95% confidence interval has been presented."}]}, {"type": "SECONDARY", "title": "Ratio to Baseline in Blood Eosinophil Count in Part C", "description": "Blood samples were collected at specific time points to measure blood eosinophils level. Baseline was defined as the latest available assessment prior to first dose of double-blind treatment within Part C. Ratio to Baseline is defined as visit value divided by Baseline value and was analyzed using Mixed Model Repeated Measures with covariates of Baseline, region, exacerbations in the year prior to randomization (as an ordinal variable), Baseline maintenance oral corticosteroids (OCS) therapy (OCS versus no OCS), treatment and visit, plus interaction terms for visit by Baseline and visit by treatment group. The log transformation was applied to blood eosinophil counts prior to analysis. If a blood eosinophil count of zero was reported, a small value was added prior to log transforming the data. The dispersion measure used was log standard error.", "populationDescription": "Intent-to-Treat Population. Only those participants available at the specified time points were analyzed for each treatment and represented as n=X in category titles", "reportingStatus": "POSTED", "paramType": "LEAST_SQUARES_MEAN", "dispersionType": "Standard Error", "unitOfMeasure": "Ratio", "timeFrame": "Baseline and Weeks 12, 24, 36 and 52", "groups": [{"id": "OG000", "title": "Part C: Placebo", "description": "Upon completion of the fixed run-in period, participants entered a double-blind study treatment and received placebo SC every 4 weeks up to 52 weeks. Participants who experienced a clinically significant asthma exacerbation were assessed by the investigator to determine if they could continue double-blind treatment or should instead enter OL mepolizumab 100 mg SC every 4 weeks for the remainder of the treatment period (up to 52 weeks post-randomization)."}, {"id": "OG001", "title": "Part C: Mepolizumab 100mg SC", "description": "Upon completion of the fixed run-in period, participants entered a double-blind study treatment and received continued mepolizumab 100 mg SC every 4 weeks up to 52 weeks. Participants who experienced a clinically significant asthma exacerbation were assessed by the investigator to determine if they could continue double-blind treatment or should instead enter OL mepolizumab 100 mg SC every 4 weeks for the remainder of the treatment period (up to 52 weeks post-randomization)."}], "denoms": [{"units": "Participants", "counts": [{"groupId": "OG000", "value": "121"}, {"groupId": "OG001", "value": "120"}]}], "classes": [{"title": "Week 12, n=121, 120", "denoms": [{"units": "Participants", "counts": [{"groupId": "OG000", "value": "121"}, {"groupId": "OG001", "value": "120"}]}], "categories": [{"measurements": [{"groupId": "OG000", "value": "6.03", "spread": "0.077"}, {"groupId": "OG001", "value": "1.16", "spread": "0.078"}]}]}, {"title": "Week 24, n= 79, 106", "denoms": [{"units": "Participants", "counts": [{"groupId": "OG000", "value": "79"}, {"groupId": "OG001", "value": "106"}]}], "categories": [{"measurements": [{"groupId": "OG000", "value": "6.58", "spread": "0.095"}, {"groupId": "OG001", "value": "1.03", "spread": "0.084"}]}]}, {"title": "Week 36, n= 65, 99", "denoms": [{"units": "Participants", "counts": [{"groupId": "OG000", "value": "65"}, {"groupId": "OG001", "value": "99"}]}], "categories": [{"measurements": [{"groupId": "OG000", "value": "6.48", "spread": "0.093"}, {"groupId": "OG001", "value": "1.20", "spread": "0.079"}]}]}, {"title": "Week 52, n=60, 92", "denoms": [{"units": "Participants", "counts": [{"groupId": "OG000", "value": "60"}, {"groupId": "OG001", "value": "92"}]}], "categories": [{"measurements": [{"groupId": "OG000", "value": "6.17", "spread": "0.091"}, {"groupId": "OG001", "value": "1.00", "spread": "0.077"}]}]}], "analyses": [{"groupIds": ["OG000", "OG001"], "nonInferiorityType": "SUPERIORITY", "pValue": "<0.001", "statisticalMethod": "Mixed model repeated measures", "paramType": "Ratio", "paramValue": "0.19", "ciPctValue": "95", "ciNumSides": "TWO_SIDED", "ciLowerLimit": "0.15", "ciUpperLimit": "0.24", "estimateComment": "Treatment comparison between mepolizumab 100 mg SC and placebo using ratio of mepolizumab to placebo and its 95% confidence interval at Week 12 has been presented."}, {"groupIds": ["OG000", "OG001"], "nonInferiorityType": "SUPERIORITY", "pValue": "<0.001", "statisticalMethod": "Mixed model repeated measures", "paramType": "Ratio", "paramValue": "0.16", "ciPctValue": "95", "ciNumSides": "TWO_SIDED", "ciLowerLimit": "0.12", "ciUpperLimit": "0.20", "estimateComment": "Treatment comparison between mepolizumab 100 mg SC and placebo using ratio of mepolizumab to placebo and its 95% confidence interval at Week 24 has been presented."}, {"groupIds": ["OG000", "OG001"], "nonInferiorityType": "SUPERIORITY", "pValue": "<0.001", "statisticalMethod": "Mixed model repeated measures", "paramType": "Ratio", "paramValue": "0.19", "ciPctValue": "95", "ciNumSides": "TWO_SIDED", "ciLowerLimit": "0.15", "ciUpperLimit": "0.24", "estimateComment": "Treatment comparison between mepolizumab 100 mg SC and placebo using ratio of mepolizumab to placebo and its 95% confidence interval at Week 36 has been presented."}, {"groupIds": ["OG000", "OG001"], "nonInferiorityType": "SUPERIORITY", "pValue": "<0.001", "statisticalMethod": "Mixed model repeated measures", "paramType": "Ratio", "paramValue": "0.16", "ciPctValue": "95", "ciNumSides": "TWO_SIDED", "ciLowerLimit": "0.13", "ciUpperLimit": "0.20", "estimateComment": "Treatment comparison between mepolizumab 100 mg SC and placebo using ratio of mepolizumab to placebo and its 95% confidence interval at Week 52 has been presented."}]}, {"type": "SECONDARY", "title": "Percentage of Participants With 0.5 Point or More Increase in Asthma Control Questionnaire (ACQ)-5 Score From Baseline in Part C", "description": "The ACQ-5 is a five-item, self-completed questionnaire. Five questions (concerning nocturnal awakening, waking in the morning, activity limitation, shortness of breath and wheeze) enquire about the frequency and/or severity of symptoms over the previous week. The response ranges from zero (no impairment/limitation) to six (total impairment/ limitation) scale. Increase in score of \\>= 0.5 units from Baseline indicates decrease in asthma control. Baseline is the latest available assessment prior to first dose of double-blind treatment within Part C. Percentage of participants with a 0.5 point or more increase in ACQ-5 score from Baseline over time during the on-treatment period of Part C and its 95% confidence interval were estimated using Kaplan-Meier estimates.", "populationDescription": "Intent-to-Treat Population.", "reportingStatus": "POSTED", "paramType": "NUMBER", "dispersionType": "95% Confidence Interval", "unitOfMeasure": "Percentage of participants", "timeFrame": "Baseline and Weeks 12, 24, 36 and 52", "groups": [{"id": "OG000", "title": "Part C: Placebo", "description": "Upon completion of the fixed run-in period, participants entered a double-blind study treatment and received placebo SC every 4 weeks up to 52 weeks. Participants who experienced a clinically significant asthma exacerbation were assessed by the investigator to determine if they could continue double-blind treatment or should instead enter OL mepolizumab 100 mg SC every 4 weeks for the remainder of the treatment period (up to 52 weeks post-randomization)."}, {"id": "OG001", "title": "Part C: Mepolizumab 100mg SC", "description": "Upon completion of the fixed run-in period, participants entered a double-blind study treatment and received continued mepolizumab 100 mg SC every 4 weeks up to 52 weeks. Participants who experienced a clinically significant asthma exacerbation were assessed by the investigator to determine if they could continue double-blind treatment or should instead enter OL mepolizumab 100 mg SC every 4 weeks for the remainder of the treatment period (up to 52 weeks post-randomization)."}], "denoms": [{"units": "Participants", "counts": [{"groupId": "OG000", "value": "151"}, {"groupId": "OG001", "value": "144"}]}], "classes": [{"title": "Week 12", "categories": [{"measurements": [{"groupId": "OG000", "value": "44.5", "lowerLimit": "36.9", "upperLimit": "52.8"}, {"groupId": "OG001", "value": "39.3", "lowerLimit": "31.8", "upperLimit": "47.8"}]}]}, {"title": "Week 24", "categories": [{"measurements": [{"groupId": "OG000", "value": "69.5", "lowerLimit": "61.6", "upperLimit": "77.1"}, {"groupId": "OG001", "value": "49.3", "lowerLimit": "41.3", "upperLimit": "57.9"}]}]}, {"title": "Week 36", "categories": [{"measurements": [{"groupId": "OG000", "value": "74.9", "lowerLimit": "67.1", "upperLimit": "82.1"}, {"groupId": "OG001", "value": "56.0", "lowerLimit": "47.8", "upperLimit": "64.6"}]}]}, {"title": "Weeks 52", "categories": [{"measurements": [{"groupId": "OG000", "value": "79.0", "lowerLimit": "71.3", "upperLimit": "85.7"}, {"groupId": "OG001", "value": "63.1", "lowerLimit": "54.8", "upperLimit": "71.5"}]}]}], "analyses": [{"groupIds": ["OG000", "OG001"], "nonInferiorityType": "SUPERIORITY", "pValue": "0.005", "statisticalMethod": "Cox Proportional Hazards Model", "paramType": "Hazard Ratio (HR)", "paramValue": "0.66", "ciPctValue": "95", "ciNumSides": "TWO_SIDED", "ciLowerLimit": "0.49", "ciUpperLimit": "0.88", "estimateComment": "Treatment comparison between mepolizumab 100 mg SC and placebo using hazards ratio and 95% confidence interval has been presented."}]}, {"type": "SECONDARY", "title": "Percentage of Participants With Time to First Exacerbation Requiring Hospitalization or ED Visit in Part C", "description": "Exacerbations of asthma requiring hospitalization or ED visit were assessed. The analysis was performed from Cox Proportional Hazards Model with covariates of treatment group, region, exacerbations in the year prior to randomization (as an ordinal variable) and Baseline maintenance OCS therapy (OCS versus no OCS). Percentage of participants with an exacerbation over time and its 95% confidence intervals were estimated using Kaplan-Meier estimates", "populationDescription": "Intent-to-Treat Population.", "reportingStatus": "POSTED", "paramType": "NUMBER", "dispersionType": "95% Confidence Interval", "unitOfMeasure": "Percentage of participants", "timeFrame": "Weeks 12, 24, 36 and 52", "groups": [{"id": "OG000", "title": "Part C: Placebo", "description": "Upon completion of the fixed run-in period, participants entered a double-blind study treatment and received placebo SC every 4 weeks up to 52 weeks. Participants who experienced a clinically significant asthma exacerbation were assessed by the investigator to determine if they could continue double-blind treatment or should instead enter OL mepolizumab 100 mg SC every 4 weeks for the remainder of the treatment period (up to 52 weeks post-randomization)."}, {"id": "OG001", "title": "Part C: Mepolizumab 100mg SC", "description": "Upon completion of the fixed run-in period, participants entered a double-blind study treatment and received continued mepolizumab 100 mg SC every 4 weeks up to 52 weeks. Participants who experienced a clinically significant asthma exacerbation were assessed by the investigator to determine if they could continue double-blind treatment or should instead enter OL mepolizumab 100 mg SC every 4 weeks for the remainder of the treatment period (up to 52 weeks post-randomization)."}], "denoms": [{"units": "Participants", "counts": [{"groupId": "OG000", "value": "151"}, {"groupId": "OG001", "value": "144"}]}], "classes": [{"title": "Week 12", "categories": [{"measurements": [{"groupId": "OG000", "value": "2.9", "lowerLimit": "1.1", "upperLimit": "7.5"}, {"groupId": "OG001", "value": "2.8", "lowerLimit": "1.1", "upperLimit": "7.2"}]}]}, {"title": "Week 24", "categories": [{"measurements": [{"groupId": "OG000", "value": "5.7", "lowerLimit": "2.7", "upperLimit": "11.8"}, {"groupId": "OG001", "value": "5.1", "lowerLimit": "2.4", "upperLimit": "10.3"}]}]}, {"title": "Week 36", "categories": [{"measurements": [{"groupId": "OG000", "value": "5.7", "lowerLimit": "2.7", "upperLimit": "11.8"}, {"groupId": "OG001", "value": "5.9", "lowerLimit": "3.0", "upperLimit": "11.6"}]}]}, {"title": "Weeks 52", "categories": [{"measurements": [{"groupId": "OG000", "value": "5.7", "lowerLimit": "2.7", "upperLimit": "11.8"}, {"groupId": "OG001", "value": "7.9", "lowerLimit": "4.3", "upperLimit": "14.3"}]}]}], "analyses": [{"groupIds": ["OG000", "OG001"], "nonInferiorityType": "SUPERIORITY", "pValue": "0.570", "statisticalMethod": "Cox Proportional Hazards Model", "paramType": "Hazard Ratio (HR)", "paramValue": "1.33", "ciPctValue": "95", "ciNumSides": "TWO_SIDED", "ciLowerLimit": "0.50", "ciUpperLimit": "3.51", "estimateComment": "Treatment comparison between mepolizumab 100 mg SC and placebo using hazards ratio and 95% confidence interval has been presented."}]}]}, "adverseEventsModule": {"frequencyThreshold": "3", "timeFrame": "Adverse Events (AEs) & Serious Adverse Events (SAEs) were collected for Part A/B: from first dose of OL mepolizumab in Parts A/B until the last dose of mepolizumab in Parts A/B (upto 132 weeks for Part A & upto 8 weeks for Part B); for Part C: from start of double blind treatment until the last dose of double-blind treatment (upto 52 weeks) & for Part D: from start of first dose of OL treatment in Part D until the last dose of OL treatment in Part D (upto 52 weeks post-randomization in Part C)", "description": "AEs and SAEs were collected for As Treated Population which comprised of all participants who received at least one dose of open label mepolizumab for Parts A/B and Part D. Intent-to-Treat (ITT) Population was used for Part C which comprised of all randomized participants who received at least one dose of double-blind study medication. Combined data for parts A and B are presented since all par. received OL mepolizumab 100 mg SC.", "eventGroups": [{"id": "EG000", "title": "Part A/B: Mepolizumab 100mg SC", "description": "Participants with less than 3 years of mepolizumab treatment entered variable open-label run-in period-Part A in order to reach 3 years of exposure and received 100 mg of mepolizumab injected subcutaneously (SC) once every 4 weeks (W) up to 132 weeks. Upon achieving 3 years exposure, participants entered Part B. Participants with at least 3 years of mepolizumab treatment directly entered fixed open-label run-in period-Part B and received 100 mg of mepolizumab injected SC once every 4 weeks up to 8 weeks.", "deathsNumAffected": 0, "deathsNumAtRisk": 306, "seriousNumAffected": 7, "seriousNumAtRisk": 306, "otherNumAffected": 14, "otherNumAtRisk": 306}, {"id": "EG001", "title": "Part C: Placebo", "description": "Upon completion of the fixed run-in period, participants entered a double-blind study treatment and received placebo SC every 4 weeks up to 52 weeks. Participants who experienced a clinically significant asthma exacerbation were assessed by the investigator to determine if they could continue double-blind treatment or should instead enter OL mepolizumab 100 mg SC every 4 weeks for the remainder of the treatment period (up to 52 weeks post-randomization).", "deathsNumAffected": 0, "deathsNumAtRisk": 151, "seriousNumAffected": 10, "seriousNumAtRisk": 151, "otherNumAffected": 69, "otherNumAtRisk": 151}, {"id": "EG002", "title": "Part C: Mepolizumab 100mg", "description": "Upon completion of the fixed run-in period, participants entered a double-blind study treatment and received continued mepolizumab 100 mg SC every 4 weeks up to 52 weeks. Participants who experienced a clinically significant asthma exacerbation were assessed by the investigator to determine if they could continue double-blind treatment or should instead enter OL mepolizumab 100 mg SC every 4 weeks for the remainder of the treatment period (up to 52 weeks post-randomization).", "deathsNumAffected": 0, "deathsNumAtRisk": 144, "seriousNumAffected": 9, "seriousNumAtRisk": 144, "otherNumAffected": 82, "otherNumAtRisk": 144}, {"id": "EG003", "title": "Part D: Mepolizumab 100mg SC (Previous Placebo)", "description": "Participants who experienced a clinically significant asthma exacerbation were assessed by the investigator to determine if they could continue double-blind treatment or should instead enter OL mepolizumab 100 mg SC every 4 weeks for the remainder of the treatment period (up to 52 weeks post-randomization in Part C).", "deathsNumAffected": 1, "deathsNumAtRisk": 84, "seriousNumAffected": 10, "seriousNumAtRisk": 84, "otherNumAffected": 44, "otherNumAtRisk": 84}, {"id": "EG004", "title": "Part D: Mepolizumab 100mg SC (Previous Mepolizumab)", "description": "Participants who experienced a clinically significant asthma exacerbation were assessed by the investigator to determine if they could continue double-blind treatment or should instead enter OL mepolizumab 100 mg SC every 4 weeks for the remainder of the treatment period (up to 52 weeks post-randomization in Part C).", "deathsNumAffected": 0, "deathsNumAtRisk": 45, "seriousNumAffected": 4, "seriousNumAtRisk": 45, "otherNumAffected": 32, "otherNumAtRisk": 45}], "seriousEvents": [{"term": "Cytomegalovirus infection", "organSystem": "Infections and infestations", "sourceVocabulary": "MedDRA 22.0", "assessmentType": "SYSTEMATIC_ASSESSMENT", "stats": [{"groupId": "EG000", "numEvents": 1, "numAffected": 1, "numAtRisk": 306}, {"groupId": "EG001", "numEvents": 0, "numAffected": 0, "numAtRisk": 151}, {"groupId": "EG002", "numEvents": 0, "numAffected": 0, "numAtRisk": 144}, {"groupId": "EG003", "numEvents": 0, "numAffected": 0, "numAtRisk": 84}, {"groupId": "EG004", "numEvents": 0, "numAffected": 0, "numAtRisk": 45}]}, {"term": "Influenza", "organSystem": "Infections and infestations", "sourceVocabulary": "MedDRA 22.0", "assessmentType": "SYSTEMATIC_ASSESSMENT", "stats": [{"groupId": "EG000", "numEvents": 1, "numAffected": 1, "numAtRisk": 306}, {"groupId": "EG001", "numEvents": 0, "numAffected": 0, "numAtRisk": 151}, {"groupId": "EG002", "numEvents": 0, "numAffected": 0, "numAtRisk": 144}, {"groupId": "EG003", "numEvents": 0, "numAffected": 0, "numAtRisk": 84}, {"groupId": "EG004", "numEvents": 0, "numAffected": 0, "numAtRisk": 45}]}, {"term": "Pharyngeal abscess", "organSystem": "Infections and infestations", "sourceVocabulary": "MedDRA 22.0", "assessmentType": "SYSTEMATIC_ASSESSMENT", "stats": [{"groupId": "EG000", "numEvents": 1, "numAffected": 1, "numAtRisk": 306}, {"groupId": "EG001", "numEvents": 0, "numAffected": 0, "numAtRisk": 151}, {"groupId": "EG002", "numEvents": 0, "numAffected": 0, "numAtRisk": 144}, {"groupId": "EG003", "numEvents": 0, "numAffected": 0, "numAtRisk": 84}, {"groupId": "EG004", "numEvents": 0, "numAffected": 0, "numAtRisk": 45}]}, {"term": "Urinary tract infection", "organSystem": "Infections and infestations", "sourceVocabulary": "MedDRA 22.0", "assessmentType": "SYSTEMATIC_ASSESSMENT", "stats": [{"groupId": "EG000", "numEvents": 1, "numAffected": 1, "numAtRisk": 306}, {"groupId": "EG001", "numEvents": 0, "numAffected": 0, "numAtRisk": 151}, {"groupId": "EG002", "numEvents": 0, "numAffected": 0, "numAtRisk": 144}, {"groupId": "EG003", "numEvents": 0, "numAffected": 0, "numAtRisk": 84}, {"groupId": "EG004", "numEvents": 0, "numAffected": 0, "numAtRisk": 45}]}, {"term": "Asthma", "organSystem": "Respiratory, thoracic and mediastinal disorders", "sourceVocabulary": "MedDRA 22.0", "assessmentType": "SYSTEMATIC_ASSESSMENT", "stats": [{"groupId": "EG000", "numEvents": 4, "numAffected": 3, "numAtRisk": 306}, {"groupId": "EG001", "numEvents": 6, "numAffected": 6, "numAtRisk": 151}, {"groupId": "EG002", "numEvents": 2, "numAffected": 2, "numAtRisk": 144}, {"groupId": "EG003", "numEvents": 4, "numAffected": 4, "numAtRisk": 84}, {"groupId": "EG004", "numEvents": 6, "numAffected": 4, "numAtRisk": 45}]}, {"term": "Abdominal hernia", "organSystem": "Gastrointestinal disorders", "sourceVocabulary": "MedDRA 22.0", "assessmentType": "SYSTEMATIC_ASSESSMENT", "stats": [{"groupId": "EG000", "numEvents": 1, "numAffected": 1, "numAtRisk": 306}, {"groupId": "EG001", "numEvents": 0, "numAffected": 0, "numAtRisk": 151}, {"groupId": "EG002", "numEvents": 0, "numAffected": 0, "numAtRisk": 144}, {"groupId": "EG003", "numEvents": 0, "numAffected": 0, "numAtRisk": 84}, {"groupId": "EG004", "numEvents": 0, "numAffected": 0, "numAtRisk": 45}]}, {"term": "Decreased appetite", "organSystem": "Metabolism and nutrition disorders", "sourceVocabulary": "MedDRA 22.0", "assessmentType": "SYSTEMATIC_ASSESSMENT", "stats": [{"groupId": "EG000", "numEvents": 1, "numAffected": 1, "numAtRisk": 306}, {"groupId": "EG001", "numEvents": 0, "numAffected": 0, "numAtRisk": 151}, {"groupId": "EG002", "numEvents": 0, "numAffected": 0, "numAtRisk": 144}, {"groupId": "EG003", "numEvents": 0, "numAffected": 0, "numAtRisk": 84}, {"groupId": "EG004", "numEvents": 0, "numAffected": 0, "numAtRisk": 45}]}, {"term": "Malignant polyp", "organSystem": "Neoplasms benign, malignant and unspecified (incl cysts and polyps)", "sourceVocabulary": "MedDRA 22.0", "assessmentType": "SYSTEMATIC_ASSESSMENT", "stats": [{"groupId": "EG000", "numEvents": 1, "numAffected": 1, "numAtRisk": 306}, {"groupId": "EG001", "numEvents": 0, "numAffected": 0, "numAtRisk": 151}, {"groupId": "EG002", "numEvents": 0, "numAffected": 0, "numAtRisk": 144}, {"groupId": "EG003", "numEvents": 0, "numAffected": 0, "numAtRisk": 84}, {"groupId": "EG004", "numEvents": 0, "numAffected": 0, "numAtRisk": 45}]}, {"term": "Appendicitis", "organSystem": "Infections and infestations", "sourceVocabulary": "MedDRA 22.0", "assessmentType": "SYSTEMATIC_ASSESSMENT", "stats": [{"groupId": "EG000", "numEvents": 0, "numAffected": 0, "numAtRisk": 306}, {"groupId": "EG001", "numEvents": 0, "numAffected": 0, "numAtRisk": 151}, {"groupId": "EG002", "numEvents": 1, "numAffected": 1, "numAtRisk": 144}, {"groupId": "EG003", "numEvents": 0, "numAffected": 0, "numAtRisk": 84}, {"groupId": "EG004", "numEvents": 0, "numAffected": 0, "numAtRisk": 45}]}, {"term": "Bronchitis", "organSystem": "Infections and infestations", "sourceVocabulary": "MedDRA 22.0", "assessmentType": "SYSTEMATIC_ASSESSMENT", "stats": [{"groupId": "EG000", "numEvents": 0, "numAffected": 0, "numAtRisk": 306}, {"groupId": "EG001", "numEvents": 1, "numAffected": 1, "numAtRisk": 151}, {"groupId": "EG002", "numEvents": 0, "numAffected": 0, "numAtRisk": 144}, {"groupId": "EG003", "numEvents": 0, "numAffected": 0, "numAtRisk": 84}, {"groupId": "EG004", "numEvents": 0, "numAffected": 0, "numAtRisk": 45}]}, {"term": "Diverticulitis", "organSystem": "Infections and infestations", "sourceVocabulary": "MedDRA 22.0", "assessmentType": "SYSTEMATIC_ASSESSMENT", "stats": [{"groupId": "EG000", "numEvents": 0, "numAffected": 0, "numAtRisk": 306}, {"groupId": "EG001", "numEvents": 0, "numAffected": 0, "numAtRisk": 151}, {"groupId": "EG002", "numEvents": 1, "numAffected": 1, "numAtRisk": 144}, {"groupId": "EG003", "numEvents": 0, "numAffected": 0, "numAtRisk": 84}, {"groupId": "EG004", "numEvents": 0, "numAffected": 0, "numAtRisk": 45}]}, {"term": "Escherichia pyelonephritis", "organSystem": "Infections and infestations", "sourceVocabulary": "MedDRA 22.0", "assessmentType": "SYSTEMATIC_ASSESSMENT", "stats": [{"groupId": "EG000", "numEvents": 0, "numAffected": 0, "numAtRisk": 306}, {"groupId": "EG001", "numEvents": 1, "numAffected": 1, "numAtRisk": 151}, {"groupId": "EG002", "numEvents": 0, "numAffected": 0, "numAtRisk": 144}, {"groupId": "EG003", "numEvents": 0, "numAffected": 0, "numAtRisk": 84}, {"groupId": "EG004", "numEvents": 0, "numAffected": 0, "numAtRisk": 45}]}, {"term": "Benign ovarian tumour", "organSystem": "Neoplasms benign, malignant and unspecified (incl cysts and polyps)", "sourceVocabulary": "MedDRA 22.0", "assessmentType": "SYSTEMATIC_ASSESSMENT", "stats": [{"groupId": "EG000", "numEvents": 0, "numAffected": 0, "numAtRisk": 306}, {"groupId": "EG001", "numEvents": 1, "numAffected": 1, "numAtRisk": 151}, {"groupId": "EG002", "numEvents": 0, "numAffected": 0, "numAtRisk": 144}, {"groupId": "EG003", "numEvents": 0, "numAffected": 0, "numAtRisk": 84}, {"groupId": "EG004", "numEvents": 0, "numAffected": 0, "numAtRisk": 45}]}, {"term": "Colon cancer stage 0", "organSystem": "Neoplasms benign, malignant and unspecified (incl cysts and polyps)", "sourceVocabulary": "MedDRA 22.0", "assessmentType": "SYSTEMATIC_ASSESSMENT", "stats": [{"groupId": "EG000", "numEvents": 0, "numAffected": 0, "numAtRisk": 306}, {"groupId": "EG001", "numEvents": 0, "numAffected": 0, "numAtRisk": 151}, {"groupId": "EG002", "numEvents": 1, "numAffected": 1, "numAtRisk": 144}, {"groupId": "EG003", "numEvents": 0, "numAffected": 0, "numAtRisk": 84}, {"groupId": "EG004", "numEvents": 0, "numAffected": 0, "numAtRisk": 45}]}, {"term": "Intraductal papillary mucinous neoplasm", "organSystem": "Neoplasms benign, malignant and unspecified (incl cysts and polyps)", "sourceVocabulary": "MedDRA 22.0", "assessmentType": "SYSTEMATIC_ASSESSMENT", "stats": [{"groupId": "EG000", "numEvents": 0, "numAffected": 0, "numAtRisk": 306}, {"groupId": "EG001", "numEvents": 0, "numAffected": 0, "numAtRisk": 151}, {"groupId": "EG002", "numEvents": 1, "numAffected": 1, "numAtRisk": 144}, {"groupId": "EG003", "numEvents": 0, "numAffected": 0, "numAtRisk": 84}, {"groupId": "EG004", "numEvents": 0, "numAffected": 0, "numAtRisk": 45}]}, {"term": "Prostate cancer", "organSystem": "Neoplasms benign, malignant and unspecified (incl cysts and polyps)", "sourceVocabulary": "MedDRA 22.0", "assessmentType": "SYSTEMATIC_ASSESSMENT", "stats": [{"groupId": "EG000", "numEvents": 0, "numAffected": 0, "numAtRisk": 306}, {"groupId": "EG001", "numEvents": 0, "numAffected": 0, "numAtRisk": 151}, {"groupId": "EG002", "numEvents": 1, "numAffected": 1, "numAtRisk": 144}, {"groupId": "EG003", "numEvents": 0, "numAffected": 0, "numAtRisk": 84}, {"groupId": "EG004", "numEvents": 0, "numAffected": 0, "numAtRisk": 45}]}, {"term": "Uterine leiomyoma", "organSystem": "Neoplasms benign, malignant and unspecified (incl cysts and polyps)", "sourceVocabulary": "MedDRA 22.0", "assessmentType": "SYSTEMATIC_ASSESSMENT", "stats": [{"groupId": "EG000", "numEvents": 0, "numAffected": 0, "numAtRisk": 306}, {"groupId": "EG001", "numEvents": 1, "numAffected": 1, "numAtRisk": 151}, {"groupId": "EG002", "numEvents": 0, "numAffected": 0, "numAtRisk": 144}, {"groupId": "EG003", "numEvents": 0, "numAffected": 0, "numAtRisk": 84}, {"groupId": "EG004", "numEvents": 0, "numAffected": 0, "numAtRisk": 45}]}, {"term": "Device related thrombosis", "organSystem": "General disorders", "sourceVocabulary": "MedDRA 22.0", "assessmentType": "SYSTEMATIC_ASSESSMENT", "stats": [{"groupId": "EG000", "numEvents": 0, "numAffected": 0, "numAtRisk": 306}, {"groupId": "EG001", "numEvents": 1, "numAffected": 1, "numAtRisk": 151}, {"groupId": "EG002", "numEvents": 0, "numAffected": 0, "numAtRisk": 144}, {"groupId": "EG003", "numEvents": 0, "numAffected": 0, "numAtRisk": 84}, {"groupId": "EG004", "numEvents": 0, "numAffected": 0, "numAtRisk": 45}]}, {"term": "Non-cardiac chest pain", "organSystem": "General disorders", "sourceVocabulary": "MedDRA 22.0", "assessmentType": "SYSTEMATIC_ASSESSMENT", "stats": [{"groupId": "EG000", "numEvents": 0, "numAffected": 0, "numAtRisk": 306}, {"groupId": "EG001", "numEvents": 0, "numAffected": 0, "numAtRisk": 151}, {"groupId": "EG002", "numEvents": 1, "numAffected": 1, "numAtRisk": 144}, {"groupId": "EG003", "numEvents": 0, "numAffected": 0, "numAtRisk": 84}, {"groupId": "EG004", "numEvents": 0, "numAffected": 0, "numAtRisk": 45}]}, {"term": "Hip fracture", "organSystem": "Injury, poisoning and procedural complications", "sourceVocabulary": "MedDRA 22.0", "assessmentType": "SYSTEMATIC_ASSESSMENT", "stats": [{"groupId": "EG000", "numEvents": 0, "numAffected": 0, "numAtRisk": 306}, {"groupId": "EG001", "numEvents": 1, "numAffected": 1, "numAtRisk": 151}, {"groupId": "EG002", "numEvents": 0, "numAffected": 0, "numAtRisk": 144}, {"groupId": "EG003", "numEvents": 0, "numAffected": 0, "numAtRisk": 84}, {"groupId": "EG004", "numEvents": 0, "numAffected": 0, "numAtRisk": 45}]}, {"term": "Spinal fracture", "organSystem": "Injury, poisoning and procedural complications", "sourceVocabulary": "MedDRA 22.0", "assessmentType": "SYSTEMATIC_ASSESSMENT", "stats": [{"groupId": "EG000", "numEvents": 0, "numAffected": 0, "numAtRisk": 306}, {"groupId": "EG001", "numEvents": 0, "numAffected": 0, "numAtRisk": 151}, {"groupId": "EG002", "numEvents": 1, "numAffected": 1, "numAtRisk": 144}, {"groupId": "EG003", "numEvents": 0, "numAffected": 0, "numAtRisk": 84}, {"groupId": "EG004", "numEvents": 0, "numAffected": 0, "numAtRisk": 45}]}, {"term": "Diarrhoea", "organSystem": "Gastrointestinal disorders", "sourceVocabulary": "MedDRA 22.0", "assessmentType": "SYSTEMATIC_ASSESSMENT", "stats": [{"groupId": "EG000", "numEvents": 0, "numAffected": 0, "numAtRisk": 306}, {"groupId": "EG001", "numEvents": 0, "numAffected": 0, "numAtRisk": 151}, {"groupId": "EG002", "numEvents": 1, "numAffected": 1, "numAtRisk": 144}, {"groupId": "EG003", "numEvents": 0, "numAffected": 0, "numAtRisk": 84}, {"groupId": "EG004", "numEvents": 0, "numAffected": 0, "numAtRisk": 45}]}, {"term": "Cholelithiasis", "organSystem": "Hepatobiliary disorders", "sourceVocabulary": "MedDRA 22.0", "assessmentType": "SYSTEMATIC_ASSESSMENT", "stats": [{"groupId": "EG000", "numEvents": 0, "numAffected": 0, "numAtRisk": 306}, {"groupId": "EG001", "numEvents": 1, "numAffected": 1, "numAtRisk": 151}, {"groupId": "EG002", "numEvents": 0, "numAffected": 0, "numAtRisk": 144}, {"groupId": "EG003", "numEvents": 0, "numAffected": 0, "numAtRisk": 84}, {"groupId": "EG004", "numEvents": 0, "numAffected": 0, "numAtRisk": 45}]}, {"term": "Myasthenia gravis", "organSystem": "Nervous system disorders", "sourceVocabulary": "MedDRA 22.0", "assessmentType": "SYSTEMATIC_ASSESSMENT", "stats": [{"groupId": "EG000", "numEvents": 0, "numAffected": 0, "numAtRisk": 306}, {"groupId": "EG001", "numEvents": 0, "numAffected": 0, "numAtRisk": 151}, {"groupId": "EG002", "numEvents": 1, "numAffected": 1, "numAtRisk": 144}, {"groupId": "EG003", "numEvents": 0, "numAffected": 0, "numAtRisk": 84}, {"groupId": "EG004", "numEvents": 0, "numAffected": 0, "numAtRisk": 45}]}, {"term": "Acute respiratory failure", "organSystem": "Respiratory, thoracic and mediastinal disorders", "sourceVocabulary": "MedDRA 22.0", "assessmentType": "SYSTEMATIC_ASSESSMENT", "stats": [{"groupId": "EG000", "numEvents": 0, "numAffected": 0, "numAtRisk": 306}, {"groupId": "EG001", "numEvents": 0, "numAffected": 0, "numAtRisk": 151}, {"groupId": "EG002", "numEvents": 0, "numAffected": 0, "numAtRisk": 144}, {"groupId": "EG003", "numEvents": 1, "numAffected": 1, "numAtRisk": 84}, {"groupId": "EG004", "numEvents": 0, "numAffected": 0, "numAtRisk": 45}]}, {"term": "Paranasal cyst", "organSystem": "Respiratory, thoracic and mediastinal disorders", "sourceVocabulary": "MedDRA 22.0", "assessmentType": "SYSTEMATIC_ASSESSMENT", "stats": [{"groupId": "EG000", "numEvents": 0, "numAffected": 0, "numAtRisk": 306}, {"groupId": "EG001", "numEvents": 0, "numAffected": 0, "numAtRisk": 151}, {"groupId": "EG002", "numEvents": 0, "numAffected": 0, "numAtRisk": 144}, {"groupId": "EG003", "numEvents": 1, "numAffected": 1, "numAtRisk": 84}, {"groupId": "EG004", "numEvents": 0, "numAffected": 0, "numAtRisk": 45}]}, {"term": "Pneumonia aspiration", "organSystem": "Respiratory, thoracic and mediastinal disorders", "sourceVocabulary": "MedDRA 22.0", "assessmentType": "SYSTEMATIC_ASSESSMENT", "stats": [{"groupId": "EG000", "numEvents": 0, "numAffected": 0, "numAtRisk": 306}, {"groupId": "EG001", "numEvents": 0, "numAffected": 0, "numAtRisk": 151}, {"groupId": "EG002", "numEvents": 0, "numAffected": 0, "numAtRisk": 144}, {"groupId": "EG003", "numEvents": 1, "numAffected": 1, "numAtRisk": 84}, {"groupId": "EG004", "numEvents": 0, "numAffected": 0, "numAtRisk": 45}]}, {"term": "Inguinal hernia", "organSystem": "Gastrointestinal disorders", "sourceVocabulary": "MedDRA 22.0", "assessmentType": "SYSTEMATIC_ASSESSMENT", "stats": [{"groupId": "EG000", "numEvents": 0, "numAffected": 0, "numAtRisk": 306}, {"groupId": "EG001", "numEvents": 0, "numAffected": 0, "numAtRisk": 151}, {"groupId": "EG002", "numEvents": 0, "numAffected": 0, "numAtRisk": 144}, {"groupId": "EG003", "numEvents": 1, "numAffected": 1, "numAtRisk": 84}, {"groupId": "EG004", "numEvents": 0, "numAffected": 0, "numAtRisk": 45}]}, {"term": "Salivary gland calculus", "organSystem": "Gastrointestinal disorders", "sourceVocabulary": "MedDRA 22.0", "assessmentType": "SYSTEMATIC_ASSESSMENT", "stats": [{"groupId": "EG000", "numEvents": 0, "numAffected": 0, "numAtRisk": 306}, {"groupId": "EG001", "numEvents": 0, "numAffected": 0, "numAtRisk": 151}, {"groupId": "EG002", "numEvents": 0, "numAffected": 0, "numAtRisk": 144}, {"groupId": "EG003", "numEvents": 0, "numAffected": 0, "numAtRisk": 84}, {"groupId": "EG004", "numEvents": 1, "numAffected": 1, "numAtRisk": 45}]}, {"term": "Atypical pneumonia", "organSystem": "Infections and infestations", "sourceVocabulary": "MedDRA 22.0", "assessmentType": "SYSTEMATIC_ASSESSMENT", "stats": [{"groupId": "EG000", "numEvents": 0, "numAffected": 0, "numAtRisk": 306}, {"groupId": "EG001", "numEvents": 0, "numAffected": 0, "numAtRisk": 151}, {"groupId": "EG002", "numEvents": 0, "numAffected": 0, "numAtRisk": 144}, {"groupId": "EG003", "numEvents": 1, "numAffected": 1, "numAtRisk": 84}, {"groupId": "EG004", "numEvents": 0, "numAffected": 0, "numAtRisk": 45}]}, {"term": "Meniscus injury", "organSystem": "Injury, poisoning and procedural complications", "sourceVocabulary": "MedDRA 22.0", "assessmentType": "SYSTEMATIC_ASSESSMENT", "stats": [{"groupId": "EG000", "numEvents": 0, "numAffected": 0, "numAtRisk": 306}, {"groupId": "EG001", "numEvents": 0, "numAffected": 0, "numAtRisk": 151}, {"groupId": "EG002", "numEvents": 0, "numAffected": 0, "numAtRisk": 144}, {"groupId": "EG003", "numEvents": 1, "numAffected": 1, "numAtRisk": 84}, {"groupId": "EG004", "numEvents": 0, "numAffected": 0, "numAtRisk": 45}]}, {"term": "Rib fracture", "organSystem": "Injury, poisoning and procedural complications", "sourceVocabulary": "MedDRA 22.0", "assessmentType": "SYSTEMATIC_ASSESSMENT", "stats": [{"groupId": "EG000", "numEvents": 0, "numAffected": 0, "numAtRisk": 306}, {"groupId": "EG001", "numEvents": 0, "numAffected": 0, "numAtRisk": 151}, {"groupId": "EG002", "numEvents": 0, "numAffected": 0, "numAtRisk": 144}, {"groupId": "EG003", "numEvents": 1, "numAffected": 1, "numAtRisk": 84}, {"groupId": "EG004", "numEvents": 0, "numAffected": 0, "numAtRisk": 45}]}, {"term": "Traumatic haemothorax", "organSystem": "Injury, poisoning and procedural complications", "sourceVocabulary": "MedDRA 22.0", "assessmentType": "SYSTEMATIC_ASSESSMENT", "stats": [{"groupId": "EG000", "numEvents": 0, "numAffected": 0, "numAtRisk": 306}, {"groupId": "EG001", "numEvents": 0, "numAffected": 0, "numAtRisk": 151}, {"groupId": "EG002", "numEvents": 0, "numAffected": 0, "numAtRisk": 144}, {"groupId": "EG003", "numEvents": 1, "numAffected": 1, "numAtRisk": 84}, {"groupId": "EG004", "numEvents": 0, "numAffected": 0, "numAtRisk": 45}]}, {"term": "Hypoglycaemia", "organSystem": "Metabolism and nutrition disorders", "sourceVocabulary": "MedDRA 22.0", "assessmentType": "SYSTEMATIC_ASSESSMENT", "stats": [{"groupId": "EG000", "numEvents": 0, "numAffected": 0, "numAtRisk": 306}, {"groupId": "EG001", "numEvents": 0, "numAffected": 0, "numAtRisk": 151}, {"groupId": "EG002", "numEvents": 0, "numAffected": 0, "numAtRisk": 144}, {"groupId": "EG003", "numEvents": 1, "numAffected": 1, "numAtRisk": 84}, {"groupId": "EG004", "numEvents": 0, "numAffected": 0, "numAtRisk": 45}]}, {"term": "Sinusitis fungal", "organSystem": "Infections and infestations", "sourceVocabulary": "MedDRA 22.0", "assessmentType": "SYSTEMATIC_ASSESSMENT", "stats": [{"groupId": "EG000", "numEvents": 0, "numAffected": 0, "numAtRisk": 306}, {"groupId": "EG001", "numEvents": 0, "numAffected": 0, "numAtRisk": 151}, {"groupId": "EG002", "numEvents": 0, "numAffected": 0, "numAtRisk": 144}, {"groupId": "EG003", "numEvents": 1, "numAffected": 1, "numAtRisk": 84}, {"groupId": "EG004", "numEvents": 0, "numAffected": 0, "numAtRisk": 45}]}], "otherEvents": [{"term": "Nasopharyngitis", "organSystem": "Infections and infestations", "sourceVocabulary": "MedDRA 22.0", "assessmentType": "SYSTEMATIC_ASSESSMENT", "stats": [{"groupId": "EG000", "numEvents": 23, "numAffected": 14, "numAtRisk": 306}, {"groupId": "EG001", "numEvents": 44, "numAffected": 26, "numAtRisk": 151}, {"groupId": "EG002", "numEvents": 36, "numAffected": 27, "numAtRisk": 144}, {"groupId": "EG003", "numEvents": 22, "numAffected": 16, "numAtRisk": 84}, {"groupId": "EG004", "numEvents": 12, "numAffected": 9, "numAtRisk": 45}]}, {"term": "Upper respiratory tract infection", "organSystem": "Infections and infestations", "sourceVocabulary": "MedDRA 22.0", "assessmentType": "SYSTEMATIC_ASSESSMENT", "stats": [{"groupId": "EG000", "numEvents": 0, "numAffected": 0, "numAtRisk": 306}, {"groupId": "EG001", "numEvents": 18, "numAffected": 14, "numAtRisk": 151}, {"groupId": "EG002", "numEvents": 14, "numAffected": 12, "numAtRisk": 144}, {"groupId": "EG003", "numEvents": 5, "numAffected": 5, "numAtRisk": 84}, {"groupId": "EG004", "numEvents": 3, "numAffected": 3, "numAtRisk": 45}]}, {"term": "Sinusitis", "organSystem": "Infections and infestations", "sourceVocabulary": "MedDRA 22.0", "assessmentType": "SYSTEMATIC_ASSESSMENT", "stats": [{"groupId": "EG000", "numEvents": 0, "numAffected": 0, "numAtRisk": 306}, {"groupId": "EG001", "numEvents": 10, "numAffected": 9, "numAtRisk": 151}, {"groupId": "EG002", "numEvents": 14, "numAffected": 13, "numAtRisk": 144}, {"groupId": "EG003", "numEvents": 11, "numAffected": 7, "numAtRisk": 84}, {"groupId": "EG004", "numEvents": 8, "numAffected": 5, "numAtRisk": 45}]}, {"term": "Bronchitis", "organSystem": "Infections and infestations", "sourceVocabulary": "MedDRA 22.0", "assessmentType": "SYSTEMATIC_ASSESSMENT", "stats": [{"groupId": "EG000", "numEvents": 0, "numAffected": 0, "numAtRisk": 306}, {"groupId": "EG001", "numEvents": 5, "numAffected": 5, "numAtRisk": 151}, {"groupId": "EG002", "numEvents": 14, "numAffected": 14, "numAtRisk": 144}, {"groupId": "EG003", "numEvents": 8, "numAffected": 7, "numAtRisk": 84}, {"groupId": "EG004", "numEvents": 13, "numAffected": 8, "numAtRisk": 45}]}, {"term": "Respiratory tract infection viral", "organSystem": "Infections and infestations", "sourceVocabulary": "MedDRA 22.0", "assessmentType": "SYSTEMATIC_ASSESSMENT", "stats": [{"groupId": "EG000", "numEvents": 0, "numAffected": 0, "numAtRisk": 306}, {"groupId": "EG001", "numEvents": 2, "numAffected": 2, "numAtRisk": 151}, {"groupId": "EG002", "numEvents": 11, "numAffected": 6, "numAtRisk": 144}, {"groupId": "EG003", "numEvents": 0, "numAffected": 0, "numAtRisk": 84}, {"groupId": "EG004", "numEvents": 0, "numAffected": 0, "numAtRisk": 45}]}, {"term": "Viral upper respiratory tract infection", "organSystem": "Infections and infestations", "sourceVocabulary": "MedDRA 22.0", "assessmentType": "SYSTEMATIC_ASSESSMENT", "stats": [{"groupId": "EG000", "numEvents": 0, "numAffected": 0, "numAtRisk": 306}, {"groupId": "EG001", "numEvents": 7, "numAffected": 5, "numAtRisk": 151}, {"groupId": "EG002", "numEvents": 3, "numAffected": 3, "numAtRisk": 144}, {"groupId": "EG003", "numEvents": 0, "numAffected": 0, "numAtRisk": 84}, {"groupId": "EG004", "numEvents": 0, "numAffected": 0, "numAtRisk": 45}]}, {"term": "Influenza", "organSystem": "Infections and infestations", "sourceVocabulary": "MedDRA 22.0", "assessmentType": "SYSTEMATIC_ASSESSMENT", "stats": [{"groupId": "EG000", "numEvents": 0, "numAffected": 0, "numAtRisk": 306}, {"groupId": "EG001", "numEvents": 1, "numAffected": 1, "numAtRisk": 151}, {"groupId": "EG002", "numEvents": 5, "numAffected": 5, "numAtRisk": 144}, {"groupId": "EG003", "numEvents": 1, "numAffected": 1, "numAtRisk": 84}, {"groupId": "EG004", "numEvents": 2, "numAffected": 2, "numAtRisk": 45}]}, {"term": "Asthma", "organSystem": "Respiratory, thoracic and mediastinal disorders", "sourceVocabulary": "MedDRA 22.0", "assessmentType": "SYSTEMATIC_ASSESSMENT", "stats": [{"groupId": "EG000", "numEvents": 0, "numAffected": 0, "numAtRisk": 306}, {"groupId": "EG001", "numEvents": 16, "numAffected": 14, "numAtRisk": 151}, {"groupId": "EG002", "numEvents": 14, "numAffected": 10, "numAtRisk": 144}, {"groupId": "EG003", "numEvents": 7, "numAffected": 7, "numAtRisk": 84}, {"groupId": "EG004", "numEvents": 12, "numAffected": 4, "numAtRisk": 45}]}, {"term": "Cough", "organSystem": "Respiratory, thoracic and mediastinal disorders", "sourceVocabulary": "MedDRA 22.0", "assessmentType": "SYSTEMATIC_ASSESSMENT", "stats": [{"groupId": "EG000", "numEvents": 0, "numAffected": 0, "numAtRisk": 306}, {"groupId": "EG001", "numEvents": 7, "numAffected": 6, "numAtRisk": 151}, {"groupId": "EG002", "numEvents": 1, "numAffected": 1, "numAtRisk": 144}, {"groupId": "EG003", "numEvents": 0, "numAffected": 0, "numAtRisk": 84}, {"groupId": "EG004", "numEvents": 0, "numAffected": 0, "numAtRisk": 45}]}, {"term": "Back pain", "organSystem": "Musculoskeletal and connective tissue disorders", "sourceVocabulary": "MedDRA 22.0", "assessmentType": "SYSTEMATIC_ASSESSMENT", "stats": [{"groupId": "EG000", "numEvents": 0, "numAffected": 0, "numAtRisk": 306}, {"groupId": "EG001", "numEvents": 12, "numAffected": 6, "numAtRisk": 151}, {"groupId": "EG002", "numEvents": 8, "numAffected": 6, "numAtRisk": 144}, {"groupId": "EG003", "numEvents": 4, "numAffected": 3, "numAtRisk": 84}, {"groupId": "EG004", "numEvents": 2, "numAffected": 2, "numAtRisk": 45}]}, {"term": "Arthralgia", "organSystem": "Musculoskeletal and connective tissue disorders", "sourceVocabulary": "MedDRA 22.0", "assessmentType": "SYSTEMATIC_ASSESSMENT", "stats": [{"groupId": "EG000", "numEvents": 0, "numAffected": 0, "numAtRisk": 306}, {"groupId": "EG001", "numEvents": 3, "numAffected": 3, "numAtRisk": 151}, {"groupId": "EG002", "numEvents": 6, "numAffected": 6, "numAtRisk": 144}, {"groupId": "EG003", "numEvents": 0, "numAffected": 0, "numAtRisk": 84}, {"groupId": "EG004", "numEvents": 0, "numAffected": 0, "numAtRisk": 45}]}, {"term": "Headache", "organSystem": "Nervous system disorders", "sourceVocabulary": "MedDRA 22.0", "assessmentType": "SYSTEMATIC_ASSESSMENT", "stats": [{"groupId": "EG000", "numEvents": 0, "numAffected": 0, "numAtRisk": 306}, {"groupId": "EG001", "numEvents": 11, "numAffected": 9, "numAtRisk": 151}, {"groupId": "EG002", "numEvents": 12, "numAffected": 9, "numAtRisk": 144}, {"groupId": "EG003", "numEvents": 7, "numAffected": 6, "numAtRisk": 84}, {"groupId": "EG004", "numEvents": 7, "numAffected": 4, "numAtRisk": 45}]}, {"term": "Hypertension", "organSystem": "Vascular disorders", "sourceVocabulary": "MedDRA 22.0", "assessmentType": "SYSTEMATIC_ASSESSMENT", "stats": [{"groupId": "EG000", "numEvents": 0, "numAffected": 0, "numAtRisk": 306}, {"groupId": "EG001", "numEvents": 1, "numAffected": 1, "numAtRisk": 151}, {"groupId": "EG002", "numEvents": 6, "numAffected": 5, "numAtRisk": 144}, {"groupId": "EG003", "numEvents": 0, "numAffected": 0, "numAtRisk": 84}, {"groupId": "EG004", "numEvents": 0, "numAffected": 0, "numAtRisk": 45}]}, {"term": "Urinary tract infection", "organSystem": "Infections and infestations", "sourceVocabulary": "MedDRA 22.0", "assessmentType": "SYSTEMATIC_ASSESSMENT", "stats": [{"groupId": "EG000", "numEvents": 0, "numAffected": 0, "numAtRisk": 306}, {"groupId": "EG001", "numEvents": 0, "numAffected": 0, "numAtRisk": 151}, {"groupId": "EG002", "numEvents": 0, "numAffected": 0, "numAtRisk": 144}, {"groupId": "EG003", "numEvents": 6, "numAffected": 4, "numAtRisk": 84}, {"groupId": "EG004", "numEvents": 0, "numAffected": 0, "numAtRisk": 45}]}, {"term": "Chronic sinusitis", "organSystem": "Infections and infestations", "sourceVocabulary": "MedDRA 22.0", "assessmentType": "SYSTEMATIC_ASSESSMENT", "stats": [{"groupId": "EG000", "numEvents": 0, "numAffected": 0, "numAtRisk": 306}, {"groupId": "EG001", "numEvents": 0, "numAffected": 0, "numAtRisk": 151}, {"groupId": "EG002", "numEvents": 0, "numAffected": 0, "numAtRisk": 144}, {"groupId": "EG003", "numEvents": 1, "numAffected": 1, "numAtRisk": 84}, {"groupId": "EG004", "numEvents": 4, "numAffected": 2, "numAtRisk": 45}]}, {"term": "Pneumonia", "organSystem": "Infections and infestations", "sourceVocabulary": "MedDRA 22.0", "assessmentType": "SYSTEMATIC_ASSESSMENT", "stats": [{"groupId": "EG000", "numEvents": 0, "numAffected": 0, "numAtRisk": 306}, {"groupId": "EG001", "numEvents": 0, "numAffected": 0, "numAtRisk": 151}, {"groupId": "EG002", "numEvents": 0, "numAffected": 0, "numAtRisk": 144}, {"groupId": "EG003", "numEvents": 3, "numAffected": 3, "numAtRisk": 84}, {"groupId": "EG004", "numEvents": 0, "numAffected": 0, "numAtRisk": 45}]}, {"term": "Oral candidiasis", "organSystem": "Infections and infestations", "sourceVocabulary": "MedDRA 22.0", "assessmentType": "SYSTEMATIC_ASSESSMENT", "stats": [{"groupId": "EG000", "numEvents": 0, "numAffected": 0, "numAtRisk": 306}, {"groupId": "EG001", "numEvents": 0, "numAffected": 0, "numAtRisk": 151}, {"groupId": "EG002", "numEvents": 0, "numAffected": 0, "numAtRisk": 144}, {"groupId": "EG003", "numEvents": 0, "numAffected": 0, "numAtRisk": 84}, {"groupId": "EG004", "numEvents": 2, "numAffected": 2, "numAtRisk": 45}]}, {"term": "Tooth infection", "organSystem": "Infections and infestations", "sourceVocabulary": "MedDRA 22.0", "assessmentType": "SYSTEMATIC_ASSESSMENT", "stats": [{"groupId": "EG000", "numEvents": 0, "numAffected": 0, "numAtRisk": 306}, {"groupId": "EG001", "numEvents": 0, "numAffected": 0, "numAtRisk": 151}, {"groupId": "EG002", "numEvents": 0, "numAffected": 0, "numAtRisk": 144}, {"groupId": "EG003", "numEvents": 0, "numAffected": 0, "numAtRisk": 84}, {"groupId": "EG004", "numEvents": 2, "numAffected": 2, "numAtRisk": 45}]}, {"term": "Oropharyngeal pain", "organSystem": "Respiratory, thoracic and mediastinal disorders", "sourceVocabulary": "MedDRA 22.0", "assessmentType": "SYSTEMATIC_ASSESSMENT", "stats": [{"groupId": "EG000", "numEvents": 0, "numAffected": 0, "numAtRisk": 306}, {"groupId": "EG001", "numEvents": 0, "numAffected": 0, "numAtRisk": 151}, {"groupId": "EG002", "numEvents": 0, "numAffected": 0, "numAtRisk": 144}, {"groupId": "EG003", "numEvents": 3, "numAffected": 3, "numAtRisk": 84}, {"groupId": "EG004", "numEvents": 1, "numAffected": 1, "numAtRisk": 45}]}, {"term": "Neck pain", "organSystem": "Musculoskeletal and connective tissue disorders", "sourceVocabulary": "MedDRA 22.0", "assessmentType": "SYSTEMATIC_ASSESSMENT", "stats": [{"groupId": "EG000", "numEvents": 0, "numAffected": 0, "numAtRisk": 306}, {"groupId": "EG001", "numEvents": 0, "numAffected": 0, "numAtRisk": 151}, {"groupId": "EG002", "numEvents": 0, "numAffected": 0, "numAtRisk": 144}, {"groupId": "EG003", "numEvents": 2, "numAffected": 2, "numAtRisk": 84}, {"groupId": "EG004", "numEvents": 2, "numAffected": 2, "numAtRisk": 45}]}, {"term": "Abdominal pain", "organSystem": "Gastrointestinal disorders", "sourceVocabulary": "MedDRA 22.0", "assessmentType": "SYSTEMATIC_ASSESSMENT", "stats": [{"groupId": "EG000", "numEvents": 0, "numAffected": 0, "numAtRisk": 306}, {"groupId": "EG001", "numEvents": 0, "numAffected": 0, "numAtRisk": 151}, {"groupId": "EG002", "numEvents": 0, "numAffected": 0, "numAtRisk": 144}, {"groupId": "EG003", "numEvents": 1, "numAffected": 1, "numAtRisk": 84}, {"groupId": "EG004", "numEvents": 2, "numAffected": 2, "numAtRisk": 45}]}, {"term": "Diarrhoea", "organSystem": "Gastrointestinal disorders", "sourceVocabulary": "MedDRA 22.0", "assessmentType": "SYSTEMATIC_ASSESSMENT", "stats": [{"groupId": "EG000", "numEvents": 0, "numAffected": 0, "numAtRisk": 306}, {"groupId": "EG001", "numEvents": 0, "numAffected": 0, "numAtRisk": 151}, {"groupId": "EG002", "numEvents": 0, "numAffected": 0, "numAtRisk": 144}, {"groupId": "EG003", "numEvents": 3, "numAffected": 3, "numAtRisk": 84}, {"groupId": "EG004", "numEvents": 0, "numAffected": 0, "numAtRisk": 45}]}, {"term": "Large intestine polyp", "organSystem": "Gastrointestinal disorders", "sourceVocabulary": "MedDRA 22.0", "assessmentType": "SYSTEMATIC_ASSESSMENT", "stats": [{"groupId": "EG000", "numEvents": 0, "numAffected": 0, "numAtRisk": 306}, {"groupId": "EG001", "numEvents": 0, "numAffected": 0, "numAtRisk": 151}, {"groupId": "EG002", "numEvents": 0, "numAffected": 0, "numAtRisk": 144}, {"groupId": "EG003", "numEvents": 0, "numAffected": 0, "numAtRisk": 84}, {"groupId": "EG004", "numEvents": 2, "numAffected": 2, "numAtRisk": 45}]}, {"term": "Hyperglycaemia", "organSystem": "Metabolism and nutrition disorders", "sourceVocabulary": "MedDRA 22.0", "assessmentType": "SYSTEMATIC_ASSESSMENT", "stats": [{"groupId": "EG000", "numEvents": 0, "numAffected": 0, "numAtRisk": 306}, {"groupId": "EG001", "numEvents": 0, "numAffected": 0, "numAtRisk": 151}, {"groupId": "EG002", "numEvents": 0, "numAffected": 0, "numAtRisk": 144}, {"groupId": "EG003", "numEvents": 1, "numAffected": 1, "numAtRisk": 84}, {"groupId": "EG004", "numEvents": 2, "numAffected": 2, "numAtRisk": 45}]}]}, "moreInfoModule": {"certainAgreement": {"piSponsorEmployee": false, "restrictionType": "OTHER", "restrictiveAgreement": true, "otherDetails": "GSK agreements may vary with individual investigators, but will not prohibit any investigator from publishing. GSK supports the publication of results from all centers of a multi-center trial but requests that reports based on single-site data not precede the primary publication of the entire clinical trial."}, "pointOfContact": {"title": "GSK Response Center", "organization": "GlaxoSmithKline", "email": "GSKClinicalSupportHD@gsk.com", "phone": "866-435-7343"}}}, "documentSection": {"largeDocumentModule": {"largeDocs": [{"typeAbbrev": "Prot", "hasProtocol": true, "hasSap": false, "hasIcf": false, "label": "Study Protocol", "date": "2016-07-07", "uploadDate": "2020-01-22T02:12", "filename": "Prot_000.pdf", "size": 1269824}, {"typeAbbrev": "SAP", "hasProtocol": false, "hasSap": true, "hasIcf": false, "label": "Statistical Analysis Plan", "date": "2019-03-20", "uploadDate": "2020-01-22T02:16", "filename": "SAP_001.pdf", "size": 806115}]}}, "derivedSection": {"miscInfoModule": {"versionHolder": "2024-06-24"}, "conditionBrowseModule": {"meshes": [{"id": "D000001249", "term": "Asthma"}, {"id": "D000011657", "term": "Pulmonary Eosinophilia"}], "ancestors": [{"id": "D000001982", "term": "Bronchial Diseases"}, {"id": "D000012140", "term": "Respiratory Tract Diseases"}, {"id": "D000008173", "term": "Lung Diseases, Obstructive"}, {"id": "D000008171", "term": "Lung Diseases"}, {"id": "D000012130", "term": "Respiratory Hypersensitivity"}, {"id": "D000006969", "term": "Hypersensitivity, Immediate"}, {"id": "D000006967", "term": "Hypersensitivity"}, {"id": "D000007154", "term": "Immune System Diseases"}, {"id": "D000017681", "term": "Hypereosinophilic Syndrome"}, {"id": "D000004802", "term": "Eosinophilia"}, {"id": "D000007960", "term": "Leukocyte Disorders"}, {"id": "D000006402", "term": "Hematologic Diseases"}], "browseLeaves": [{"id": "M4556", "name": "Asthma", "asFound": "Asthma", "relevance": "HIGH"}, {"id": "M14511", "name": "Pulmonary Eosinophilia", "asFound": "Eosinophilic Asthma", "relevance": "HIGH"}, {"id": "M7961", "name": "Eosinophilia", "relevance": "LOW"}, {"id": "M5258", "name": "Bronchial Diseases", "relevance": "LOW"}, {"id": "M14977", "name": "Respiratory Tract Diseases", "relevance": "LOW"}, {"id": "M11168", "name": "Lung Diseases", "relevance": "LOW"}, {"id": "M11170", "name": "Lung Diseases, Obstructive", "relevance": "LOW"}, {"id": "M10018", "name": "Hypersensitivity", "relevance": "LOW"}, {"id": "M14967", "name": "Respiratory Hypersensitivity", "relevance": "LOW"}, {"id": "M10020", "name": "Hypersensitivity, Immediate", "relevance": "LOW"}, {"id": "M10200", "name": "Immune System Diseases", "relevance": "LOW"}, {"id": "M16355", "name": "Syndrome", "relevance": "LOW"}, {"id": "M19901", "name": "Hypereosinophilic Syndrome", "relevance": "LOW"}, {"id": "M10963", "name": "Leukocyte Disorders", "relevance": "LOW"}, {"id": "M9490", "name": "Hematologic Diseases", "relevance": "LOW"}, {"id": "T2886", "name": "Hypereosinophilic Syndrome", "relevance": "LOW"}], "browseBranches": [{"abbrev": "BC08", "name": "Respiratory Tract (Lung and Bronchial) Diseases"}, {"abbrev": "BC20", "name": "Immune System Diseases"}, {"abbrev": "All", "name": "All Conditions"}, {"abbrev": "BC15", "name": "Blood and Lymph Conditions"}, {"abbrev": "BC23", "name": "Symptoms and General Pathology"}, {"abbrev": "Rare", "name": "Rare Diseases"}]}, "interventionBrowseModule": {"browseLeaves": [{"id": "M10184", "name": "Immunoglobulins", "relevance": "LOW"}, {"id": "M19117", "name": "Immunoglobulins, Intravenous", "relevance": "LOW"}, {"id": "M4225", "name": "Antibodies", "relevance": "LOW"}, {"id": "M21860", "name": "Pharmaceutical Solutions", "relevance": "LOW"}], "browseBranches": [{"abbrev": "All", "name": "All Drugs and Chemicals"}, {"abbrev": "PhSol", "name": "Pharmaceutical Solutions"}]}}, "hasResults": true}