{"protocolSection": {"identificationModule": {"nctId": "NCT00990964", "orgStudyIdInfo": {"id": "Attain Success"}, "organization": {"fullName": "Medtronic Cardiac Rhythm and Heart Failure", "class": "INDUSTRY"}, "briefTitle": "Attain Success Clinical Trial", "officialTitle": "Attain Success Clinical Trial"}, "statusModule": {"statusVerifiedDate": "2012-08", "overallStatus": "COMPLETED", "expandedAccessInfo": {"hasExpandedAccess": false}, "startDateStruct": {"date": "2009-11"}, "primaryCompletionDateStruct": {"date": "2011-11", "type": "ACTUAL"}, "completionDateStruct": {"date": "2011-11", "type": "ACTUAL"}, "studyFirstSubmitDate": "2009-10-06", "studyFirstSubmitQcDate": "2009-10-06", "studyFirstPostDateStruct": {"date": "2009-10-07", "type": "ESTIMATED"}, "resultsFirstSubmitDate": "2012-08-13", "resultsFirstSubmitQcDate": "2012-08-13", "resultsFirstPostDateStruct": {"date": "2012-09-12", "type": "ESTIMATED"}, "lastUpdateSubmitDate": "2012-08-13", "lastUpdatePostDateStruct": {"date": "2012-09-12", "type": "ESTIMATED"}}, "sponsorCollaboratorsModule": {"responsibleParty": {"type": "SPONSOR"}, "leadSponsor": {"name": "Medtronic Cardiac Rhythm and Heart Failure", "class": "INDUSTRY"}}, "oversightModule": {"oversightHasDmc": false}, "descriptionModule": {"briefSummary": "The purpose of the study is to assess lead implant success and complication rate using the Medtronic Attain Family of left-heart leads and delivery catheters."}, "conditionsModule": {"conditions": ["Heart Failure"]}, "designModule": {"studyType": "OBSERVATIONAL", "designInfo": {"timePerspective": "PROSPECTIVE"}, "enrollmentInfo": {"count": 2014, "type": "ACTUAL"}}, "armsInterventionsModule": {"interventions": [{"type": "DEVICE", "name": "Attain Success Lead", "description": "Attain Success Lead"}]}, "outcomesModule": {"primaryOutcomes": [{"measure": "Subjects Successfully Implanted With an Attain Family Left-heart Lead Using an Attain Family Delivery Catheter", "description": "Implant success was defined as final successful placement of the Attain Family left-heart lead in the coronary vein branches utilizing the Attain Family of delivery catheters.", "timeFrame": "Implant"}, {"measure": "Subjects Without a Left-heart Lead and Delivery Catheter Related Complication", "description": "A left-heart lead and delivery related complication was defined as a complication, an adverse event that resulted in death, any termination of significant device function or invasive intervention, that resulted from the presence of or performance (intended or otherwise) of the Medtronic left-heart lead or Attain Family of delivery catheters. All adverse events were adjudicated by an Adverse Event Advisory Committee (AEAC).", "timeFrame": "Implant to 3 months"}]}, "eligibilityModule": {"eligibilityCriteria": "Inclusion Criteria:\n\n* Subject is at least 18 years of age or older\n* Subject will be implanted with Medtronic cardiac resynchronization therapy (CRT) device and Medtronic left heart lead utilizing (or attempting to utilize) Attain Family of delivery catheters. The implant procedure may include upgrades to CRT from implantable pulse generator (IPG) or implantable cardioverter-defibrillator (ICD).\n\nExclusion Criteria:\n\n* Subject is enrolled in a concurrent study with the exception of a study approved by the Medtronic Clinical Trial Leader prior to enrollment\n* Subject has existing CRT system implanted or was previously implanted with a CRT system.", "healthyVolunteers": false, "sex": "ALL", "minimumAge": "18 Years", "stdAges": ["ADULT", "OLDER_ADULT"], "studyPopulation": "Patient referral to a participating study center with practitioners experienced in handling and implantation of the cardiac resynchronization therapy (CRT) device, the left-heart lead, and the use of the delivery catheter.", "samplingMethod": "NON_PROBABILITY_SAMPLE"}, "contactsLocationsModule": {"overallOfficials": [{"name": "John D Hummel, MD", "affiliation": "Davis Heart & Lung Research Institute, The Ohio State University", "role": "PRINCIPAL_INVESTIGATOR"}], "locations": [{"city": "Little Rock", "state": "Arkansas", "country": "United States", "geoPoint": {"lat": 34.74648, "lon": -92.28959}}, {"city": "Downey", "state": "California", "country": "United States", "geoPoint": {"lat": 33.94001, "lon": -118.13257}}, {"city": "Modesto", "state": "California", "country": "United States", "geoPoint": {"lat": 37.6391, "lon": -120.99688}}, {"city": "Redding", "state": "California", "country": "United States", "geoPoint": {"lat": 40.58654, "lon": -122.39168}}, {"city": "Riverside", "state": "California", "country": "United States", "geoPoint": {"lat": 33.95335, "lon": -117.39616}}, {"city": "San Diego", "state": "California", "country": "United States", "geoPoint": {"lat": 32.71533, "lon": -117.15726}}, {"city": "San Jose", "state": "California", "country": "United States", "geoPoint": {"lat": 37.33939, "lon": -121.89496}}, {"city": "Santa Rosa", "state": "California", "country": "United States", "geoPoint": {"lat": 38.44047, "lon": -122.71443}}, {"city": "Danbury", "state": "Connecticut", "country": "United States", "geoPoint": {"lat": 41.39482, "lon": -73.45401}}, {"city": "Washington", "state": "District of Columbia", "country": "United States", "geoPoint": {"lat": 38.89511, "lon": -77.03637}}, {"city": "Delray Beach", "state": "Florida", "country": "United States", "geoPoint": {"lat": 26.46146, "lon": -80.07282}}, {"city": "Lake Mary", "state": "Florida", "country": "United States", "geoPoint": {"lat": 28.75888, "lon": -81.31784}}, {"city": "Naples", "state": "Florida", "country": "United States", "geoPoint": {"lat": 26.14234, "lon": -81.79596}}, {"city": "Orlando", "state": "Florida", "country": "United States", "geoPoint": {"lat": 28.53834, "lon": -81.37924}}, {"city": "Panama City", "state": "Florida", "country": "United States", "geoPoint": {"lat": 30.15946, "lon": -85.65983}}, {"city": "St. Augustine", "state": "Florida", "country": "United States", "geoPoint": {"lat": 29.89469, "lon": -81.31452}}, {"city": "Tampa", "state": "Florida", "country": "United States", "geoPoint": {"lat": 27.94752, "lon": -82.45843}}, {"city": "Athens", "state": "Georgia", "country": "United States", "geoPoint": {"lat": 33.96095, "lon": -83.37794}}, {"city": "Atlanta", "state": "Georgia", "country": "United States", "geoPoint": {"lat": 33.749, "lon": -84.38798}}, {"city": "Macon", "state": "Georgia", "country": "United States", "geoPoint": {"lat": 32.84069, "lon": -83.6324}}, {"city": "Marietta", "state": "Georgia", "country": "United States", "geoPoint": {"lat": 33.9526, "lon": -84.54993}}, {"city": "Chicago", "state": "Illinois", "country": "United States", "geoPoint": {"lat": 41.85003, "lon": -87.65005}}, {"city": "Decatur", "state": "Illinois", "country": "United States", "geoPoint": {"lat": 39.84031, "lon": -88.9548}}, {"city": "Indianapolis", "state": "Indiana", "country": "United States", "geoPoint": {"lat": 39.76838, "lon": -86.15804}}, {"city": "Newburgh", "state": "Indiana", "country": "United States", "geoPoint": {"lat": 37.94449, "lon": -87.40529}}, {"city": "Overland Park", "state": "Kansas", "country": "United States", "geoPoint": {"lat": 38.98223, "lon": -94.67079}}, {"city": "Bowling Green", "state": "Kentucky", "country": "United States", "geoPoint": {"lat": 36.99032, "lon": -86.4436}}, {"city": "Lexington", "state": "Kentucky", "country": "United States", "geoPoint": {"lat": 37.98869, "lon": -84.47772}}, {"city": "Houma", "state": "Louisiana", "country": "United States", "geoPoint": {"lat": 29.59577, "lon": -90.71953}}, {"city": "Baltimore", "state": "Maryland", "country": "United States", "geoPoint": {"lat": 39.29038, "lon": -76.61219}}, {"city": "Takoma Park", "state": "Maryland", "country": "United States", "geoPoint": {"lat": 38.97789, "lon": -77.00748}}, {"city": "Boston", "state": "Massachusetts", "country": "United States", "geoPoint": {"lat": 42.35843, "lon": -71.05977}}, {"city": "Muskegon", "state": "Michigan", "country": "United States", "geoPoint": {"lat": 43.23418, "lon": -86.24839}}, {"city": "Royal Oak", "state": "Michigan", "country": "United States", "geoPoint": {"lat": 42.48948, "lon": -83.14465}}, {"city": "Saint Clair Shore", "state": "Michigan", "country": "United States", "geoPoint": {"lat": 42.49698, "lon": -82.88881}}, {"city": "Ypsilanti", "state": "Michigan", "country": "United States", "geoPoint": {"lat": 42.24115, "lon": -83.61299}}, {"city": "Minneapolis", "state": "Minnesota", "country": "United States", "geoPoint": {"lat": 44.97997, "lon": -93.26384}}, {"city": "St. Louis", "state": "Missouri", "country": "United States", "geoPoint": {"lat": 38.62727, "lon": -90.19789}}, {"city": "Washinton", "state": "Missouri", "country": "United States", "geoPoint": {"lat": 38.55811, "lon": -91.01209}}, {"city": "Omaha", "state": "Nebraska", "country": "United States", "geoPoint": {"lat": 41.25626, "lon": -95.94043}}, {"city": "Concord", "state": "New Hampshire", "country": "United States", "geoPoint": {"lat": 43.20814, "lon": -71.53757}}, {"city": "Englewood", "state": "New Jersey", "country": "United States", "geoPoint": {"lat": 40.89288, "lon": -73.97264}}, {"city": "Huntington", "state": "New York", "country": "United States", "geoPoint": {"lat": 40.86815, "lon": -73.42568}}, {"city": "Asheville", "state": "North Carolina", "country": "United States", "geoPoint": {"lat": 35.60095, "lon": -82.55402}}, {"city": "Concord", "state": "North Carolina", "country": "United States", "geoPoint": {"lat": 35.40888, "lon": -80.58158}}, {"city": "Fargo", "state": "North Dakota", "country": "United States", "geoPoint": {"lat": 46.87719, "lon": -96.7898}}, {"city": "Cleveland", "state": "Ohio", "country": "United States", "geoPoint": {"lat": 41.4995, "lon": -81.69541}}, {"city": "Columbus", "state": "Ohio", "country": "United States", "geoPoint": {"lat": 39.96118, "lon": -82.99879}}, {"city": "Kettering", "state": "Ohio", "country": "United States", "geoPoint": {"lat": 39.6895, "lon": -84.16883}}, {"city": "Abington", "state": "Pennsylvania", "country": "United States", "geoPoint": {"lat": 40.12067, "lon": -75.11795}}, {"city": "Bethlehem", "state": "Pennsylvania", "country": "United States", "geoPoint": {"lat": 40.62593, "lon": -75.37046}}, {"city": "Erie", "state": "Pennsylvania", "country": "United States", "geoPoint": {"lat": 42.12922, "lon": -80.08506}}, {"city": "Harrisburg", "state": "Pennsylvania", "country": "United States", "geoPoint": {"lat": 40.2737, "lon": -76.88442}}, {"city": "Wormleysburg", "state": "Pennsylvania", "country": "United States", "geoPoint": {"lat": 40.26287, "lon": -76.91386}}, {"city": "Florence", "state": "South Carolina", "country": "United States", "geoPoint": {"lat": 34.19543, "lon": -79.76256}}, {"city": "Germantown", "state": "Tennessee", "country": "United States", "geoPoint": {"lat": 35.08676, "lon": -89.81009}}, {"city": "Knoxsville", "state": "Tennessee", "country": "United States", "geoPoint": {"lat": 35.96064, "lon": -83.92074}}, {"city": "Nashville", "state": "Tennessee", "country": "United States", "geoPoint": {"lat": 36.16589, "lon": -86.78444}}, {"city": "Amarillo", "state": "Texas", "country": "United States", "geoPoint": {"lat": 35.222, "lon": -101.8313}}, {"city": "Austin", "state": "Texas", "country": "United States", "geoPoint": {"lat": 30.26715, "lon": -97.74306}}, {"city": "Brownsville", "state": "Texas", "country": "United States", "geoPoint": {"lat": 25.90175, "lon": -97.49748}}, {"city": "Dallas", "state": "Texas", "country": "United States", "geoPoint": {"lat": 32.78306, "lon": -96.80667}}, {"city": "Fort Worth", "state": "Texas", "country": "United States", "geoPoint": {"lat": 32.72541, "lon": -97.32085}}, {"city": "Houston", "state": "Texas", "country": "United States", "geoPoint": {"lat": 29.76328, "lon": -95.36327}}, {"city": "Longview", "state": "Texas", "country": "United States", "geoPoint": {"lat": 32.5007, "lon": -94.74049}}, {"city": "The Woodlands", "state": "Texas", "country": "United States", "geoPoint": {"lat": 30.15799, "lon": -95.48938}}, {"city": "Murray", "state": "Utah", "country": "United States", "geoPoint": {"lat": 40.66689, "lon": -111.88799}}, {"city": "Salt Lake City", "state": "Utah", "country": "United States", "geoPoint": {"lat": 40.76078, "lon": -111.89105}}, {"city": "Frederickburg", "state": "Virginia", "country": "United States", "geoPoint": {"lat": 37.89291, "lon": -79.43782}}, {"city": "Bellingham", "state": "Washington", "country": "United States", "geoPoint": {"lat": 48.75955, "lon": -122.48822}}, {"city": "Spokane", "state": "Washington", "country": "United States", "geoPoint": {"lat": 47.65966, "lon": -117.42908}}, {"city": "Green Bay", "state": "Wisconsin", "country": "United States", "geoPoint": {"lat": 44.51916, "lon": -88.01983}}, {"city": "Ontario", "country": "Canada"}, {"city": "Jiangsu", "country": "China"}, {"city": "Sichuan", "country": "China"}, {"city": "Xinjian", "country": "China"}, {"city": "Amiens", "country": "France", "geoPoint": {"lat": 49.9, "lon": 2.3}}, {"city": "Anglouleme", "country": "France"}, {"city": "Bayonne", "country": "France", "geoPoint": {"lat": 43.48333, "lon": -1.48333}}, {"city": "Bordeaux", "country": "France", "geoPoint": {"lat": 44.84044, "lon": -0.5805}}, {"city": "Clermont-Ferrand", "country": "France", "geoPoint": {"lat": 45.77966, "lon": 3.08628}}, {"city": "Creteil", "country": "France", "geoPoint": {"lat": 48.78333, "lon": 2.46667}}, {"city": "Metz-Tessy", "country": "France", "geoPoint": {"lat": 45.93406, "lon": 6.10826}}, {"city": "Montfermeil", "country": "France", "geoPoint": {"lat": 48.8982, "lon": 2.57913}}, {"city": "Nice", "country": "France", "geoPoint": {"lat": 43.70313, "lon": 7.26608}}, {"city": "Orleans", "country": "France", "geoPoint": {"lat": 47.90289, "lon": 1.90389}}, {"city": "Paris", "country": "France", "geoPoint": {"lat": 48.85341, "lon": 2.3488}}, {"city": "Poitiers", "country": "France", "geoPoint": {"lat": 46.58333, "lon": 0.33333}}, {"city": "Villingen", "country": "Germany", "geoPoint": {"lat": 50.50447, "lon": 8.93609}}, {"city": "Sha Tin", "country": "Hong Kong", "geoPoint": {"lat": 22.38333, "lon": 114.18333}}, {"city": "Haryana", "country": "India", "geoPoint": {"lat": 29.61611, "lon": 76.98056}}, {"city": "New Dehli", "country": "India"}, {"city": "New Delhi", "country": "India", "geoPoint": {"lat": 28.63576, "lon": 77.22445}}, {"city": "Rajasthan", "country": "India"}, {"city": "Vizag", "country": "India", "geoPoint": {"lat": 17.68009, "lon": 83.20161}}, {"city": "Kuala Lumpur", "country": "Malaysia", "geoPoint": {"lat": 3.1412, "lon": 101.68653}}, {"city": "Tal-Qroqq", "country": "Malta"}, {"city": "Lahore", "country": "Pakistan", "geoPoint": {"lat": 31.558, "lon": 74.35071}}, {"city": "Bydgoszcz", "country": "Poland", "geoPoint": {"lat": 53.1235, "lon": 18.00762}}, {"city": "Krakow", "country": "Poland", "geoPoint": {"lat": 50.06143, "lon": 19.93658}}, {"city": "Zabreze", "country": "Poland"}, {"city": "San Juan", "country": "Puerto Rico", "geoPoint": {"lat": 18.46633, "lon": -66.10572}}, {"city": "Brasov", "country": "Romania", "geoPoint": {"lat": 45.64861, "lon": 25.60613}}, {"city": "Bucharest", "country": "Romania", "geoPoint": {"lat": 44.43225, "lon": 26.10626}}, {"city": "Novena", "country": "Singapore", "geoPoint": {"lat": 1.31697, "lon": 103.8438}}, {"city": "Taichung", "country": "Taiwan", "geoPoint": {"lat": 24.1469, "lon": 120.6839}}, {"city": "Taipei", "country": "Taiwan", "geoPoint": {"lat": 25.04776, "lon": 121.53185}}, {"city": "Bangkok", "country": "Thailand", "geoPoint": {"lat": 13.75398, "lon": 100.50144}}]}}, "resultsSection": {"participantFlowModule": {"groups": [{"id": "FG000", "title": "Attain Family Left Heart Lead", "description": "Subjects who underwent an Attain Family lead implant after either an Attain Family catheter attempt or any catheter model attempt"}], "periods": [{"title": "Overall Study", "milestones": [{"type": "STARTED", "achievements": [{"groupId": "FG000", "comment": "Total number of subjects enrolled", "numSubjects": "2014"}]}, {"type": "Attain Family Study System Attempt", "achievements": [{"groupId": "FG000", "comment": "Total number of subjects with an Attain Family lead attempt after an Attain Family catheter attempt", "numSubjects": "1917"}]}, {"type": "COMPLETED", "achievements": [{"groupId": "FG000", "comment": "Total number of subjects with successful Attain Family lead using Attain Family catheter", "numSubjects": "1802"}]}, {"type": "NOT COMPLETED", "achievements": [{"groupId": "FG000", "numSubjects": "212"}]}]}]}, "baselineCharacteristicsModule": {"groups": [{"id": "BG000", "title": "Attain Family Lead", "description": "Subjects who underwent an Attain Family lead implant after either an Attain Family catheter attempt or any catheter model attempt"}], "denoms": [{"units": "Participants", "counts": [{"groupId": "BG000", "value": "2014"}]}], "measures": [{"title": "Age, Categorical", "paramType": "COUNT_OF_PARTICIPANTS", "unitOfMeasure": "Participants", "classes": [{"categories": [{"title": "<=18 years", "measurements": [{"groupId": "BG000", "value": "0"}]}, {"title": "Between 18 and 65 years", "measurements": [{"groupId": "BG000", "value": "661"}]}, {"title": ">=65 years", "measurements": [{"groupId": "BG000", "value": "1353"}]}]}]}, {"title": "Age Continuous", "paramType": "MEAN", "dispersionType": "STANDARD_DEVIATION", "unitOfMeasure": "years", "classes": [{"categories": [{"measurements": [{"groupId": "BG000", "value": "69.1", "spread": "12.0"}]}]}]}, {"title": "Sex: Female, Male", "paramType": "COUNT_OF_PARTICIPANTS", "unitOfMeasure": "Participants", "classes": [{"categories": [{"title": "Female", "measurements": [{"groupId": "BG000", "value": "576"}]}, {"title": "Male", "measurements": [{"groupId": "BG000", "value": "1438"}]}]}]}, {"title": "Region of Enrollment", "paramType": "NUMBER", "unitOfMeasure": "participants", "classes": [{"title": "United States", "categories": [{"measurements": [{"groupId": "BG000", "value": "1648"}]}]}, {"title": "Taiwan", "categories": [{"measurements": [{"groupId": "BG000", "value": "30"}]}]}, {"title": "Hong Kong", "categories": [{"measurements": [{"groupId": "BG000", "value": "7"}]}]}, {"title": "Pakistan", "categories": [{"measurements": [{"groupId": "BG000", "value": "11"}]}]}, {"title": "Thailand", "categories": [{"measurements": [{"groupId": "BG000", "value": "4"}]}]}, {"title": "Malta", "categories": [{"measurements": [{"groupId": "BG000", "value": "8"}]}]}, {"title": "India", "categories": [{"measurements": [{"groupId": "BG000", "value": "79"}]}]}, {"title": "France", "categories": [{"measurements": [{"groupId": "BG000", "value": "83"}]}]}, {"title": "Canada", "categories": [{"measurements": [{"groupId": "BG000", "value": "15"}]}]}, {"title": "Puerto Rico", "categories": [{"measurements": [{"groupId": "BG000", "value": "35"}]}]}, {"title": "Malaysia", "categories": [{"measurements": [{"groupId": "BG000", "value": "12"}]}]}, {"title": "Poland", "categories": [{"measurements": [{"groupId": "BG000", "value": "22"}]}]}, {"title": "Singapore", "categories": [{"measurements": [{"groupId": "BG000", "value": "3"}]}]}, {"title": "Romania", "categories": [{"measurements": [{"groupId": "BG000", "value": "5"}]}]}, {"title": "Germany", "categories": [{"measurements": [{"groupId": "BG000", "value": "6"}]}]}, {"title": "China", "categories": [{"measurements": [{"groupId": "BG000", "value": "46"}]}]}]}]}, "outcomeMeasuresModule": {"outcomeMeasures": [{"type": "PRIMARY", "title": "Subjects Successfully Implanted With an Attain Family Left-heart Lead Using an Attain Family Delivery Catheter", "description": "Implant success was defined as final successful placement of the Attain Family left-heart lead in the coronary vein branches utilizing the Attain Family of delivery catheters.", "reportingStatus": "POSTED", "paramType": "NUMBER", "unitOfMeasure": "participants", "timeFrame": "Implant", "groups": [{"id": "OG000", "title": "Attain Family Lead and Catheter Attempt", "description": "Subjects who were attempted with an Attain Family left-heart lead after successful coronary sinus (CS) cannulation with an Attain Family catheter were included in this analysis as well as subjects who had unsuccessful CS cannulation with an Attain Family delivery catheter."}], "denoms": [{"units": "Participants", "counts": [{"groupId": "OG000", "value": "1917"}]}], "classes": [{"categories": [{"measurements": [{"groupId": "OG000", "value": "1802", "lowerLimit": ".929", "upperLimit": ".950"}]}]}], "analyses": [{"groupIds": ["OG000"], "testedNonInferiority": false, "nonInferiorityType": "SUPERIORITY_OR_OTHER", "paramType": "One sample proportion", "paramValue": ".940", "ciPctValue": "95", "ciNumSides": "TWO_SIDED", "ciLowerLimit": ".929", "ciUpperLimit": ".951"}]}, {"type": "PRIMARY", "title": "Subjects Without a Left-heart Lead and Delivery Catheter Related Complication", "description": "A left-heart lead and delivery related complication was defined as a complication, an adverse event that resulted in death, any termination of significant device function or invasive intervention, that resulted from the presence of or performance (intended or otherwise) of the Medtronic left-heart lead or Attain Family of delivery catheters. All adverse events were adjudicated by an Adverse Event Advisory Committee (AEAC).", "reportingStatus": "POSTED", "paramType": "NUMBER", "unitOfMeasure": "participants", "timeFrame": "Implant to 3 months", "groups": [{"id": "OG000", "title": "Attain Family Lead Attempt, Any Catheter", "description": "Subjects who were attempted with Attain Family delivery catheters or Attain Family left-heart leads were included in this analysis."}], "denoms": [{"units": "Participants", "counts": [{"groupId": "OG000", "value": "1944"}]}], "classes": [{"categories": [{"measurements": [{"groupId": "OG000", "value": "1895"}]}]}], "analyses": [{"groupIds": ["OG000"], "testedNonInferiority": false, "nonInferiorityType": "SUPERIORITY_OR_OTHER", "paramType": "One sample proportion", "paramValue": ".974", "ciPctValue": "95", "ciNumSides": "TWO_SIDED", "ciLowerLimit": ".965", "ciUpperLimit": ".980"}]}]}, "adverseEventsModule": {"frequencyThreshold": "5", "timeFrame": "Implant to 3 month visit.", "description": "All new and/or worsening adverse events related to the left heart leads and left heart delivery catheters were collected through the 3 month visit. Event collection began when the subject was enrolled in the study and underwent a left-heart lead implant attempt.", "eventGroups": [{"id": "EG000", "title": "Attain Family Lead", "description": "All new and/or worsening adverse events related to the left-heart leads and left-heart lead delivery catheters were collected through the 3 month visit. Event collection started once the subject enrolled in the study and underwent a left-heart lead implant attempt.", "seriousNumAffected": 55, "seriousNumAtRisk": 2014, "otherNumAffected": 0, "otherNumAtRisk": 2014}], "seriousEvents": [{"term": "Cardiac Arrest", "organSystem": "Cardiac disorders", "sourceVocabulary": "MedDRA", "stats": [{"groupId": "EG000", "numEvents": 1, "numAffected": 1, "numAtRisk": 2014}]}, {"term": "Cardiac tamponade", "organSystem": "Cardiac disorders", "sourceVocabulary": "MedDRA", "stats": [{"groupId": "EG000", "numEvents": 1, "numAffected": 1, "numAtRisk": 2014}]}, {"term": "Deep vein thrombosis", "organSystem": "Vascular disorders", "sourceVocabulary": "MedDRA", "stats": [{"groupId": "EG000", "numEvents": 1, "numAffected": 1, "numAtRisk": 2014}]}, {"term": "Device capturing issue", "organSystem": "Injury, poisoning and procedural complications", "sourceVocabulary": "MedDRA", "stats": [{"groupId": "EG000", "numEvents": 2, "numAffected": 2, "numAtRisk": 2014}]}, {"term": "Device connection issue", "organSystem": "Injury, poisoning and procedural complications", "sourceVocabulary": "MedDRA", "stats": [{"groupId": "EG000", "numEvents": 1, "numAffected": 1, "numAtRisk": 2014}]}, {"term": "Device dislocation", "organSystem": "Injury, poisoning and procedural complications", "sourceVocabulary": "MedDRA", "stats": [{"groupId": "EG000", "numEvents": 29, "numAffected": 29, "numAtRisk": 2014}]}, {"term": "Device pacing issue", "organSystem": "Injury, poisoning and procedural complications", "sourceVocabulary": "MedDRA", "stats": [{"groupId": "EG000", "numEvents": 2, "numAffected": 2, "numAtRisk": 2014}]}, {"term": "Device stimulation issue", "organSystem": "Injury, poisoning and procedural complications", "sourceVocabulary": "MedDRA", "stats": [{"groupId": "EG000", "numEvents": 8, "numAffected": 8, "numAtRisk": 2014}]}, {"term": "Haemothorax", "organSystem": "Respiratory, thoracic and mediastinal disorders", "sourceVocabulary": "MedDRA", "stats": [{"groupId": "EG000", "numEvents": 1, "numAffected": 1, "numAtRisk": 2014}]}, {"term": "Implant site infection", "organSystem": "Infections and infestations", "sourceVocabulary": "MedDRA", "stats": [{"groupId": "EG000", "numEvents": 4, "numAffected": 4, "numAtRisk": 2014}]}, {"term": "Implant site irritation", "organSystem": "Injury, poisoning and procedural complications", "sourceVocabulary": "MedDRA", "stats": [{"groupId": "EG000", "numEvents": 1, "numAffected": 1, "numAtRisk": 2014}]}, {"term": "Pericardial haemorrhage", "organSystem": "Cardiac disorders", "sourceVocabulary": "MedDRA", "stats": [{"groupId": "EG000", "numEvents": 1, "numAffected": 1, "numAtRisk": 2014}]}, {"term": "Pneumothorax", "organSystem": "Respiratory, thoracic and mediastinal disorders", "sourceVocabulary": "MedDRA", "stats": [{"groupId": "EG000", "numEvents": 1, "numAffected": 1, "numAtRisk": 2014}]}, {"term": "Sudden cardiac death", "organSystem": "Cardiac disorders", "sourceVocabulary": "MedDRA", "stats": [{"groupId": "EG000", "numEvents": 1, "numAffected": 1, "numAtRisk": 2014}]}, {"term": "Ventricular tachycardia", "organSystem": "Cardiac disorders", "sourceVocabulary": "MedDRA", "stats": [{"groupId": "EG000", "numEvents": 2, "numAffected": 2, "numAtRisk": 2014}]}]}, "moreInfoModule": {"certainAgreement": {"piSponsorEmployee": false, "restrictiveAgreement": false}, "pointOfContact": {"title": "Attain Success Clinical Trial Leader", "organization": "Medtronic, Inc.", "email": "medtronicCRMtrials@medtronic.com", "phone": "800-328-2518", "phoneExt": "62864"}}}, "derivedSection": {"miscInfoModule": {"versionHolder": "2024-06-24"}, "conditionBrowseModule": {"meshes": [{"id": "D000006333", "term": "Heart Failure"}], "ancestors": [{"id": "D000006331", "term": "Heart Diseases"}, {"id": "D000002318", "term": "Cardiovascular Diseases"}], "browseLeaves": [{"id": "M9421", "name": "Heart Failure", "asFound": "Heart Failure", "relevance": "HIGH"}, {"id": "M9419", "name": "Heart Diseases", "relevance": "LOW"}], "browseBranches": [{"abbrev": "BC14", "name": "Heart and Blood Diseases"}, {"abbrev": "All", "name": "All Conditions"}]}}, "hasResults": true}