{"protocolSection": {"identificationModule": {"nctId": "NCT01095653", "orgStudyIdInfo": {"id": "MB102-054"}, "organization": {"fullName": "AstraZeneca", "class": "INDUSTRY"}, "briefTitle": "A Phase III Study of BMS-512148 (Dapagliflozin) in Asian Patients With Type 2 Diabetes Who Are Not Well Controlled With Diet and Exercise", "officialTitle": "A Multicenter, Randomized, Double-Blind, Placebo-Controlled, Parallel Group, Phase 3 Trial to Evaluate the Safety and Efficacy of Dapagliflozin as Monotherapy in Asian Subjects With Type 2 Diabetes Who Have Inadequate Glycemic Control With Diet and Exercise"}, "statusModule": {"statusVerifiedDate": "2016-12", "overallStatus": "COMPLETED", "expandedAccessInfo": {"hasExpandedAccess": false}, "startDateStruct": {"date": "2010-06"}, "primaryCompletionDateStruct": {"date": "2012-03", "type": "ACTUAL"}, "completionDateStruct": {"date": "2012-03", "type": "ACTUAL"}, "studyFirstSubmitDate": "2010-03-26", "studyFirstSubmitQcDate": "2010-03-26", "studyFirstPostDateStruct": {"date": "2010-03-30", "type": "ESTIMATED"}, "resultsFirstSubmitDate": "2016-09-30", "resultsFirstSubmitQcDate": "2016-12-13", "resultsFirstPostDateStruct": {"date": "2017-02-06", "type": "ESTIMATED"}, "lastUpdateSubmitDate": "2016-12-13", "lastUpdatePostDateStruct": {"date": "2017-02-06", "type": "ESTIMATED"}}, "sponsorCollaboratorsModule": {"responsibleParty": {"type": "SPONSOR"}, "leadSponsor": {"name": "AstraZeneca", "class": "INDUSTRY"}, "collaborators": [{"name": "AstraZeneca, Bristol-Myers Squibb", "class": "UNKNOWN"}]}, "oversightModule": {"oversightHasDmc": true}, "descriptionModule": {"briefSummary": "The purpose of this clinical research study is to learn if BMS-512148 (Dapagliflozin) can improve (decrease) blood glucose values in Asian patients with Type 2 Diabetes who have never been treated with medication or have been on medication for less than 24 weeks since their original diagnosis of Diabetes. The safety of this treatment will also be studied."}, "conditionsModule": {"conditions": ["Type 2 Diabetes"]}, "designModule": {"studyType": "INTERVENTIONAL", "phases": ["PHASE3"], "designInfo": {"allocation": "RANDOMIZED", "interventionModel": "PARALLEL", "primaryPurpose": "TREATMENT", "maskingInfo": {"masking": "QUADRUPLE", "whoMasked": ["PARTICIPANT", "CARE_PROVIDER", "INVESTIGATOR", "OUTCOMES_ASSESSOR"]}}, "enrollmentInfo": {"count": 1179, "type": "ACTUAL"}}, "armsInterventionsModule": {"armGroups": [{"label": "Group 1", "type": "EXPERIMENTAL", "interventionNames": ["Drug: Dapagliflozin", "Drug: Metformin", "Drug: Dapagliflozin Placebo"]}, {"label": "Group 2", "type": "EXPERIMENTAL", "interventionNames": ["Drug: Dapagliflozin", "Drug: Metformin", "Drug: Dapagliflozin Placebo"]}, {"label": "Group 3", "type": "EXPERIMENTAL", "interventionNames": ["Drug: Metformin", "Drug: Dapagliflozin Placebo"]}], "interventions": [{"type": "DRUG", "name": "Dapagliflozin", "description": "Tablets, Oral, 5 mg, Once daily, 24 weeks", "armGroupLabels": ["Group 1"], "otherNames": ["BMS-512148"]}, {"type": "DRUG", "name": "Dapagliflozin", "description": "Tablets, Oral, 10 mg, Once daily, 24 weeks", "armGroupLabels": ["Group 2"], "otherNames": ["BMS-512148"]}, {"type": "DRUG", "name": "Metformin", "description": "Tablets, Oral, 500-2000 mg (as needed for rescue based on protocol specific criteria), Up to 20 weeks", "armGroupLabels": ["Group 1", "Group 2", "Group 3"], "otherNames": ["Glucophage\u00ae"]}, {"type": "DRUG", "name": "Dapagliflozin Placebo", "description": "Tablets, Oral, 0 mg, Once daily, 24 weeks", "armGroupLabels": ["Group 1", "Group 2", "Group 3"]}]}, "outcomesModule": {"primaryOutcomes": [{"measure": "Adjusted Mean Change From Baseline in Hemoglobin A1C (HbA1c) at Week 24 (Last Observation Carried Forward [LOCF])", "description": "HbA1c was measured as percent of hemoglobin by a central laboratory. Data after rescue medication was excluded from this analysis. Baseline was defined as the last assessment prior to the start date and time of the first dose of the double-blind study medication. In cases where time of the first dose or time of the assessment was not available, baseline was defined as the last assessment on or prior to the date of the first dose of the double-blind study medication. HbA1c measurements were obtained during the qualification and lead-in periods and on Day 1 and Weeks 4, 8, 12, 16, 20, and 24 in the double-blind period.", "timeFrame": "From Baseline to Week 24"}], "secondaryOutcomes": [{"measure": "Adjusted Mean Change From Baseline in Fasting Plasma Glucose (FPG) at Week 24 (Last Observation Carried Forward [LOCF])", "description": "Secondary endpoints were tested using sequential testing procedure and are presented in hierarchical order. Fasting plasma glucose was measured as milligrams per deciliter(mg/dL) by a central laboratory. Baseline was defined as the last assessment prior to the start date and time of the first dose of the double-blind study medication. In cases where time of the first dose or time of the assessment was not available, baseline was defined as the last assessment on or prior to the date of the first dose of the double-blind study medication. FPG measurements were obtained during the qualification and lead-in periods and on Day 1 and Weeks 1, 2, 4, 8, 12, 16, 20, and 24 in the double-blind period.", "timeFrame": "From Baseline to Week 24"}, {"measure": "Adjusted Mean Change From Baseline in 2-hour Post Liquid Meal Glucose (PLMG) (mg/dL) at Week 24 (Last Observation Carried Forward [LOCF])", "description": "Secondary endpoints were tested using sequential testing procedure and are presented in hierarchical order. Post Liquid Meal Glucose was measured as milligrams per deciliter(mg/dL) by a central laboratory. Baseline was defined as the last assessment prior to the start date and time of the first dose of the double-blind study medication. In cases where time of the first dose or time of the assessment was not available, baseline was defined as the last assessment on or prior to the date of the first dose of the double-blind study medication. PLMG measurements were obtained on Day 1 and week 24 in the double-blind period.", "timeFrame": "From Baseline to Week 24"}, {"measure": "Adjusted Mean Change From Baseline in Total Body Weight (kg) at Week 24 (Last Observation Carried Forward [LOCF])", "description": "Secondary endpoints were tested using sequential testing procedure and are presented in hierarchical order. Adjusted mean change from baseline in total body weight at Week 24 (or the last postbaseline measurement prior to Week 24 if no Week 24 assessment was available was determined. Data after rescue medication was excluded from this analysis. Baseline was defined as the last assessment prior to the start date and time of the first dose of the double-blind study medication. In cases where time of the first dose or time of the assessment was not available, baseline was defined as the last assessment on or prior to the date of the first dose of the double-blind study medication. Body weight measurements were obtained during the qualification and lead-in periods and on Day 1 and Weeks 1, 2, 4, 8, 12, 16, 20, and 24 of the double-blind period.", "timeFrame": "From Baseline to Week 24"}, {"measure": "Percentage of Participants Achieving a Therapeutic Glycemic Response (Hemoglobin A1c [HbA1C]) <7.0% at Week 24 (Last Observation Carried Forward [LOCF])", "description": "Secondary endpoints were tested using sequential testing procedure and are presented in hierarchical order. Percent adjusted for baseline HbA1c. Therapeutic glycemic response is defined as HbA1c \\<7.0%. Data after rescue medication was excluded from this analysis. HbA1c was measured as a percent of hemoglobin. Mean and standard error for percentage of participants were estimated by modified logistic regression model.", "timeFrame": "From Baseline to Week 24"}]}, "eligibilityModule": {"eligibilityCriteria": "Inclusion Criteria:\n\n* Males and females, 18 years old, with type 2 diabetes and with inadequate glycemic control\n* Drug naive or treated with anti-diabetic medication for \\< 24 weeks\n* C-peptide \u2265 1.0 ng/mL\n* Body Mass Index \u2264 45.0 kg/m\u00b2\n\nExclusion Criteria:\n\n* AST and/or ALT \\> 3 times ULN\n* Serum total bilirubin \\> 2 mg/dL\n* Serum creatinine \u2265 1.50 mg/dL for men or \u2265 1.40 mg/dL for women\n* Creatine kinase \u2265 3 times ULN\n* Symptoms of severely uncontrolled diabetes\n* Currently unstable or serious cardiovascular, renal, hepatic, hematological, oncological, endocrine, psychiatric, or rheumatic diseases", "healthyVolunteers": false, "sex": "ALL", "minimumAge": "18 Years", "stdAges": ["ADULT", "OLDER_ADULT"]}, "contactsLocationsModule": {"overallOfficials": [{"name": "Bristol-Myers Squibb", "affiliation": "Bristol-Myers Squibb", "role": "STUDY_DIRECTOR"}], "locations": [{"facility": "Local Institution", "city": "Hefei", "state": "Anhui", "zip": "230022", "country": "China", "geoPoint": {"lat": 31.86389, "lon": 117.28083}}, {"facility": "Local Institution", "city": "Beijing", "state": "Beijing", "zip": "100029", "country": "China", "geoPoint": {"lat": 39.9075, "lon": 116.39723}}, {"facility": "Local Institution", "city": "Beijing", "state": "Beijing", "zip": "100044", "country": "China", "geoPoint": {"lat": 39.9075, "lon": 116.39723}}, {"facility": "Local Institution", "city": "Beijing", "state": "Beijing", "zip": "100730", "country": "China", "geoPoint": {"lat": 39.9075, "lon": 116.39723}}, {"facility": "Local Institution", "city": "Beijing", "state": "Beijing", "zip": "100853", "country": "China", "geoPoint": {"lat": 39.9075, "lon": 116.39723}}, {"facility": "Local Institution", "city": "Chongqing", "state": "Chongqing", "zip": "40016", "country": "China", "geoPoint": {"lat": 29.56278, "lon": 106.55278}}, {"facility": "Local Institution", "city": "Guanzhou", "state": "Guangdong", "zip": "510120", "country": "China"}, {"facility": "Local Institution", "city": "Wuhan", "state": "Hubei", "zip": "430022", "country": "China", "geoPoint": {"lat": 30.58333, "lon": 114.26667}}, {"facility": "Local Institution", "city": "Changsha", "state": "Hunan", "zip": "410000", "country": "China", "geoPoint": {"lat": 28.19874, "lon": 112.97087}}, {"facility": "Local Institution", "city": "Changsha", "state": "Hunan", "zip": "410008", "country": "China", "geoPoint": {"lat": 28.19874, "lon": 112.97087}}, {"facility": "Local Institution", "city": "Nanjing", "state": "Jiangsu", "zip": "210008", "country": "China", "geoPoint": {"lat": 32.06167, "lon": 118.77778}}, {"facility": "Local Institution", "city": "Nanjing", "state": "Jiangsu", "zip": "210012", "country": "China", "geoPoint": {"lat": 32.06167, "lon": 118.77778}}, {"facility": "Local Institution", "city": "Wuxi", "state": "Jiangsu", "zip": "214023", "country": "China", "geoPoint": {"lat": 31.56887, "lon": 120.28857}}, {"facility": "Local Institution", "city": "Changchun", "state": "Jilin", "zip": "130041", "country": "China", "geoPoint": {"lat": 43.88, "lon": 125.32278}}, {"facility": "Local Institution", "city": "Shenyang", "state": "Liaoning", "zip": "110003", "country": "China", "geoPoint": {"lat": 41.79222, "lon": 123.43278}}, {"facility": "Local Institution", "city": "Shanghai", "state": "Shanghai", "zip": "200003", "country": "China", "geoPoint": {"lat": 31.22222, "lon": 121.45806}}, {"facility": "Local Institution", "city": "Shanghai", "state": "Shanghai", "zip": "200040", "country": "China", "geoPoint": {"lat": 31.22222, "lon": 121.45806}}, {"facility": "Local Institution", "city": "Shanghai", "state": "Shanghai", "zip": "200065", "country": "China", "geoPoint": {"lat": 31.22222, "lon": 121.45806}}, {"facility": "Local Institution", "city": "Chengdu", "state": "Sichuan", "zip": "610072", "country": "China", "geoPoint": {"lat": 30.66667, "lon": 104.06667}}, {"facility": "Local Institution", "city": "Tianjin", "state": "Tianjin", "zip": "300211", "country": "China", "geoPoint": {"lat": 39.14222, "lon": 117.17667}}, {"facility": "Local Institution", "city": "Hangzhou", "state": "Zhejiang", "zip": "310003", "country": "China", "geoPoint": {"lat": 30.29365, "lon": 120.16142}}, {"facility": "Local Institution", "city": "Hangzhou", "state": "Zhejiang", "zip": "310009", "country": "China", "geoPoint": {"lat": 30.29365, "lon": 120.16142}}, {"facility": "Local Institution", "city": "Beijing", "zip": "100034", "country": "China", "geoPoint": {"lat": 39.9075, "lon": 116.39723}}, {"facility": "Local Institution", "city": "Wuhan", "zip": "430030", "country": "China", "geoPoint": {"lat": 30.58333, "lon": 114.26667}}, {"facility": "Local Institution", "city": "Xian", "zip": "710032", "country": "China", "geoPoint": {"lat": 34.25833, "lon": 108.92861}}, {"facility": "Local Institution", "city": "Bangalore", "state": "Karnataka", "zip": "560043", "country": "India", "geoPoint": {"lat": 12.97194, "lon": 77.59369}}, {"facility": "Local Institution", "city": "Indore", "state": "Madhya Pradesh", "zip": "452010", "country": "India", "geoPoint": {"lat": 22.71792, "lon": 75.8333}}, {"facility": "Local Institution", "city": "Bangalore", "zip": "560092", "country": "India", "geoPoint": {"lat": 12.97194, "lon": 77.59369}}, {"facility": "Local Institution", "city": "Jaipur", "zip": "302023", "country": "India", "geoPoint": {"lat": 26.91962, "lon": 75.78781}}, {"facility": "Local Institution", "city": "Seoul", "state": "Nowon-GU", "zip": "139-711", "country": "Korea, Republic of", "geoPoint": {"lat": 37.566, "lon": 126.9784}}, {"facility": "Local Institution", "city": "Busanjin-gu", "zip": "633-165", "country": "Korea, Republic of"}, {"facility": "Local Institution", "city": "Guri-si", "zip": "471-701", "country": "Korea, Republic of", "geoPoint": {"lat": 37.5986, "lon": 127.1394}}, {"facility": "Local Institution", "city": "Seoul", "zip": "120-752", "country": "Korea, Republic of", "geoPoint": {"lat": 37.566, "lon": 126.9784}}, {"facility": "Local Institution", "city": "Seoul", "zip": "137040", "country": "Korea, Republic of", "geoPoint": {"lat": 37.566, "lon": 126.9784}}, {"facility": "Local Institution", "city": "Taichung", "zip": "402", "country": "Taiwan", "geoPoint": {"lat": 24.1469, "lon": 120.6839}}, {"facility": "Local Institution", "city": "Taichung", "zip": "43303", "country": "Taiwan", "geoPoint": {"lat": 24.1469, "lon": 120.6839}}, {"facility": "Local Institution", "city": "Taipei", "zip": "110", "country": "Taiwan", "geoPoint": {"lat": 25.04776, "lon": 121.53185}}, {"facility": "Local Institution", "city": "Taipei", "zip": "235", "country": "Taiwan", "geoPoint": {"lat": 25.04776, "lon": 121.53185}}, {"facility": "Local Institution", "city": "Yung Kang city", "zip": "71044", "country": "Taiwan"}]}, "referencesModule": {"seeAlsoLinks": [{"label": "Publication", "url": "https://www.ncbi.nlm.nih.gov/pubmed?term=%22Clinical+therapeutics%22%5BJour%5D+AND+2014%5Bpdat%5D+AND+Dapagliflozin&TransSchema=title&cmd=detailssearch&_sm_au_=iFHnRDqNTf1p01TQ"}]}}, "resultsSection": {"participantFlowModule": {"recruitmentDetails": "Of 1179 participants enrolled, 514 completed a qualification period. Of these 514 participants, 393 were randomized and received treatment. Of these 393 participants, 343 completed double-blind treatment period.", "groups": [{"id": "FG000", "title": "Placebo", "description": "Participants received dapagliflozin matching placebo once daily for up to 24 weeks (may include the addition of open-label metformin as rescue)"}, {"id": "FG001", "title": "Dapagliflozin 5 mg", "description": "Participants received dapagliflozin 5 mg once daily for up to 24 weeks (may include the addition of open-label metformin as rescue)"}, {"id": "FG002", "title": "Dapagliflozin 10 mg", "description": "Participants received dapagliflozin 10 mg once daily for up to 24 weeks (may include the addition of open-label metformin as rescue)"}], "periods": [{"title": "Overall Study", "milestones": [{"type": "STARTED", "achievements": [{"groupId": "FG000", "numSubjects": "132"}, {"groupId": "FG001", "numSubjects": "128"}, {"groupId": "FG002", "numSubjects": "133"}]}, {"type": "COMPLETED", "achievements": [{"groupId": "FG000", "numSubjects": "113"}, {"groupId": "FG001", "numSubjects": "113"}, {"groupId": "FG002", "numSubjects": "117"}]}, {"type": "NOT COMPLETED", "achievements": [{"groupId": "FG000", "numSubjects": "19"}, {"groupId": "FG001", "numSubjects": "15"}, {"groupId": "FG002", "numSubjects": "16"}]}], "dropWithdraws": [{"type": "Lack of Efficacy", "reasons": [{"groupId": "FG000", "numSubjects": "3"}, {"groupId": "FG001", "numSubjects": "0"}, {"groupId": "FG002", "numSubjects": "0"}]}, {"type": "Adverse Event", "reasons": [{"groupId": "FG000", "numSubjects": "1"}, {"groupId": "FG001", "numSubjects": "4"}, {"groupId": "FG002", "numSubjects": "4"}]}, {"type": "Lost to Follow-up", "reasons": [{"groupId": "FG000", "numSubjects": "1"}, {"groupId": "FG001", "numSubjects": "0"}, {"groupId": "FG002", "numSubjects": "4"}]}, {"type": "Withdrawal by Subject", "reasons": [{"groupId": "FG000", "numSubjects": "4"}, {"groupId": "FG001", "numSubjects": "5"}, {"groupId": "FG002", "numSubjects": "3"}]}, {"type": "non-compliance, not met criteria, etc.", "reasons": [{"groupId": "FG000", "numSubjects": "10"}, {"groupId": "FG001", "numSubjects": "6"}, {"groupId": "FG002", "numSubjects": "5"}]}]}]}, "baselineCharacteristicsModule": {"populationDescription": "All randomized participants who received at least 1 dose of study medication", "groups": [{"id": "BG000", "title": "Placebo", "description": "Participants received dapagliflozin matching placebo once daily for up to 24 weeks (may include the addition of open-label metformin as rescue)"}, {"id": "BG001", "title": "Dapagliflozin 5 mg", "description": "Participants received dapagliflozin 5 mg once daily for up to 24 weeks (may include the addition of open-label metformin as rescue)"}, {"id": "BG002", "title": "Dapagliflozin 10 mg", "description": "Participants received dapagliflozin 10 mg once daily for up to 24 weeks (may include the addition of open-label metformin as rescue)"}, {"id": "BG003", "title": "Total", "description": "Total of all reporting groups"}], "denoms": [{"units": "Participants", "counts": [{"groupId": "BG000", "value": "132"}, {"groupId": "BG001", "value": "128"}, {"groupId": "BG002", "value": "133"}, {"groupId": "BG003", "value": "393"}]}], "measures": [{"title": "Age, Continuous", "paramType": "MEAN", "dispersionType": "STANDARD_DEVIATION", "unitOfMeasure": "Years", "classes": [{"categories": [{"measurements": [{"groupId": "BG000", "value": "49.9", "spread": "10.87", "lowerLimit": "20", "upperLimit": "75"}, {"groupId": "BG001", "value": "53.0", "spread": "11.07", "lowerLimit": "29", "upperLimit": "79"}, {"groupId": "BG002", "value": "51.2", "spread": "9.89", "lowerLimit": "21", "upperLimit": "72"}, {"groupId": "BG003", "value": "51.3", "spread": "10.67", "lowerLimit": "20", "upperLimit": "79"}]}]}]}, {"title": "Age, Customized", "paramType": "NUMBER", "unitOfMeasure": "Participants", "classes": [{"title": "Younger than 65 years", "categories": [{"measurements": [{"groupId": "BG000", "value": "120"}, {"groupId": "BG001", "value": "108"}, {"groupId": "BG002", "value": "123"}, {"groupId": "BG003", "value": "351"}]}]}, {"title": "65 to younger than 75 years", "categories": [{"measurements": [{"groupId": "BG000", "value": "11"}, {"groupId": "BG001", "value": "14"}, {"groupId": "BG002", "value": "10"}, {"groupId": "BG003", "value": "35"}]}]}, {"title": "75 years and older", "categories": [{"measurements": [{"groupId": "BG000", "value": "1"}, {"groupId": "BG001", "value": "6"}, {"groupId": "BG002", "value": "0"}, {"groupId": "BG003", "value": "7"}]}]}]}, {"title": "Sex/Gender, Customized", "paramType": "NUMBER", "unitOfMeasure": "Participants", "classes": [{"title": "Male", "categories": [{"measurements": [{"groupId": "BG000", "value": "87"}, {"groupId": "BG001", "value": "84"}, {"groupId": "BG002", "value": "86"}, {"groupId": "BG003", "value": "257"}]}]}, {"title": "Female", "categories": [{"measurements": [{"groupId": "BG000", "value": "45"}, {"groupId": "BG001", "value": "44"}, {"groupId": "BG002", "value": "47"}, {"groupId": "BG003", "value": "136"}]}]}]}, {"title": "Race/Ethnicity, Customized", "paramType": "NUMBER", "unitOfMeasure": "Participants", "classes": [{"title": "ASIAN INDIAN", "categories": [{"measurements": [{"groupId": "BG000", "value": "8"}, {"groupId": "BG001", "value": "8"}, {"groupId": "BG002", "value": "9"}, {"groupId": "BG003", "value": "25"}]}]}, {"title": "CHINESE", "categories": [{"measurements": [{"groupId": "BG000", "value": "117"}, {"groupId": "BG001", "value": "114"}, {"groupId": "BG002", "value": "117"}, {"groupId": "BG003", "value": "348"}]}]}, {"title": "JAPANESE", "categories": [{"measurements": [{"groupId": "BG000", "value": "1"}, {"groupId": "BG001", "value": "0"}, {"groupId": "BG002", "value": "1"}, {"groupId": "BG003", "value": "2"}]}]}, {"title": "KOREAN", "categories": [{"measurements": [{"groupId": "BG000", "value": "5"}, {"groupId": "BG001", "value": "6"}, {"groupId": "BG002", "value": "5"}, {"groupId": "BG003", "value": "16"}]}]}, {"title": "ASIAN OTHER", "categories": [{"measurements": [{"groupId": "BG000", "value": "1"}, {"groupId": "BG001", "value": "0"}, {"groupId": "BG002", "value": "1"}, {"groupId": "BG003", "value": "2"}]}]}]}, {"title": "Weight", "paramType": "MEAN", "dispersionType": "STANDARD_DEVIATION", "unitOfMeasure": "kg", "classes": [{"categories": [{"measurements": [{"groupId": "BG000", "value": "72.18", "spread": "13.234"}, {"groupId": "BG001", "value": "68.89", "spread": "11.429"}, {"groupId": "BG002", "value": "70.92", "spread": "11.637"}, {"groupId": "BG003", "value": "70.68", "spread": "12.177"}]}]}]}, {"title": "Body Mass Index (BMI)", "paramType": "MEAN", "dispersionType": "STANDARD_DEVIATION", "unitOfMeasure": "kg/m^2", "classes": [{"categories": [{"measurements": [{"groupId": "BG000", "value": "25.93", "spread": "3.644"}, {"groupId": "BG001", "value": "25.17", "spread": "3.285"}, {"groupId": "BG002", "value": "25.76", "spread": "3.434"}, {"groupId": "BG003", "value": "25.62", "spread": "3.465"}]}]}]}]}, "outcomeMeasuresModule": {"outcomeMeasures": [{"type": "PRIMARY", "title": "Adjusted Mean Change From Baseline in Hemoglobin A1C (HbA1c) at Week 24 (Last Observation Carried Forward [LOCF])", "description": "HbA1c was measured as percent of hemoglobin by a central laboratory. Data after rescue medication was excluded from this analysis. Baseline was defined as the last assessment prior to the start date and time of the first dose of the double-blind study medication. In cases where time of the first dose or time of the assessment was not available, baseline was defined as the last assessment on or prior to the date of the first dose of the double-blind study medication. HbA1c measurements were obtained during the qualification and lead-in periods and on Day 1 and Weeks 4, 8, 12, 16, 20, and 24 in the double-blind period.", "populationDescription": "All randomized participants who received study medication and had nonmissing HbA1c values at baseline and Week 24 (LOCF)", "reportingStatus": "POSTED", "paramType": "MEAN", "dispersionType": "Standard Error", "unitOfMeasure": "% of hemoglobin", "timeFrame": "From Baseline to Week 24", "groups": [{"id": "OG000", "title": "Placebo", "description": "Participants received dapagliflozin matching placebo once daily for up to 24 weeks (may include the addition of open-label metformin as rescue)"}, {"id": "OG001", "title": "Dapagliflozin 5 mg", "description": "Participants received dapagliflozin 5 mg once daily for up to 24 weeks (may include the addition of open-label metformin as rescue)"}, {"id": "OG002", "title": "Dapagliflozin 10 mg", "description": "Participants received dapagliflozin 10 mg once daily for up to 24 weeks (may include the addition of open-label metformin as rescue)"}], "denoms": [{"units": "Participants", "counts": [{"groupId": "OG000", "value": "127"}, {"groupId": "OG001", "value": "122"}, {"groupId": "OG002", "value": "127"}]}], "classes": [{"categories": [{"measurements": [{"groupId": "OG000", "value": "-0.29", "spread": "0.0681"}, {"groupId": "OG001", "value": "-1.04", "spread": "0.0695"}, {"groupId": "OG002", "value": "-1.11", "spread": "0.0680"}]}]}], "analyses": [{"groupIds": ["OG000", "OG001"], "testedNonInferiority": false, "nonInferiorityType": "SUPERIORITY_OR_OTHER", "pValue": "<0.0001", "pValueComment": "Primary endpoints were tested at alpha=0.027 applying Dunnett's adjustment", "statisticalMethod": "ANCOVA", "paramType": "Mean Difference (Final Values)", "paramValue": "-0.75", "ciPctValue": "95", "ciNumSides": "TWO_SIDED", "ciLowerLimit": "-0.94", "ciUpperLimit": "-0.56", "dispersionType": "STANDARD_ERROR_OF_MEAN", "dispersionValue": "0.0975"}, {"groupIds": ["OG000", "OG002"], "testedNonInferiority": false, "nonInferiorityType": "SUPERIORITY_OR_OTHER", "pValue": "<0.0001", "pValueComment": "Primary endpoints were tested at alpha=0.027 applying Dunnett's adjustment", "statisticalMethod": "ANCOVA", "paramType": "Mean Difference (Final Values)", "paramValue": "-0.82", "ciPctValue": "95", "ciNumSides": "TWO_SIDED", "ciLowerLimit": "-1.01", "ciUpperLimit": "-0.63", "dispersionType": "STANDARD_ERROR_OF_MEAN", "dispersionValue": "0.0962"}]}, {"type": "SECONDARY", "title": "Adjusted Mean Change From Baseline in Fasting Plasma Glucose (FPG) at Week 24 (Last Observation Carried Forward [LOCF])", "description": "Secondary endpoints were tested using sequential testing procedure and are presented in hierarchical order. Fasting plasma glucose was measured as milligrams per deciliter(mg/dL) by a central laboratory. Baseline was defined as the last assessment prior to the start date and time of the first dose of the double-blind study medication. In cases where time of the first dose or time of the assessment was not available, baseline was defined as the last assessment on or prior to the date of the first dose of the double-blind study medication. FPG measurements were obtained during the qualification and lead-in periods and on Day 1 and Weeks 1, 2, 4, 8, 12, 16, 20, and 24 in the double-blind period.", "populationDescription": "All randomized participants who received study medication and had nonmissing FPG values at baseline and Week 24 (LOCF)", "reportingStatus": "POSTED", "paramType": "MEAN", "dispersionType": "Standard Error", "unitOfMeasure": "mg/dL", "timeFrame": "From Baseline to Week 24", "groups": [{"id": "OG000", "title": "Placebo", "description": "Participants received dapagliflozin matching placebo once daily for up to 24 weeks (may include the addition of open-label metformin as rescue)"}, {"id": "OG001", "title": "Dapagliflozin 5 mg", "description": "Participants received dapagliflozin 5 mg once daily for up to 24 weeks (may include the addition of open-label metformin as rescue)"}, {"id": "OG002", "title": "Dapagliflozin 10 mg", "description": "Participants received dapagliflozin 10 mg once daily for up to 24 weeks (may include the addition of open-label metformin as rescue)"}], "denoms": [{"units": "Participants", "counts": [{"groupId": "OG000", "value": "131"}, {"groupId": "OG001", "value": "127"}, {"groupId": "OG002", "value": "128"}]}], "classes": [{"categories": [{"measurements": [{"groupId": "OG000", "value": "2.5", "spread": "2.237"}, {"groupId": "OG001", "value": "-25.1", "spread": "2.274"}, {"groupId": "OG002", "value": "-31.6", "spread": "2.255"}]}]}], "analyses": [{"groupIds": ["OG000", "OG001"], "testedNonInferiority": false, "nonInferiorityType": "SUPERIORITY_OR_OTHER", "pValue": "<0.0001", "pValueComment": "Secondary endpoints were tested following a sequential testing procedure at alpha=0.05", "statisticalMethod": "ANCOVA", "paramType": "Mean Difference (Final Values)", "paramValue": "-27.7", "ciPctValue": "95", "ciNumSides": "TWO_SIDED", "ciLowerLimit": "-34.0", "ciUpperLimit": "-21.4", "dispersionType": "STANDARD_ERROR_OF_MEAN", "dispersionValue": "3.203"}, {"groupIds": ["OG000", "OG002"], "testedNonInferiority": false, "nonInferiorityType": "SUPERIORITY_OR_OTHER", "pValue": "<0.0001", "pValueComment": "Secondary endpoints were tested following a sequential testing procedure at alpha=0.05", "statisticalMethod": "ANCOVA", "paramType": "Mean Difference (Final Values)", "paramValue": "-34.2", "ciPctValue": "95", "ciNumSides": "TWO_SIDED", "ciLowerLimit": "-40.4", "ciUpperLimit": "-27.9", "dispersionType": "STANDARD_ERROR_OF_MEAN", "dispersionValue": "3.174"}]}, {"type": "SECONDARY", "title": "Adjusted Mean Change From Baseline in 2-hour Post Liquid Meal Glucose (PLMG) (mg/dL) at Week 24 (Last Observation Carried Forward [LOCF])", "description": "Secondary endpoints were tested using sequential testing procedure and are presented in hierarchical order. Post Liquid Meal Glucose was measured as milligrams per deciliter(mg/dL) by a central laboratory. Baseline was defined as the last assessment prior to the start date and time of the first dose of the double-blind study medication. In cases where time of the first dose or time of the assessment was not available, baseline was defined as the last assessment on or prior to the date of the first dose of the double-blind study medication. PLMG measurements were obtained on Day 1 and week 24 in the double-blind period.", "populationDescription": "All randomized participants who received study medication and had nonmissing PLMG values at baseline and Week 24 (LOCF)", "reportingStatus": "POSTED", "paramType": "MEAN", "dispersionType": "Standard Error", "unitOfMeasure": "mg/dL", "timeFrame": "From Baseline to Week 24", "groups": [{"id": "OG000", "title": "Placebo", "description": "Participants received dapagliflozin matching placebo once daily for up to 24 weeks (may include the addition of open-label metformin as rescue)"}, {"id": "OG001", "title": "Dapagliflozin 5 mg", "description": "Participants received dapagliflozin 5 mg once daily for up to 24 weeks (may include the addition of open-label metformin as rescue)"}, {"id": "OG002", "title": "Dapagliflozin 10 mg", "description": "Participants received dapagliflozin 10 mg once daily for up to 24 weeks (may include the addition of open-label metformin as rescue)"}], "denoms": [{"units": "Participants", "counts": [{"groupId": "OG000", "value": "105"}, {"groupId": "OG001", "value": "100"}, {"groupId": "OG002", "value": "105"}]}], "classes": [{"categories": [{"measurements": [{"groupId": "OG000", "value": "1.08", "spread": "4.5663"}, {"groupId": "OG001", "value": "-46.8", "spread": "4.6559"}, {"groupId": "OG002", "value": "-54.9", "spread": "4.5257"}]}]}], "analyses": [{"groupIds": ["OG000", "OG001"], "testedNonInferiority": false, "nonInferiorityType": "SUPERIORITY_OR_OTHER", "pValue": "<0.0001", "pValueComment": "Secondary endpoints were tested following a sequential testing procedure at alpha=0.05", "statisticalMethod": "ANCOVA", "paramType": "Mean Difference (Final Values)", "paramValue": "-47.9", "ciPctValue": "95", "ciNumSides": "TWO_SIDED", "ciLowerLimit": "-60.80", "ciUpperLimit": "-34.96", "dispersionType": "STANDARD_ERROR_OF_MEAN", "dispersionValue": "6.5667"}, {"groupIds": ["OG000", "OG002"], "testedNonInferiority": false, "nonInferiorityType": "SUPERIORITY_OR_OTHER", "pValue": "<0.0001", "pValueComment": "Secondary endpoints were tested following a sequential testing procedure at alpha=0.05", "statisticalMethod": "ANCOVA", "paramType": "Mean Difference (Final Values)", "paramValue": "-56.0", "ciPctValue": "95", "ciNumSides": "TWO_SIDED", "ciLowerLimit": "-68.66", "ciUpperLimit": "-43.28", "dispersionType": "STANDARD_ERROR_OF_MEAN", "dispersionValue": "6.4489"}]}, {"type": "SECONDARY", "title": "Adjusted Mean Change From Baseline in Total Body Weight (kg) at Week 24 (Last Observation Carried Forward [LOCF])", "description": "Secondary endpoints were tested using sequential testing procedure and are presented in hierarchical order. Adjusted mean change from baseline in total body weight at Week 24 (or the last postbaseline measurement prior to Week 24 if no Week 24 assessment was available was determined. Data after rescue medication was excluded from this analysis. Baseline was defined as the last assessment prior to the start date and time of the first dose of the double-blind study medication. In cases where time of the first dose or time of the assessment was not available, baseline was defined as the last assessment on or prior to the date of the first dose of the double-blind study medication. Body weight measurements were obtained during the qualification and lead-in periods and on Day 1 and Weeks 1, 2, 4, 8, 12, 16, 20, and 24 of the double-blind period.", "populationDescription": "All randomized participants who received study medication and had nonmissing body weight values at baseline and Week 24 (LOCF)", "reportingStatus": "POSTED", "paramType": "MEAN", "dispersionType": "Standard Error", "unitOfMeasure": "kg", "timeFrame": "From Baseline to Week 24", "groups": [{"id": "OG000", "title": "Placebo", "description": "Participants received dapagliflozin matching placebo once daily for up to 24 weeks (may include the addition of open-label metformin as rescue)"}, {"id": "OG001", "title": "Dapagliflozin 5 mg", "description": "Participants received dapagliflozin 5 mg once daily for up to 24 weeks (may include the addition of open-label metformin as rescue)"}, {"id": "OG002", "title": "Dapagliflozin 10 mg", "description": "Participants received dapagliflozin 10 mg once daily for up to 24 weeks (may include the addition of open-label metformin as rescue)"}], "denoms": [{"units": "Participants", "counts": [{"groupId": "OG000", "value": "132"}, {"groupId": "OG001", "value": "128"}, {"groupId": "OG002", "value": "128"}]}], "classes": [{"categories": [{"measurements": [{"groupId": "OG000", "value": "-0.27", "spread": "0.2279"}, {"groupId": "OG001", "value": "-1.64", "spread": "0.2315"}, {"groupId": "OG002", "value": "-2.25", "spread": "0.2308"}]}]}], "analyses": [{"groupIds": ["OG000", "OG001"], "testedNonInferiority": false, "nonInferiorityType": "SUPERIORITY_OR_OTHER", "pValue": "<0.0001", "pValueComment": "Secondary endpoints were tested following a sequential testing procedure at alpha=0.05", "statisticalMethod": "ANCOVA", "paramType": "Mean Difference (Final Values)", "paramValue": "-1.37", "ciPctValue": "95", "ciNumSides": "TWO_SIDED", "ciLowerLimit": "-2.01", "ciUpperLimit": "-0.73", "dispersionType": "STANDARD_ERROR_OF_MEAN", "dispersionValue": "0.3259"}, {"groupIds": ["OG000", "OG002"], "testedNonInferiority": false, "nonInferiorityType": "SUPERIORITY_OR_OTHER", "pValue": "<0.0001", "pValueComment": "Secondary endpoints were tested following a sequential testing procedure at alpha=0.05", "statisticalMethod": "ANCOVA", "paramType": "Mean Difference (Final Values)", "paramValue": "-1.98", "ciPctValue": "95", "ciNumSides": "TWO_SIDED", "ciLowerLimit": "-2.62", "ciUpperLimit": "-1.34", "dispersionType": "STANDARD_ERROR_OF_MEAN", "dispersionValue": "0.3242"}]}, {"type": "SECONDARY", "title": "Percentage of Participants Achieving a Therapeutic Glycemic Response (Hemoglobin A1c [HbA1C]) <7.0% at Week 24 (Last Observation Carried Forward [LOCF])", "description": "Secondary endpoints were tested using sequential testing procedure and are presented in hierarchical order. Percent adjusted for baseline HbA1c. Therapeutic glycemic response is defined as HbA1c \\<7.0%. Data after rescue medication was excluded from this analysis. HbA1c was measured as a percent of hemoglobin. Mean and standard error for percentage of participants were estimated by modified logistic regression model.", "populationDescription": "All randomized participants who received study medication and had nonmissing values at baseline and Week 24 (LOCF)", "reportingStatus": "POSTED", "paramType": "MEAN", "dispersionType": "Standard Error", "unitOfMeasure": "Percentage of participants", "timeFrame": "From Baseline to Week 24", "groups": [{"id": "OG000", "title": "Placebo", "description": "Participants received dapagliflozin matching placebo once daily for up to 24 weeks (may include the addition of open-label metformin as rescue)"}, {"id": "OG001", "title": "Dapagliflozin 5 mg", "description": "Participants received dapagliflozin 5 mg once daily for up to 24 weeks (may include the addition of open-label metformin as rescue)"}, {"id": "OG002", "title": "Dapagliflozin 10 mg", "description": "Participants received dapagliflozin 10 mg once daily for up to 24 weeks (may include the addition of open-label metformin as rescue)"}], "denoms": [{"units": "Participants", "counts": [{"groupId": "OG000", "value": "127"}, {"groupId": "OG001", "value": "122"}, {"groupId": "OG002", "value": "127"}]}], "classes": [{"categories": [{"measurements": [{"groupId": "OG000", "value": "21.3", "spread": "3.310"}, {"groupId": "OG001", "value": "42.6", "spread": "4.300"}, {"groupId": "OG002", "value": "49.8", "spread": "4.032"}]}]}], "analyses": [{"groupIds": ["OG000", "OG001"], "testedNonInferiority": false, "nonInferiorityType": "SUPERIORITY_OR_OTHER", "pValue": "<0.0001", "pValueComment": "Secondary endpoints were tested following a sequential testing procedure at alpha=0.05", "statisticalMethod": "Modified logistic regression", "paramType": "Mean Difference (Final Values)", "paramValue": "21.3", "ciPctValue": "95", "ciNumSides": "TWO_SIDED", "ciLowerLimit": "11.1", "ciUpperLimit": "31.6", "dispersionType": "STANDARD_ERROR_OF_MEAN", "dispersionValue": "5.238"}, {"groupIds": ["OG000", "OG002"], "testedNonInferiority": false, "nonInferiorityType": "SUPERIORITY_OR_OTHER", "pValue": "<0.0001", "pValueComment": "Secondary endpoints were tested following a sequential testing procedure at alpha=0.05", "statisticalMethod": "Modified logistic regression", "paramType": "Mean Difference (Final Values)", "paramValue": "28.5", "ciPctValue": "95", "ciNumSides": "TWO_SIDED", "ciLowerLimit": "18.6", "ciUpperLimit": "38.3", "dispersionType": "STANDARD_ERROR_OF_MEAN", "dispersionValue": "5.022"}]}]}, "adverseEventsModule": {"frequencyThreshold": "5", "timeFrame": "Onset on or after the first date of double-blind treatment and on or prior to the last day of double-blind treatment 24 weeks plus 4 days for non-serious adverse event; plus 30 days for serious adverse event.", "eventGroups": [{"id": "EG000", "title": "Placebo", "description": "Participants received dapagliflozin matching placebo once daily for up to 24 weeks (may include the addition of open-label metformin as rescue)", "seriousNumAffected": 2, "seriousNumAtRisk": 132, "otherNumAffected": 38, "otherNumAtRisk": 132}, {"id": "EG001", "title": "Dapagliflozin 5 mg", "description": "Participants received dapagliflozin 5 mg once daily for up to 24 weeks (may include the addition of open-label metformin as rescue)", "seriousNumAffected": 5, "seriousNumAtRisk": 128, "otherNumAffected": 28, "otherNumAtRisk": 128}, {"id": "EG002", "title": "Dapagliflozin 10 mg", "description": "Participants received dapagliflozin 10 mg once daily for up to 24 weeks (may include the addition of open-label metformin as rescue)", "seriousNumAffected": 4, "seriousNumAtRisk": 133, "otherNumAffected": 23, "otherNumAtRisk": 133}], "seriousEvents": [{"term": "PYLORIC STENOSIS", "organSystem": "Congenital, familial and genetic disorders", "sourceVocabulary": "MedDRA Version: 15.0", "assessmentType": "SYSTEMATIC_ASSESSMENT", "stats": [{"groupId": "EG000", "numEvents": 0, "numAffected": 0, "numAtRisk": 132}, {"groupId": "EG001", "numEvents": 0, "numAffected": 0, "numAtRisk": 128}, {"groupId": "EG002", "numEvents": 1, "numAffected": 1, "numAtRisk": 133}]}, {"term": "GOITRE", "organSystem": "Endocrine disorders", "sourceVocabulary": "MedDRA Version: 15.0", "assessmentType": "SYSTEMATIC_ASSESSMENT", "stats": [{"groupId": "EG000", "numEvents": 0, "numAffected": 0, "numAtRisk": 132}, {"groupId": "EG001", "numEvents": 1, "numAffected": 1, "numAtRisk": 128}, {"groupId": "EG002", "numEvents": 1, "numAffected": 1, "numAtRisk": 133}]}, {"term": "GASTRIC ULCER", "organSystem": "Gastrointestinal disorders", "sourceVocabulary": "MedDRA Version: 15.0", "assessmentType": "SYSTEMATIC_ASSESSMENT", "stats": [{"groupId": "EG000", "numEvents": 0, "numAffected": 0, "numAtRisk": 132}, {"groupId": "EG001", "numEvents": 0, "numAffected": 0, "numAtRisk": 128}, {"groupId": "EG002", "numEvents": 1, "numAffected": 1, "numAtRisk": 133}]}, {"term": "URETHRITIS", "organSystem": "Infections and infestations", "sourceVocabulary": "MedDRA Version: 15.0", "assessmentType": "SYSTEMATIC_ASSESSMENT", "stats": [{"groupId": "EG000", "numEvents": 0, "numAffected": 0, "numAtRisk": 132}, {"groupId": "EG001", "numEvents": 0, "numAffected": 0, "numAtRisk": 128}, {"groupId": "EG002", "numEvents": 1, "numAffected": 1, "numAtRisk": 133}]}, {"term": "LACUNAR INFARCTION", "organSystem": "Nervous system disorders", "sourceVocabulary": "MedDRA Version: 15.0", "assessmentType": "SYSTEMATIC_ASSESSMENT", "stats": [{"groupId": "EG000", "numEvents": 0, "numAffected": 0, "numAtRisk": 132}, {"groupId": "EG001", "numEvents": 0, "numAffected": 0, "numAtRisk": 128}, {"groupId": "EG002", "numEvents": 1, "numAffected": 1, "numAtRisk": 133}]}, {"term": "CEREBRAL INFARCTION", "organSystem": "Nervous system disorders", "sourceVocabulary": "MedDRA Version: 15.0", "assessmentType": "SYSTEMATIC_ASSESSMENT", "stats": [{"groupId": "EG000", "numEvents": 0, "numAffected": 0, "numAtRisk": 132}, {"groupId": "EG001", "numEvents": 2, "numAffected": 2, "numAtRisk": 128}, {"groupId": "EG002", "numEvents": 0, "numAffected": 0, "numAtRisk": 133}]}, {"term": "MYOCARDIAL INFARCTION", "organSystem": "Cardiac disorders", "sourceVocabulary": "MedDRA Version: 15.0", "assessmentType": "SYSTEMATIC_ASSESSMENT", "stats": [{"groupId": "EG000", "numEvents": 1, "numAffected": 1, "numAtRisk": 132}, {"groupId": "EG001", "numEvents": 0, "numAffected": 0, "numAtRisk": 128}, {"groupId": "EG002", "numEvents": 0, "numAffected": 0, "numAtRisk": 133}]}, {"term": "CHOLECYSTITIS", "organSystem": "Hepatobiliary disorders", "sourceVocabulary": "MedDRA Version: 15.0", "assessmentType": "SYSTEMATIC_ASSESSMENT", "stats": [{"groupId": "EG000", "numEvents": 0, "numAffected": 0, "numAtRisk": 132}, {"groupId": "EG001", "numEvents": 1, "numAffected": 1, "numAtRisk": 128}, {"groupId": "EG002", "numEvents": 0, "numAffected": 0, "numAtRisk": 133}]}, {"term": "CHOLECYSTITIS ACUTE", "organSystem": "Hepatobiliary disorders", "sourceVocabulary": "MedDRA Version: 15.0", "assessmentType": "SYSTEMATIC_ASSESSMENT", "stats": [{"groupId": "EG000", "numEvents": 1, "numAffected": 1, "numAtRisk": 132}, {"groupId": "EG001", "numEvents": 0, "numAffected": 0, "numAtRisk": 128}, {"groupId": "EG002", "numEvents": 0, "numAffected": 0, "numAtRisk": 133}]}, {"term": "ANKLE FRACTURE", "organSystem": "Injury, poisoning and procedural complications", "sourceVocabulary": "MedDRA Version: 15.0", "assessmentType": "SYSTEMATIC_ASSESSMENT", "stats": [{"groupId": "EG000", "numEvents": 0, "numAffected": 0, "numAtRisk": 132}, {"groupId": "EG001", "numEvents": 1, "numAffected": 1, "numAtRisk": 128}, {"groupId": "EG002", "numEvents": 0, "numAffected": 0, "numAtRisk": 133}]}, {"term": "PANCREATIC CARCINOMA", "organSystem": "Neoplasms benign, malignant and unspecified (incl cysts and polyps)", "sourceVocabulary": "MedDRA Version: 15.0", "assessmentType": "SYSTEMATIC_ASSESSMENT", "stats": [{"groupId": "EG000", "numEvents": 0, "numAffected": 0, "numAtRisk": 132}, {"groupId": "EG001", "numEvents": 1, "numAffected": 1, "numAtRisk": 128}, {"groupId": "EG002", "numEvents": 0, "numAffected": 0, "numAtRisk": 133}]}], "otherEvents": [{"term": "HYPERLIPIDAEMIA", "organSystem": "Metabolism and nutrition disorders", "sourceVocabulary": "MedDRA Version: 15.0", "assessmentType": "SYSTEMATIC_ASSESSMENT", "stats": [{"groupId": "EG000", "numEvents": 14, "numAffected": 14, "numAtRisk": 132}, {"groupId": "EG001", "numEvents": 10, "numAffected": 10, "numAtRisk": 128}, {"groupId": "EG002", "numEvents": 9, "numAffected": 9, "numAtRisk": 133}]}, {"term": "UPPER RESPIRATORY TRACT INFECTION", "organSystem": "Infections and infestations", "sourceVocabulary": "MedDRA Version: 15.0", "assessmentType": "SYSTEMATIC_ASSESSMENT", "stats": [{"groupId": "EG000", "numEvents": 13, "numAffected": 12, "numAtRisk": 132}, {"groupId": "EG001", "numEvents": 10, "numAffected": 10, "numAtRisk": 128}, {"groupId": "EG002", "numEvents": 13, "numAffected": 9, "numAtRisk": 133}]}, {"term": "NASOPHARYNGITIS", "organSystem": "Infections and infestations", "sourceVocabulary": "MedDRA Version: 15.0", "assessmentType": "SYSTEMATIC_ASSESSMENT", "stats": [{"groupId": "EG000", "numEvents": 5, "numAffected": 5, "numAtRisk": 132}, {"groupId": "EG001", "numEvents": 8, "numAffected": 7, "numAtRisk": 128}, {"groupId": "EG002", "numEvents": 6, "numAffected": 4, "numAtRisk": 133}]}, {"term": "DYSLIPIDAEMIA", "organSystem": "Metabolism and nutrition disorders", "sourceVocabulary": "MedDRA Version: 15.0", "assessmentType": "SYSTEMATIC_ASSESSMENT", "stats": [{"groupId": "EG000", "numEvents": 7, "numAffected": 7, "numAtRisk": 132}, {"groupId": "EG001", "numEvents": 3, "numAffected": 3, "numAtRisk": 128}, {"groupId": "EG002", "numEvents": 2, "numAffected": 2, "numAtRisk": 133}]}]}, "moreInfoModule": {"certainAgreement": {"piSponsorEmployee": false, "restrictiveAgreement": false}, "pointOfContact": {"title": "Anna Maria Langkilde", "organization": "AstraZeneca", "email": "ClinicalTrialTransparency@astrazeneca.com"}}}, "derivedSection": {"miscInfoModule": {"versionHolder": "2024-06-24"}, "conditionBrowseModule": {"meshes": [{"id": "D000003920", "term": "Diabetes Mellitus"}, {"id": "D000003924", "term": "Diabetes Mellitus, Type 2"}], "ancestors": [{"id": "D000044882", "term": "Glucose Metabolism Disorders"}, {"id": "D000008659", "term": "Metabolic Diseases"}, {"id": "D000004700", "term": "Endocrine System Diseases"}], "browseLeaves": [{"id": "M7115", "name": "Diabetes Mellitus", "asFound": "Diabetes", "relevance": "HIGH"}, {"id": "M7119", "name": "Diabetes Mellitus, Type 2", "asFound": "Type 2 Diabetes", "relevance": "HIGH"}, {"id": "M11639", "name": "Metabolic Diseases", "relevance": "LOW"}, {"id": "M25403", "name": "Glucose Metabolism Disorders", "relevance": "LOW"}, {"id": "M7862", "name": "Endocrine System Diseases", "relevance": "LOW"}], "browseBranches": [{"abbrev": "BC18", "name": "Nutritional and Metabolic Diseases"}, {"abbrev": "BC19", "name": "Gland and Hormone Related Diseases"}, {"abbrev": "All", "name": "All Conditions"}]}, "interventionBrowseModule": {"meshes": [{"id": "D000008687", "term": "Metformin"}, {"id": "C000529054", "term": "Dapagliflozin"}], "ancestors": [{"id": "D000007004", "term": "Hypoglycemic Agents"}, {"id": "D000045505", "term": "Physiological Effects of Drugs"}, {"id": "D000077203", "term": "Sodium-Glucose Transporter 2 Inhibitors"}, {"id": "D000045504", "term": "Molecular Mechanisms of Pharmacological Action"}], "browseLeaves": [{"id": "M11667", "name": "Metformin", "asFound": "Assessment", "relevance": "HIGH"}, {"id": "M348449", "name": "Dapagliflozin", "asFound": "Body weight", "relevance": "HIGH"}, {"id": "M10054", "name": "Hypoglycemic Agents", "relevance": "LOW"}, {"id": "M1691", "name": "Sodium-Glucose Transporter 2 Inhibitors", "relevance": "LOW"}], "browseBranches": [{"abbrev": "Hypo", "name": "Hypoglycemic Agents"}, {"abbrev": "All", "name": "All Drugs and Chemicals"}]}}, "hasResults": true}