{"protocolSection": {"identificationModule": {"nctId": "NCT02787044", "orgStudyIdInfo": {"id": "2015P001823"}, "secondaryIdInfos": [{"id": "U01HL130163", "type": "NIH", "link": "https://reporter.nih.gov/quickSearch/U01HL130163"}], "organization": {"fullName": "Brigham and Women's Hospital", "class": "OTHER"}, "briefTitle": "INfluenza Vaccine to Effectively Stop Cardio Thoracic Events and Decompensated Heart Failure", "officialTitle": "INfluenza Vaccine to Effectively Stop Cardio Thoracic Events and Decompensated Heart Failure", "acronym": "INVESTED"}, "statusModule": {"statusVerifiedDate": "2021-12", "overallStatus": "COMPLETED", "expandedAccessInfo": {"hasExpandedAccess": false}, "startDateStruct": {"date": "2016-08-01", "type": "ACTUAL"}, "primaryCompletionDateStruct": {"date": "2020-05-31", "type": "ACTUAL"}, "completionDateStruct": {"date": "2020-05-31", "type": "ACTUAL"}, "studyFirstSubmitDate": "2016-05-25", "studyFirstSubmitQcDate": "2016-05-31", "studyFirstPostDateStruct": {"date": "2016-06-01", "type": "ESTIMATED"}, "resultsFirstSubmitDate": "2021-05-24", "resultsFirstSubmitQcDate": "2021-08-18", "resultsFirstPostDateStruct": {"date": "2021-09-14", "type": "ACTUAL"}, "lastUpdateSubmitDate": "2021-12-22", "lastUpdatePostDateStruct": {"date": "2022-01-21", "type": "ACTUAL"}}, "sponsorCollaboratorsModule": {"responsibleParty": {"type": "PRINCIPAL_INVESTIGATOR", "investigatorFullName": "Scott David Solomon", "investigatorTitle": "Professor of Medicine", "investigatorAffiliation": "Brigham and Women's Hospital"}, "leadSponsor": {"name": "Brigham and Women's Hospital", "class": "OTHER"}, "collaborators": [{"name": "National Heart, Lung, and Blood Institute (NHLBI)", "class": "NIH"}, {"name": "University of Wisconsin, Madison", "class": "OTHER"}, {"name": "University of Toronto", "class": "OTHER"}, {"name": "Boston VA Research Institute, Inc.", "class": "OTHER"}, {"name": "Patient-Centered Outcomes Research Institute", "class": "OTHER"}, {"name": "University of Minnesota", "class": "OTHER"}]}, "oversightModule": {"oversightHasDmc": true}, "descriptionModule": {"briefSummary": "INVESTED will test the hypothesis that high dose trivalent influenza vaccine will reduce cardiopulmonary events to a greater extent than standard dose quadrivalent influenza vaccine in high-risk cardiovascular patients with a recent history of myocardial infarction or heart failure. The trial will enroll 9300 participants over one Vanguard (pilot) season and three additional influenza seasons. The primary endpoint will be a composite of all-cause mortality or cardiopulmonary hospitalization.", "detailedDescription": "Influenza leads to significant morbidity and mortality, particularly in patients with cardiovascular disease. Influenza-related death is more common in patients with cardiovascular disease than any other chronic health condition. Influenza infection has been temporally associated with acute cardiovascular events, such as acute coronary syndrome and acute heart failure. Due to the increased risk for influenza-related complications, annual influenza immunization is recommended by the Centers for Disease Control and Prevention, (CDC) the American Heart Association, and the American College of Cardiology, and widespread influenza vaccination has been associated with reduced cardiac-related hospital admissions, acute exacerbations of heart failure, and winter mortality. Moreover, a meta-analysis has shown that annual vaccination reduces the risk for major adverse cardiovascular events (MACE) by 36%, with a more prominent effect in those with recent acute myocardial infarction (AMI).\n\nSeveral lines of evidence suggest that a strategy of utilizing high-dose influenza vaccine in at risk cardiovascular patients would reduce morbidity and mortality. Immune responses to influenza vaccine, normally subject to variability by age and concomitant medical conditions, are substantially reduced in patients with heart failure evidenced by lower vaccine-induced antibody titers compared to healthy controls. In a randomized trial, antibody responses in patients with heart failure were augmented by using a higher dose of influenza vaccine. In a meta-analysis, higher dose influenza vaccination was associated with a 27% reduced risk for MACE compared to standard dose vaccine. A randomized study of high dose versus standard dose influenza vaccine in medically-stable patients over age 65 showed that participants receiving high dose vaccine had a 24% reduced risk of laboratory-confirmed influenza associated with protocol-defined influenza-like-illness, and had a low risk for adverse events. High dose influenza vaccine is FDA approved for use in medically stable adults over the age of 65, but has not been studied for patients under the age of 65 or in those with unstable, high risk medical conditions. The CDC does not preferentially recommend one influenza vaccine over another, and the optimal vaccine formulation that offers the most clinical protection in these high risk patients is unknown.\n\nThe high morbidity and health care costs among patients with high risk cardiovascular disease along with the reduced immune responses to standard dose influenza vaccines in patients with heart failure provides a compelling rationale to investigate alternative influenza vaccination strategies in this group. INVESTED is an outcomes study in patients with recent acute myocardial infarction (AMI) or heart failure (HF) to test whether a four-fold higher dose of trivalent influenza vaccine will reduce morbidity and mortality compared to standard dose quadrivalent vaccine. INVESTED will test the hypothesize that high dose vaccine will reduce the composite of all cause death or cardiopulmonary hospitalizations in this population, with the following specific aims:\n\nSpecific Aim 1. To test the hypothesis that high dose trivalent influenza vaccine will reduce the composite of death or cardiopulmonary events compared with standard dose quadrivalent influenza vaccine in high-risk cardiovascular patients. Patients with recent AMI or HF hospitalization will be randomized to high dose versus standard dose vaccine for up to three influenza seasons. The primary endpoint will be time to first occurrence of death or cardiopulmonary hospitalization within each influenza season. Hospitalizations will be ascertained utilizing multiple approaches (phone, patient report, and electronic health records). Key secondary outcome measures will include total (first and recurrent) cardiopulmonary hospitalizations or death, time to first occurrence of cardiovascular death or cardiopulmonary hospitalization, time to occurrence of all-cause death or cardiopulmonary hospitalization across all enrolled influenza seasons, time to occurrence of all-cause death, and time to first occurrence of cardiopulmonary hospitalizations.\n\nSpecific Aim 2. To test the hypothesis that antibody titers to influenza vaccine antigens are associated with cardiopulmonary outcomes. In a subset of participants, antibody titers by hemagglutination inhibition assays to influenza vaccine antigens at baseline and at 4 weeks following randomization will be determined, corresponding to achievement of maximal antibody titer levels after vaccination. The association between geometric mean titers post-vaccination and the occurrence of death or cardiopulmonary hospitalization (primary outcome measure of Specific Aim 1) will be assessed.\n\nOther key correlative study (immune) outcome measures will include:\n\nChange in antibody titers at 4 weeks post-vaccination from baseline to influenza vaccine antigens Seroconversion (demonstration of 4-fold rise in antibody concentrations from baseline) and seroprotection (demonstration of antibody titer level of 1:40) to A/H1N1, A/H3N2, and B-type vaccine antigens\n\nThe results of this trial have the potential to inform health care policy regarding optimal influenza vaccination for individuals with high risk cardiovascular disease, which may in turn reduce morbidity from this annual threat to health stability in patients with cardiovascular conditions."}, "conditionsModule": {"conditions": ["Heart Failure", "Myocardial Infarction"], "keywords": ["influenza vaccine", "cardiopulmonary hospitalization", "heart failure", "myocardial infarction", "clinical trial"]}, "designModule": {"studyType": "INTERVENTIONAL", "phases": ["PHASE4"], "designInfo": {"allocation": "RANDOMIZED", "interventionModel": "PARALLEL", "primaryPurpose": "PREVENTION", "maskingInfo": {"masking": "QUADRUPLE", "whoMasked": ["PARTICIPANT", "CARE_PROVIDER", "INVESTIGATOR", "OUTCOMES_ASSESSOR"]}}, "enrollmentInfo": {"count": 5388, "type": "ACTUAL"}}, "armsInterventionsModule": {"armGroups": [{"label": "High Dose Influenza Vaccine", "type": "EXPERIMENTAL", "description": "High Dose Influenza Vaccine", "interventionNames": ["Biological: High Dose Trivalent Influenza Vaccine"]}, {"label": "Standard Dose Influenza Vaccine", "type": "ACTIVE_COMPARATOR", "description": "Standard Dose Influenza Vaccine", "interventionNames": ["Biological: Standard Dose Quadrivalent Influenza Vaccine"]}], "interventions": [{"type": "BIOLOGICAL", "name": "High Dose Trivalent Influenza Vaccine", "description": "High Dose Trivalent Influenza Vaccine", "armGroupLabels": ["High Dose Influenza Vaccine"]}, {"type": "BIOLOGICAL", "name": "Standard Dose Quadrivalent Influenza Vaccine", "description": "Standard Dose Quadrivalent Influenza Vaccine", "armGroupLabels": ["Standard Dose Influenza Vaccine"]}]}, "outcomesModule": {"primaryOutcomes": [{"measure": "All-Cause Death or Cardiopulmonary Hospitalization Within Each Vaccination Season", "description": "Number of patients with first occurrence of death or cardiopulmonary hospitalization within each vaccination season", "timeFrame": "Up to 1 year from vaccination (repeats seasonally)"}], "secondaryOutcomes": [{"measure": "Total Cardiopulmonary Hospitalizations or Death", "description": "Total (first and recurrent) cardiopulmonary hospitalizations or death", "timeFrame": "Up to 3 years"}, {"measure": "Cardiovascular Death or Hospitalization Within Each Vaccination Season", "description": "Number of patients with first cardiovascular death or cardiovascular hospitalization within each influenza season", "timeFrame": "Up to one year from vaccination"}, {"measure": "Death or Cardiopulmonary Hospitalization Across Enrolling Seasons", "description": "First cardiopulmonary Hospitalization or all-cause death across enrolling seasons", "timeFrame": "Up to three years"}, {"measure": "All-Cause Mortality", "description": "Number of patients with first occurrence of all-cause mortality", "timeFrame": "Up to 3 years"}]}, "eligibilityModule": {"eligibilityCriteria": "Inclusion Criteria:\n\n* \\>= 18 years of age\n* history of hospitalization for myocardial infarction within 1 year of enrollment OR a history of hospitalization for heart failure within 2 years of enrollment\n* At least one of the following additional risk factors:\n\n  * Prior MI (if HF the index event above; or a second MI)\n  * Prior HF hospitalization (if MI the index event above; or a second HF event)\n  * Age \u2265 65\n  * Left ventricular ejection fraction (LVEF) \\< 40%\n  * Diabetes mellitus\n  * Obesity (BMI \u2265 30)\n  * Renal impairment (eGFR \u2264 60)\n  * History of ischemic stroke\n  * History of peripheral artery disease\n  * Current smoking\n\nExclusion Criteria:\n\n* Known allergy, hypersensitivity (anaphylaxis), or Guillain-Barr\u00e9 Syndrome within 6 weeks after influenza vaccine\n* Any non-cardiac condition that in the opinion of the investigator would lead to life expectancy less than 9 months.\n* Receipt of influenza vaccine during current influenza season\n* Any illness requiring treatment with antibiotics or anti-inflammatory medication within the past 14 days.\n* Any fever over 100 degrees Fahrenheit or 38 degrees Celsius within the past 7 days.", "healthyVolunteers": false, "sex": "ALL", "minimumAge": "18 Years", "stdAges": ["ADULT", "OLDER_ADULT"]}, "contactsLocationsModule": {"overallOfficials": [{"name": "Orly Vardeny, PharmD, MS", "affiliation": "University of Minnesota", "role": "PRINCIPAL_INVESTIGATOR"}, {"name": "Scott D Solomon, MD", "affiliation": "Brigham and Women's Hospital", "role": "PRINCIPAL_INVESTIGATOR"}, {"name": "KyungMann Kim, PhD", "affiliation": "University of Wisconsin, Madison", "role": "PRINCIPAL_INVESTIGATOR"}], "locations": [{"facility": "Birmingham VAMC", "city": "Birmingham", "state": "Alabama", "zip": "35233", "country": "United States", "geoPoint": {"lat": 33.52066, "lon": -86.80249}}, {"facility": "University of Alabama Hypertension Program", "city": "Birmingham", "state": "Alabama", "zip": "35294", "country": "United States", "geoPoint": {"lat": 33.52066, "lon": -86.80249}}, {"facility": "Heart Center Research, LLC", "city": "Huntsville", "state": "Alabama", "zip": "35801", "country": "United States", "geoPoint": {"lat": 34.7304, "lon": -86.58594}}, {"facility": "Alaska Heart & Vascular Institute", "city": "Anchorage", "state": "Alaska", "zip": "99508", "country": "United States", "geoPoint": {"lat": 61.21806, "lon": -149.90028}}, {"facility": "Banner University Medicine North", "city": "Tucson", "state": "Arizona", "zip": "85719", "country": "United States", "geoPoint": {"lat": 32.22174, "lon": -110.92648}}, {"facility": "University of Arizona- Sarver Heart Center", "city": "Tucson", "state": "Arizona", "zip": "85724", "country": "United States", "geoPoint": {"lat": 32.22174, "lon": -110.92648}}, {"facility": "CAVHS", "city": "Little Rock", "state": "Arkansas", "zip": "72205", "country": "United States", "geoPoint": {"lat": 34.74648, "lon": -92.28959}}, {"facility": "VA Loma Linda Healthcare System", "city": "Loma Linda", "state": "California", "zip": "92357", "country": "United States", "geoPoint": {"lat": 34.04835, "lon": -117.26115}}, {"facility": "Long Beach VAMC", "city": "Long Beach", "state": "California", "zip": "90822", "country": "United States", "geoPoint": {"lat": 33.76696, "lon": -118.18923}}, {"facility": "University of California Davis Medical Center", "city": "Sacramento", "state": "California", "zip": "95817", "country": "United States", "geoPoint": {"lat": 38.58157, "lon": -121.4944}}, {"facility": "VA San Diego Healthcare System", "city": "San Diego", "state": "California", "zip": "92161", "country": "United States", "geoPoint": {"lat": 32.71533, "lon": -117.15726}}, {"facility": "UCSF Medical Center", "city": "San Francisco", "state": "California", "zip": "94143", "country": "United States", "geoPoint": {"lat": 37.77493, "lon": -122.41942}}, {"facility": "VA West Haven", "city": "West Haven", "state": "Connecticut", "zip": "06516", "country": "United States", "geoPoint": {"lat": 41.27065, "lon": -72.94705}}, {"facility": "Washington DC VAMC", "city": "Washington", "state": "District of Columbia", "zip": "20422", "country": "United States", "geoPoint": {"lat": 38.89511, "lon": -77.03637}}, {"facility": "Clearwater Cardiovascular Consultants", "city": "Clearwater", "state": "Florida", "zip": "33756", "country": "United States", "geoPoint": {"lat": 27.96585, "lon": -82.8001}}, {"facility": "N FL/S GA Veterans Health System", "city": "Gainesville", "state": "Florida", "zip": "32608", "country": "United States", "geoPoint": {"lat": 29.65163, "lon": -82.32483}}, {"facility": "OneFlorida CDRN", "city": "Gainesville", "state": "Florida", "zip": "32611", "country": "United States", "geoPoint": {"lat": 29.65163, "lon": -82.32483}}, {"facility": "Clearwater Cardiovascular Consultants-Largo", "city": "Largo", "state": "Florida", "zip": "33777", "country": "United States", "geoPoint": {"lat": 27.90979, "lon": -82.78842}}, {"facility": "Inpatient Research Corporation", "city": "Miami", "state": "Florida", "zip": "33014", "country": "United States", "geoPoint": {"lat": 25.77427, "lon": -80.19366}}, {"facility": "ITB Research", "city": "Miami", "state": "Florida", "zip": "33173", "country": "United States", "geoPoint": {"lat": 25.77427, "lon": -80.19366}}, {"facility": "Charlotte Heart Group Research Center", "city": "Port Charlotte", "state": "Florida", "zip": "33952", "country": "United States", "geoPoint": {"lat": 26.97617, "lon": -82.09064}}, {"facility": "Clearwater Cardiovascular Consultants-SH", "city": "Safety Harbor", "state": "Florida", "zip": "34695", "country": "United States", "geoPoint": {"lat": 27.99085, "lon": -82.69316}}, {"facility": "Bond Community Health Center, Inc.", "city": "Tallahassee", "state": "Florida", "zip": "32301", "country": "United States", "geoPoint": {"lat": 30.43826, "lon": -84.28073}}, {"facility": "Piedmont Heart Institute", "city": "Atlanta", "state": "Georgia", "zip": "30309", "country": "United States", "geoPoint": {"lat": 33.749, "lon": -84.38798}}, {"facility": "Morehouse School of Medicine", "city": "Atlanta", "state": "Georgia", "zip": "30310", "country": "United States", "geoPoint": {"lat": 33.749, "lon": -84.38798}}, {"facility": "Atlanta VA Health Care System", "city": "Decatur", "state": "Georgia", "zip": "30033", "country": "United States", "geoPoint": {"lat": 33.77483, "lon": -84.29631}}, {"facility": "Peidmont Fayette", "city": "Fayetteville", "state": "Georgia", "zip": "30214", "country": "United States", "geoPoint": {"lat": 33.44873, "lon": -84.45493}}, {"facility": "University of Hawaii", "city": "Honolulu", "state": "Hawaii", "zip": "96813", "country": "United States", "geoPoint": {"lat": 21.30694, "lon": -157.85833}}, {"facility": "Northwestern University", "city": "Chicago", "state": "Illinois", "zip": "60611", "country": "United States", "geoPoint": {"lat": 41.85003, "lon": -87.65005}}, {"facility": "Jesse Brown VA Medical Center", "city": "Chicago", "state": "Illinois", "zip": "60612", "country": "United States", "geoPoint": {"lat": 41.85003, "lon": -87.65005}}, {"facility": "University of Chicago Medicine", "city": "Chicago", "state": "Illinois", "zip": "60637", "country": "United States", "geoPoint": {"lat": 41.85003, "lon": -87.65005}}, {"facility": "Chicago Medical Research", "city": "Hazel Crest", "state": "Illinois", "zip": "60429", "country": "United States", "geoPoint": {"lat": 41.5717, "lon": -87.69449}}, {"facility": "Northwester Medicine Lake Forest", "city": "Lake Forest", "state": "Illinois", "zip": "60045", "country": "United States", "geoPoint": {"lat": 42.25863, "lon": -87.84063}}, {"facility": "Loyola University Medical Center", "city": "Maywood", "state": "Illinois", "zip": "60153", "country": "United States", "geoPoint": {"lat": 41.8792, "lon": -87.84312}}, {"facility": "Captain James A. Lovell Federal Health Care Center", "city": "North Chicago", "state": "Illinois", "zip": "60064", "country": "United States", "geoPoint": {"lat": 42.32558, "lon": -87.84118}}, {"facility": "UnityPoint Health Methodist", "city": "Peoria", "state": "Illinois", "zip": "61606", "country": "United States", "geoPoint": {"lat": 40.69365, "lon": -89.58899}}, {"facility": "Central DuPage Hospital", "city": "Winfield", "state": "Illinois", "zip": "60190", "country": "United States", "geoPoint": {"lat": 41.8617, "lon": -88.1609}}, {"facility": "Krannert Institute of Cardiology", "city": "Indianapolis", "state": "Indiana", "zip": "46202", "country": "United States", "geoPoint": {"lat": 39.76838, "lon": -86.15804}}, {"facility": "St. Vincent Medical Group", "city": "Indianapolis", "state": "Indiana", "zip": "46260", "country": "United States", "geoPoint": {"lat": 39.76838, "lon": -86.15804}}, {"facility": "University of Iowa", "city": "Iowa City", "state": "Iowa", "zip": "52242", "country": "United States", "geoPoint": {"lat": 41.66113, "lon": -91.53017}}, {"facility": "The University of Kansas Medical Center", "city": "Kansas City", "state": "Kansas", "zip": "66160", "country": "United States", "geoPoint": {"lat": 39.11417, "lon": -94.62746}}, {"facility": "VA Eastern Kansas Health Care System", "city": "Leavenworth", "state": "Kansas", "zip": "66048", "country": "United States", "geoPoint": {"lat": 39.31111, "lon": -94.92246}}, {"facility": "Robley Rex VA", "city": "Louisville", "state": "Kentucky", "zip": "40206", "country": "United States", "geoPoint": {"lat": 38.25424, "lon": -85.75941}}, {"facility": "The Heart Clinic of Hamond", "city": "Hammond", "state": "Louisiana", "zip": "70403", "country": "United States", "geoPoint": {"lat": 30.50463, "lon": -90.46293}}, {"facility": "Southeast Louisiana Veterans Healthcare System", "city": "New Orleans", "state": "Louisiana", "zip": "70112", "country": "United States", "geoPoint": {"lat": 29.95465, "lon": -90.07507}}, {"facility": "Ochsner Health System- Baton Rouge", "city": "New Orleans", "state": "Louisiana", "zip": "70121", "country": "United States", "geoPoint": {"lat": 29.95465, "lon": -90.07507}}, {"facility": "ENRM VA Hospital", "city": "Bedford", "state": "Massachusetts", "zip": "01730", "country": "United States", "geoPoint": {"lat": 42.49065, "lon": -71.27617}}, {"facility": "Brigham and Women's Hospital", "city": "Boston", "state": "Massachusetts", "zip": "02115", "country": "United States", "geoPoint": {"lat": 42.35843, "lon": -71.05977}}, {"facility": "Brigham and Women's Faulkner Hospital", "city": "Boston", "state": "Massachusetts", "zip": "02130", "country": "United States", "geoPoint": {"lat": 42.35843, "lon": -71.05977}}, {"facility": "Beth Israel Deaconess Medical Center", "city": "Boston", "state": "Massachusetts", "zip": "02215", "country": "United States", "geoPoint": {"lat": 42.35843, "lon": -71.05977}}, {"facility": "Pentucket Medical Associates", "city": "Haverhill", "state": "Massachusetts", "zip": "01830", "country": "United States", "geoPoint": {"lat": 42.7762, "lon": -71.07728}}, {"facility": "Charles River Medical Associates", "city": "Natick", "state": "Massachusetts", "zip": "01760", "country": "United States", "geoPoint": {"lat": 42.28343, "lon": -71.3495}}, {"facility": "Boston/West Roxbury VA Hospital", "city": "West Roxbury", "state": "Massachusetts", "zip": "02132", "country": "United States", "geoPoint": {"lat": 42.27926, "lon": -71.1495}}, {"facility": "VA Boston Healthcase System", "city": "West Roxbury", "state": "Massachusetts", "zip": "02132", "country": "United States", "geoPoint": {"lat": 42.27926, "lon": -71.1495}}, {"facility": "VA Ann Harbor Healthcare System", "city": "Ann Arbor", "state": "Michigan", "zip": "48105", "country": "United States", "geoPoint": {"lat": 42.27756, "lon": -83.74088}}, {"facility": "Abbott Northwestern Hospital", "city": "Minneapolis", "state": "Minnesota", "zip": "55407", "country": "United States", "geoPoint": {"lat": 44.97997, "lon": -93.26384}}, {"facility": "HealthPartners - Riverside Research", "city": "Minneapolis", "state": "Minnesota", "zip": "55454", "country": "United States", "geoPoint": {"lat": 44.97997, "lon": -93.26384}}, {"facility": "University of Minnesota", "city": "Minneapolis", "state": "Minnesota", "zip": "55455", "country": "United States", "geoPoint": {"lat": 44.97997, "lon": -93.26384}}, {"facility": "Mayo Clinic", "city": "Rochester", "state": "Minnesota", "zip": "55905", "country": "United States", "geoPoint": {"lat": 44.02163, "lon": -92.4699}}, {"facility": "HealthEast Medical Research Institute", "city": "Saint Paul", "state": "Minnesota", "zip": "55102", "country": "United States", "geoPoint": {"lat": 44.94441, "lon": -93.09327}}, {"facility": "University of Mississippi Medical Center", "city": "Jackson", "state": "Mississippi", "zip": "39216", "country": "United States", "geoPoint": {"lat": 32.29876, "lon": -90.18481}}, {"facility": "Kansas City VA Medical Center", "city": "Kansas City", "state": "Missouri", "zip": "64128", "country": "United States", "geoPoint": {"lat": 39.09973, "lon": -94.57857}}, {"facility": "VA St. Louis Health Care System", "city": "Saint Louis", "state": "Missouri", "zip": "63106", "country": "United States", "geoPoint": {"lat": 38.62727, "lon": -90.19789}}, {"facility": "St. Louis University", "city": "Saint Louis", "state": "Missouri", "zip": "63110", "country": "United States", "geoPoint": {"lat": 38.62727, "lon": -90.19789}}, {"facility": "Washington University School of Medicine", "city": "Saint Louis", "state": "Missouri", "zip": "63110", "country": "United States", "geoPoint": {"lat": 38.62727, "lon": -90.19789}}, {"facility": "Nebraska Heart Institute- Grand Island", "city": "Grand Island", "state": "Nebraska", "zip": "68803", "country": "United States", "geoPoint": {"lat": 40.92501, "lon": -98.34201}}, {"facility": "Darthmouth-Hitchcock Medical Center", "city": "Lebanon", "state": "New Hampshire", "zip": "03756", "country": "United States", "geoPoint": {"lat": 43.64229, "lon": -72.25176}}, {"facility": "Cardio Assoc. of the Del. Valley- Elmer", "city": "Elmer", "state": "New Jersey", "zip": "08318", "country": "United States", "geoPoint": {"lat": 39.59511, "lon": -75.17018}}, {"facility": "Cardio. Assoc. of the Del. Valley- Haddon Heights", "city": "Haddon Heights", "state": "New Jersey", "zip": "08035", "country": "United States", "geoPoint": {"lat": 39.87734, "lon": -75.06462}}, {"facility": "Cardio. Assoc. of the Del. Valley- Sewell", "city": "Sewell", "state": "New Jersey", "zip": "08080", "country": "United States", "geoPoint": {"lat": 39.7665, "lon": -75.14434}}, {"facility": "Lourdes Cardiology Services", "city": "Voorhees", "state": "New Jersey", "zip": "08043", "country": "United States", "geoPoint": {"lat": 40.48122, "lon": -74.48321}}, {"facility": "New Mexico VA Health Care System", "city": "Albuquerque", "state": "New Mexico", "zip": "87108", "country": "United States", "geoPoint": {"lat": 35.08449, "lon": -106.65114}}, {"facility": "Albany Medical College", "city": "Albany", "state": "New York", "zip": "12208", "country": "United States", "geoPoint": {"lat": 42.65258, "lon": -73.75623}}, {"facility": "New York Presbyterian Brooklyn Methodist Hospital", "city": "Brooklyn", "state": "New York", "zip": "11215", "country": "United States", "geoPoint": {"lat": 40.6501, "lon": -73.94958}}, {"facility": "New York Presbyterian Queens Bayside/Whitestone", "city": "Flushing", "state": "New York", "zip": "11355", "country": "United States", "geoPoint": {"lat": 40.76538, "lon": -73.81736}}, {"facility": "New York Presbyterian/Queens", "city": "Flushing", "state": "New York", "zip": "11355", "country": "United States", "geoPoint": {"lat": 40.76538, "lon": -73.81736}}, {"facility": "NYPQ - Cardiology Outpatient Clinic", "city": "Flushing", "state": "New York", "zip": "11355", "country": "United States", "geoPoint": {"lat": 40.76538, "lon": -73.81736}}, {"facility": "Winthrop University Hospital", "city": "Mineola", "state": "New York", "zip": "11501", "country": "United States", "geoPoint": {"lat": 40.74927, "lon": -73.64068}}, {"facility": "New York VA", "city": "New York", "state": "New York", "zip": "10010", "country": "United States", "geoPoint": {"lat": 40.71427, "lon": -74.00597}}, {"facility": "NYU Langone Medical Center", "city": "New York", "state": "New York", "zip": "10016", "country": "United States", "geoPoint": {"lat": 40.71427, "lon": -74.00597}}, {"facility": "New York Presbyterian", "city": "New York", "state": "New York", "zip": "10021", "country": "United States", "geoPoint": {"lat": 40.71427, "lon": -74.00597}}, {"facility": "Columbia University Medical Center", "city": "New York", "state": "New York", "zip": "10032", "country": "United States", "geoPoint": {"lat": 40.71427, "lon": -74.00597}}, {"facility": "University of Rochester Medical Center", "city": "Rochester", "state": "New York", "zip": "14642", "country": "United States", "geoPoint": {"lat": 43.15478, "lon": -77.61556}}, {"facility": "Stony Brook University Hospital", "city": "Stony Brook", "state": "New York", "zip": "11794", "country": "United States", "geoPoint": {"lat": 40.92565, "lon": -73.14094}}, {"facility": "Charles George VA", "city": "Asheville", "state": "North Carolina", "zip": "28805", "country": "United States", "geoPoint": {"lat": 35.60095, "lon": -82.55402}}, {"facility": "University of North Carolina at Chapel Hill", "city": "Chapel Hill", "state": "North Carolina", "zip": "27599", "country": "United States", "geoPoint": {"lat": 35.9132, "lon": -79.05584}}, {"facility": "Duke", "city": "Durham", "state": "North Carolina", "zip": "27710", "country": "United States", "geoPoint": {"lat": 35.99403, "lon": -78.89862}}, {"facility": "Louis Stokes Cleveland VA Medical Center", "city": "Cleveland", "state": "Ohio", "zip": "44106", "country": "United States", "geoPoint": {"lat": 41.4995, "lon": -81.69541}}, {"facility": "Cleveland Clinic", "city": "Cleveland", "state": "Ohio", "zip": "44195", "country": "United States", "geoPoint": {"lat": 41.4995, "lon": -81.69541}}, {"facility": "Ohio State University", "city": "Columbus", "state": "Ohio", "zip": "43210", "country": "United States", "geoPoint": {"lat": 39.96118, "lon": -82.99879}}, {"facility": "Heart House Research Foundation", "city": "Springfield", "state": "Ohio", "zip": "45504", "country": "United States", "geoPoint": {"lat": 39.92423, "lon": -83.80882}}, {"facility": "Oregon Health & Science", "city": "Portland", "state": "Oregon", "zip": "97239", "country": "United States", "geoPoint": {"lat": 45.52345, "lon": -122.67621}}, {"facility": "VA Portland Health Care Systems (VAPHCS)", "city": "Portland", "state": "Oregon", "zip": "97239", "country": "United States", "geoPoint": {"lat": 45.52345, "lon": -122.67621}}, {"facility": "Temple University", "city": "Philadelphia", "state": "Pennsylvania", "zip": "19140", "country": "United States", "geoPoint": {"lat": 39.95233, "lon": -75.16379}}, {"facility": "University of Pittsburgh", "city": "Pittsburgh", "state": "Pennsylvania", "zip": "15213", "country": "United States", "geoPoint": {"lat": 40.44062, "lon": -79.99589}}, {"facility": "Providence VA Medical Center", "city": "Providence", "state": "Rhode Island", "zip": "02908", "country": "United States", "geoPoint": {"lat": 41.82399, "lon": -71.41283}}, {"facility": "Medical University of South Carolina", "city": "Charleston", "state": "South Carolina", "zip": "29425", "country": "United States", "geoPoint": {"lat": 32.77657, "lon": -79.93092}}, {"facility": "WJB Dorn VAMC", "city": "Columbia", "state": "South Carolina", "zip": "29209", "country": "United States", "geoPoint": {"lat": 34.00071, "lon": -81.03481}}, {"facility": "Palmetto Research Center, LLC", "city": "Spartanburg", "state": "South Carolina", "zip": "29302", "country": "United States", "geoPoint": {"lat": 34.94957, "lon": -81.93205}}, {"facility": "VAMC Memphis", "city": "Memphis", "state": "Tennessee", "zip": "38104", "country": "United States", "geoPoint": {"lat": 35.14953, "lon": -90.04898}}, {"facility": "Meharry Medical College", "city": "Nashville", "state": "Tennessee", "zip": "37208", "country": "United States", "geoPoint": {"lat": 36.16589, "lon": -86.78444}}, {"facility": "Tennessee Valley Healthcare Systems-Nashville", "city": "Nashville", "state": "Tennessee", "zip": "37212", "country": "United States", "geoPoint": {"lat": 36.16589, "lon": -86.78444}}, {"facility": "Vanderbilt University", "city": "Nashville", "state": "Tennessee", "zip": "37232", "country": "United States", "geoPoint": {"lat": 36.16589, "lon": -86.78444}}, {"facility": "Austin Heart- Heart Hospital", "city": "Austin", "state": "Texas", "zip": "78756", "country": "United States", "geoPoint": {"lat": 30.26715, "lon": -97.74306}}, {"facility": "Baylor Scott and White Heart and Vascular Hospital", "city": "Dallas", "state": "Texas", "zip": "75226", "country": "United States", "geoPoint": {"lat": 32.78306, "lon": -96.80667}}, {"facility": "Michael E. DeBakey VAMC, Houston", "city": "Houston", "state": "Texas", "zip": "77030", "country": "United States", "geoPoint": {"lat": 29.76328, "lon": -95.36327}}, {"facility": "Houston Heart & Vascular Associates", "city": "Kingwood", "state": "Texas", "zip": "77339", "country": "United States", "geoPoint": {"lat": 30.03355, "lon": -95.26104}}, {"facility": "Houston Methodist Research Institute-CCAT Pearland", "city": "Pearland", "state": "Texas", "zip": "77584", "country": "United States", "geoPoint": {"lat": 29.56357, "lon": -95.28605}}, {"facility": "St. David's Heath & Vascular PLLC", "city": "Round Rock", "state": "Texas", "zip": "78681", "country": "United States", "geoPoint": {"lat": 30.50826, "lon": -97.6789}}, {"facility": "South Texas Veterans Healthcare System", "city": "San Antonio", "state": "Texas", "zip": "78229", "country": "United States", "geoPoint": {"lat": 29.42412, "lon": -98.49363}}, {"facility": "STAR Clinical Trials", "city": "San Antonio", "state": "Texas", "zip": "78229", "country": "United States", "geoPoint": {"lat": 29.42412, "lon": -98.49363}}, {"facility": "Austin Heart San Marcos", "city": "San Marcos", "state": "Texas", "zip": "78666", "country": "United States", "geoPoint": {"lat": 29.88327, "lon": -97.94139}}, {"facility": "Baylor Scott and White Research Institute", "city": "Temple", "state": "Texas", "zip": "76508", "country": "United States", "geoPoint": {"lat": 31.09823, "lon": -97.34278}}, {"facility": "University of Utah", "city": "Salt Lake City", "state": "Utah", "zip": "84108", "country": "United States", "geoPoint": {"lat": 40.76078, "lon": -111.89105}}, {"facility": "George E. Wahlen Dept of VA Affairs Medical Center", "city": "Salt Lake City", "state": "Utah", "zip": "84148", "country": "United States", "geoPoint": {"lat": 40.76078, "lon": -111.89105}}, {"facility": "VA Medical Center White River Junction", "city": "White River Junction", "state": "Vermont", "zip": "05009", "country": "United States", "geoPoint": {"lat": 43.64896, "lon": -72.31926}}, {"facility": "Inova Heart and Vascular Institute", "city": "Alexandria", "state": "Virginia", "zip": "22306", "country": "United States", "geoPoint": {"lat": 38.80484, "lon": -77.04692}}, {"facility": "Carient Heart & Vascular", "city": "Manassas", "state": "Virginia", "zip": "20109", "country": "United States", "geoPoint": {"lat": 38.75095, "lon": -77.47527}}, {"facility": "Louis A Johnson VAMC", "city": "Clarksburg", "state": "West Virginia", "zip": "26301", "country": "United States", "geoPoint": {"lat": 39.28065, "lon": -80.34453}}, {"facility": "Gundersen Clinic", "city": "La Crosse", "state": "Wisconsin", "zip": "54601", "country": "United States", "geoPoint": {"lat": 43.80136, "lon": -91.23958}}, {"facility": "University of Wisconsin", "city": "Madison", "state": "Wisconsin", "zip": "53705", "country": "United States", "geoPoint": {"lat": 43.07305, "lon": -89.40123}}, {"facility": "Willam S. Middleton Memorial Veterans Hospital", "city": "Madison", "state": "Wisconsin", "zip": "53705", "country": "United States", "geoPoint": {"lat": 43.07305, "lon": -89.40123}}, {"facility": "University of Wisconsin Madison", "city": "Madison", "state": "Wisconsin", "zip": "57305", "country": "United States", "geoPoint": {"lat": 43.07305, "lon": -89.40123}}, {"facility": "Marshfield Clinic", "city": "Marshfield", "state": "Wisconsin", "zip": "54449", "country": "United States", "geoPoint": {"lat": 44.66885, "lon": -90.1718}}, {"facility": "Medical College of Wisconsin", "city": "Milwaukee", "state": "Wisconsin", "zip": "53226", "country": "United States", "geoPoint": {"lat": 43.0389, "lon": -87.90647}}, {"facility": "Aurora Research Institute, LLC", "city": "Milwaukee", "state": "Wisconsin", "zip": "53233", "country": "United States", "geoPoint": {"lat": 43.0389, "lon": -87.90647}}, {"facility": "Celement J. Zablocki VA Medical Center", "city": "Milwaukee", "state": "Wisconsin", "zip": "53295", "country": "United States", "geoPoint": {"lat": 43.0389, "lon": -87.90647}}, {"facility": "TotalCardiology", "city": "Calgary", "state": "Alberta", "zip": "T2E 7C5", "country": "Canada", "geoPoint": {"lat": 51.05011, "lon": -114.08529}}, {"facility": "University of Calgary", "city": "Calgary", "state": "Alberta", "zip": "T2N4Z6", "country": "Canada", "geoPoint": {"lat": 51.05011, "lon": -114.08529}}, {"facility": "CK Hui Heart Centre, Royal Alexandra Hospital", "city": "Edmonton", "state": "Alberta", "zip": "T5H3V9", "country": "Canada", "geoPoint": {"lat": 53.55014, "lon": -113.46871}}, {"facility": "Dr. MPJ Senaratne Professional Corporation", "city": "Edmonton", "state": "Alberta", "zip": "T6K4C1", "country": "Canada", "geoPoint": {"lat": 53.55014, "lon": -113.46871}}, {"facility": "Northwest Echocardiolography", "city": "Grande Prairie", "state": "Alberta", "zip": "T8V 2E7", "country": "Canada", "geoPoint": {"lat": 55.16667, "lon": -118.80271}}, {"facility": "The CARe Clinic (Central Alberta Research)", "city": "Red Deer", "state": "Alberta", "zip": "T4N6V7", "country": "Canada", "geoPoint": {"lat": 52.26682, "lon": -113.802}}, {"facility": "University of Alberta Hospital- Mazankoski Heart Institute", "city": "Edmonton", "state": "British Columbia", "zip": "T6G2B7", "country": "Canada", "geoPoint": {"lat": 53.55014, "lon": -113.46871}}, {"facility": "Kelowna General Hospital", "city": "Kelowna", "state": "British Columbia", "zip": "V1Y1T2", "country": "Canada", "geoPoint": {"lat": 49.88307, "lon": -119.48568}}, {"facility": "SMH Cardiology Clinical", "city": "Surrey", "state": "British Columbia", "zip": "V3V 0C6", "country": "Canada", "geoPoint": {"lat": 49.10635, "lon": -122.82509}}, {"facility": "Manna Research Inc. (Vancouver)", "city": "Vancouver", "state": "British Columbia", "zip": "V5X0C4", "country": "Canada", "geoPoint": {"lat": 49.24966, "lon": -123.11934}}, {"facility": "Vancouver General Hospital - Gordon Leslie Diamond Centre", "city": "Vancouver", "state": "British Columbia", "zip": "V5Z1M9", "country": "Canada", "geoPoint": {"lat": 49.24966, "lon": -123.11934}}, {"facility": "St. Paul's Hospital", "city": "Vancouver", "state": "British Columbia", "zip": "V6Z1Y6", "country": "Canada", "geoPoint": {"lat": 49.24966, "lon": -123.11934}}, {"facility": "Victoria Heart Institute Foundation", "city": "Victoria", "state": "British Columbia", "zip": "V8R4R2", "country": "Canada", "geoPoint": {"lat": 48.43294, "lon": -123.3693}}, {"facility": "St. Boniface Hospital/University of Manitoba", "city": "Winnipeg", "state": "Manitoba", "zip": "R2H2A6", "country": "Canada", "geoPoint": {"lat": 49.8844, "lon": -97.14704}}, {"facility": "University of Sherbrooke", "city": "Dieppe", "state": "New Brunswick", "country": "Canada", "geoPoint": {"lat": 46.07844, "lon": -64.68735}}, {"facility": "G.A Research Associates Ltd.", "city": "Moncton", "state": "New Brunswick", "zip": "E1G 1A7", "country": "Canada", "geoPoint": {"lat": 46.09454, "lon": -64.7965}}, {"facility": "QEII Health Sciences", "city": "Halifax", "state": "Nova Scotia", "zip": "B3H2Y9", "country": "Canada", "geoPoint": {"lat": 44.64533, "lon": -63.57239}}, {"facility": "Brampton Research Assocaites", "city": "Brampton", "state": "Ontario", "zip": "L6Z 4N5", "country": "Canada", "geoPoint": {"lat": 43.68341, "lon": -79.76633}}, {"facility": "Manna Research Inc. (Burlington North)", "city": "Burlington", "state": "Ontario", "zip": "L7M 4Y1", "country": "Canada", "geoPoint": {"lat": 43.38621, "lon": -79.83713}}, {"facility": "Manna Research Inc. (Burlington South)", "city": "Burlington", "state": "Ontario", "zip": "L7R 1A4", "country": "Canada", "geoPoint": {"lat": 43.38621, "lon": -79.83713}}, {"facility": "Cambridge Cardiac Care Center", "city": "Cambridge", "state": "Ontario", "zip": "N1R 6V6", "country": "Canada", "geoPoint": {"lat": 43.3601, "lon": -80.31269}}, {"facility": "Vizel Cardiac Research", "city": "Cambridge", "state": "Ontario", "zip": "N1R 7R1", "country": "Canada", "geoPoint": {"lat": 43.3601, "lon": -80.31269}}, {"facility": "Dr. Alan David Bell", "city": "Downsview", "state": "Ontario", "zip": "M3M 3E5", "country": "Canada", "geoPoint": {"lat": 43.71681, "lon": -79.48291}}, {"facility": "Hamilton Health Sciences General Hospital/ McMaste", "city": "Hamilton", "state": "Ontario", "zip": "L8L 2X2", "country": "Canada", "geoPoint": {"lat": 43.25011, "lon": -79.84963}}, {"facility": "Queen's University CardioPulmonary Unit", "city": "Kingston", "state": "Ontario", "zip": "K7L 3N6", "country": "Canada", "geoPoint": {"lat": 44.22976, "lon": -76.48101}}, {"facility": "St. Joseph's Health Care", "city": "London", "state": "Ontario", "zip": "N6A 4V2", "country": "Canada", "geoPoint": {"lat": 42.98339, "lon": -81.23304}}, {"facility": "Dixie Medical Group", "city": "Mississauga", "state": "Ontario", "zip": "L4W 0C2", "country": "Canada", "geoPoint": {"lat": 43.5789, "lon": -79.6583}}, {"facility": "Apple Hills Medical Associates", "city": "Mississauga", "state": "Ontario", "zip": "L4Y 2N8", "country": "Canada", "geoPoint": {"lat": 43.5789, "lon": -79.6583}}, {"facility": "PACE", "city": "Newmarket", "state": "Ontario", "zip": "L3Y 2P6", "country": "Canada", "geoPoint": {"lat": 44.05011, "lon": -79.46631}}, {"facility": "North York General Hospital", "city": "North York", "state": "Ontario", "zip": "M2K 1E1", "country": "Canada", "geoPoint": {"lat": 43.76681, "lon": -79.4163}}, {"facility": "Sewa Ram Singal Med Prof Corporation", "city": "North York", "state": "Ontario", "zip": "M3N 1N1", "country": "Canada", "geoPoint": {"lat": 43.76681, "lon": -79.4163}}, {"facility": "Heart Care Research", "city": "Oshawa", "state": "Ontario", "zip": "L1J 2J9", "country": "Canada", "geoPoint": {"lat": 43.90012, "lon": -78.84957}}, {"facility": "Dr. James Cha", "city": "Oshawa", "state": "Ontario", "zip": "L1J 2K1", "country": "Canada", "geoPoint": {"lat": 43.90012, "lon": -78.84957}}, {"facility": "Montfort Hospital and Ottawa Cardiovascular Centre", "city": "Ottawa", "state": "Ontario", "zip": "K1K 0T2", "country": "Canada", "geoPoint": {"lat": 45.41117, "lon": -75.69812}}, {"facility": "University of Ottawa Heart Institute", "city": "Ottawa", "state": "Ontario", "zip": "K1Y 4W7", "country": "Canada", "geoPoint": {"lat": 45.41117, "lon": -75.69812}}, {"facility": "Heart Function Clinic Queensway Carleton", "city": "Ottawa", "state": "Ontario", "zip": "K2H 8P4", "country": "Canada", "geoPoint": {"lat": 45.41117, "lon": -75.69812}}, {"facility": "Kawartha Cardiology", "city": "Peterborough", "state": "Ontario", "zip": "K9J0B2", "country": "Canada", "geoPoint": {"lat": 44.30012, "lon": -78.31623}}, {"facility": "Scarborough General Hospital", "city": "Scarborough", "state": "Ontario", "zip": "M1P 2T7", "country": "Canada", "geoPoint": {"lat": 43.77223, "lon": -79.25666}}, {"facility": "St. Catherines Hospital", "city": "St. Catherines", "state": "Ontario", "zip": "L2M 5V4", "country": "Canada", "geoPoint": {"lat": 46.20012, "lon": -63.2987}}, {"facility": "Manna Research (Stoney Creek)", "city": "Stoney Creek", "state": "Ontario", "zip": "L8J 3W2", "country": "Canada"}, {"facility": "Health Sciences North Research Institute", "city": "Sudbury", "state": "Ontario", "zip": "P3E 5J1", "country": "Canada", "geoPoint": {"lat": 46.49, "lon": -80.99001}}, {"facility": "Dr. D. Shukla Professional Medicine Corporation", "city": "Sudbury", "state": "Ontario", "zip": "P3E 5M4", "country": "Canada", "geoPoint": {"lat": 46.49, "lon": -80.99001}}, {"facility": "Dr. R. Labonte Professional Medicine Corporation", "city": "Sudbury", "state": "Ontario", "zip": "P3E 5M4", "country": "Canada", "geoPoint": {"lat": 46.49, "lon": -80.99001}}, {"facility": "Thunder Bay Regional Health Sciences Center", "city": "Thunder Bay", "state": "Ontario", "zip": "P7B 6V4", "country": "Canada", "geoPoint": {"lat": 48.38202, "lon": -89.25018}}, {"facility": "Sunnybrook Health Sciences Centre", "city": "Toronto", "state": "Ontario", "zip": "M4N 3M5", "country": "Canada", "geoPoint": {"lat": 43.70011, "lon": -79.4163}}, {"facility": "St. Michael's Hospital", "city": "Toronto", "state": "Ontario", "zip": "M5B 1W8", "country": "Canada", "geoPoint": {"lat": 43.70011, "lon": -79.4163}}, {"facility": "Mount Sinai Hospital", "city": "Toronto", "state": "Ontario", "zip": "M5G 1X5", "country": "Canada", "geoPoint": {"lat": 43.70011, "lon": -79.4163}}, {"facility": "Toronto General Hospital", "city": "Toronto", "state": "Ontario", "zip": "M5G 2N2", "country": "Canada", "geoPoint": {"lat": 43.70011, "lon": -79.4163}}, {"facility": "Women's College Hospital", "city": "Toronto", "state": "Ontario", "zip": "M5S 1B2", "country": "Canada", "geoPoint": {"lat": 43.70011, "lon": -79.4163}}, {"facility": "University of Toronto", "city": "Toronto", "state": "Ontario", "country": "Canada", "geoPoint": {"lat": 43.70011, "lon": -79.4163}}, {"facility": "iHealthCentre", "city": "Vaughan", "state": "Ontario", "zip": "L4H 0P6", "country": "Canada", "geoPoint": {"lat": 43.8361, "lon": -79.49827}}, {"facility": "CISSS de Laval, Hopital Cite de la Sante", "city": "Laval", "state": "Quebec", "zip": "H7M 3L9", "country": "Canada", "geoPoint": {"lat": 45.56995, "lon": -73.692}}, {"facility": "Montreal Heart Institute", "city": "Montr\u00e9al", "state": "Quebec", "zip": "H1T 1C8", "country": "Canada", "geoPoint": {"lat": 45.50884, "lon": -73.58781}}, {"facility": "McGill University Health Centre", "city": "Montr\u00e9al", "state": "Quebec", "zip": "H3G 1A4", "country": "Canada", "geoPoint": {"lat": 45.50884, "lon": -73.58781}}, {"facility": "Jewish General Hospital", "city": "Montr\u00e9al", "state": "Quebec", "zip": "H3T 1E2", "country": "Canada", "geoPoint": {"lat": 45.50884, "lon": -73.58781}}, {"facility": "CIUSSS N\u00ceM Hopital du Sacre-Coeur de Montreal", "city": "Montr\u00e9al", "state": "Quebec", "zip": "H4J 1C5", "country": "Canada", "geoPoint": {"lat": 45.50884, "lon": -73.58781}}, {"facility": "Manna Research Inc. (Montreal)", "city": "Montr\u00e9al", "state": "Quebec", "zip": "H9R 4S3", "country": "Canada", "geoPoint": {"lat": 45.50884, "lon": -73.58781}}, {"facility": "IUCPQ", "city": "Quebec City", "state": "Quebec", "zip": "G1V 4G5", "country": "Canada", "geoPoint": {"lat": 46.81228, "lon": -71.21454}}, {"facility": "Centre hospitalier r\u00e9gional de Lanaudi\u00e8re", "city": "St-Charles Borromee", "state": "Quebec", "zip": "J6E 6J2", "country": "Canada", "geoPoint": {"lat": 46.05007, "lon": -73.46586}}, {"facility": "CISSSI- Hopital Pierre-Le Gardeur", "city": "Terrebonne", "state": "Quebec", "zip": "J6V 2H2", "country": "Canada", "geoPoint": {"lat": 45.70004, "lon": -73.64732}}, {"facility": "Centre Hospitalier de Regional Trois-Rivieres", "city": "Trois-Rivi\u00e8res", "state": "Quebec", "zip": "G8Z 3R9", "country": "Canada", "geoPoint": {"lat": 46.34515, "lon": -72.5477}}, {"facility": "Prairie Vascular Research Inc.", "city": "Regina", "state": "Saskatchewan", "zip": "54P 0W5", "country": "Canada", "geoPoint": {"lat": 50.45008, "lon": -104.6178}}, {"facility": "VA Caribbean Healthcare System", "city": "San Juan", "zip": "00921", "country": "Puerto Rico", "geoPoint": {"lat": 18.46633, "lon": -66.10572}}]}, "referencesModule": {"references": [{"pmid": "19398087", "type": "BACKGROUND", "citation": "Vardeny O, Sweitzer NK, Detry MA, Moran JM, Johnson MR, Hayney MS. Decreased immune responses to influenza vaccination in patients with heart failure. J Card Fail. 2009 May;15(4):368-73. doi: 10.1016/j.cardfail.2008.11.009. Epub 2008 Dec 18."}, {"pmid": "20030468", "type": "BACKGROUND", "citation": "Vardeny O, Moran JJ, Sweitzer NK, Johnson MR, Hayney MS. Decreased T-cell responses to influenza vaccination in patients with heart failure. Pharmacotherapy. 2010 Jan;30(1):10-6. doi: 10.1592/phco.30.1.10."}, {"pmid": "23291729", "type": "BACKGROUND", "citation": "Van Ermen A, Hermanson MP, Moran JM, Sweitzer NK, Johnson MR, Vardeny O. Double dose vs. standard dose influenza vaccination in patients with heart failure: a pilot study. Eur J Heart Fail. 2013 May;15(5):560-4. doi: 10.1093/eurjhf/hfs207. Epub 2013 Jan 4."}, {"pmid": "24361852", "type": "BACKGROUND", "citation": "Albrecht CM, Sweitzer NK, Johnson MR, Vardeny O. Lack of persistence of influenza vaccine antibody titers in patients with heart failure. J Card Fail. 2014 Feb;20(2):105-9. doi: 10.1016/j.cardfail.2013.12.008. Epub 2013 Dec 19."}, {"pmid": "25971953", "type": "BACKGROUND", "citation": "Udell JA, Farkouh ME, Solomon SD, Vardeny O. Does influenza vaccination influence cardiovascular complications? Expert Rev Cardiovasc Ther. 2015 Jun;13(6):593-6. doi: 10.1586/14779072.2015.1044439. Epub 2015 May 14."}, {"pmid": "26746371", "type": "BACKGROUND", "citation": "Vardeny O, Claggett B, Udell JA, Packer M, Zile M, Rouleau J, Swedberg K, Desai AS, Lefkowitz M, Shi V, McMurray JJV, Solomon SD; PARADIGM-HF Investigators. Influenza Vaccination in Patients With Chronic Heart Failure: The PARADIGM-HF Trial. JACC Heart Fail. 2016 Feb;4(2):152-158. doi: 10.1016/j.jchf.2015.10.012. Epub 2015 Dec 30."}, {"pmid": "24150467", "type": "BACKGROUND", "citation": "Udell JA, Zawi R, Bhatt DL, Keshtkar-Jahromi M, Gaughran F, Phrommintikul A, Ciszewski A, Vakili H, Hoffman EB, Farkouh ME, Cannon CP. Association between influenza vaccination and cardiovascular outcomes in high-risk patients: a meta-analysis. JAMA. 2013 Oct 23;310(16):1711-20. doi: 10.1001/jama.2013.279206."}, {"pmid": "29909156", "type": "BACKGROUND", "citation": "Vardeny O, Udell JA, Joseph J, Farkouh ME, Hernandez AF, McGeer AJ, Talbot HK, Bhatt DL, Cannon CP, Goodman SG, Anand I, DeMets DL, Temte J, Wittes J, Nichol K, Yancy CW, Gaziano JM, Cooper LS, Kim K, Solomon SD. High-dose influenza vaccine to reduce clinical outcomes in high-risk cardiovascular patients: Rationale and design of the INVESTED trial. Am Heart J. 2018 Aug;202:97-103. doi: 10.1016/j.ahj.2018.05.007. Epub 2018 May 23."}, {"pmid": "33275134", "type": "RESULT", "citation": "Vardeny O, Kim K, Udell JA, Joseph J, Desai AS, Farkouh ME, Hegde SM, Hernandez AF, McGeer A, Talbot HK, Anand I, Bhatt DL, Cannon CP, DeMets D, Gaziano JM, Goodman SG, Nichol K, Tattersall MC, Temte JL, Wittes J, Yancy C, Claggett B, Chen Y, Mao L, Havighurst TC, Cooper LS, Solomon SD; INVESTED Committees and Investigators. Effect of High-Dose Trivalent vs Standard-Dose Quadrivalent Influenza Vaccine on Mortality or Cardiopulmonary Hospitalization in Patients With High-risk Cardiovascular Disease: A Randomized Clinical Trial. JAMA. 2021 Jan 5;325(1):39-49. doi: 10.1001/jama.2020.23649."}, {"pmid": "30866676", "type": "DERIVED", "citation": "Vardeny O, Hernandez AF, Cohen LW, Franklin A, Baqai M, Palmer S, Bierer BE, Cobb N. Transitioning to the National Institutes of Health single institutional review board model: Piloting the use of the Streamlined, Multi-site, Accelerated Resources for Trials IRB Reliance. Clin Trials. 2019 Jun;16(3):290-296. doi: 10.1177/1740774519832911. Epub 2019 Mar 13."}], "seeAlsoLinks": [{"label": "INVESTED Trial Website", "url": "http://investedtrial.org"}]}, "ipdSharingStatementModule": {"ipdSharing": "YES", "description": "Data will be shared according to NIH data sharing rules", "infoTypes": ["STUDY_PROTOCOL", "SAP", "ICF", "CSR"], "timeFrame": "Data will be available as per NIH guidelines on December 4, 2022 (2 years from the primary study publication date).", "accessCriteria": "Data will be available to all qualified researchers based on the NIH BIOLINCC criteria.", "url": "https://biolincc.nhlbi.nih.gov/home/"}}, "resultsSection": {"participantFlowModule": {"preAssignmentDetails": "A total of 5388 patients were consented for the study. Of these, 15 patients were not randomized (decided not to participate prior to randomization). 5373 patients were randomized and a total of 113 patients were excluded from all efficacy analyses prior to database lock because they had been enrolled at a site that was closed for major violations of good clinical practice, leaving 5260 participants in the efficacy and safety analysis.", "groups": [{"id": "FG000", "title": "High Dose Influenza Vaccine", "description": "High Dose Influenza Vaccine\n\nHigh Dose Trivalent Influenza Vaccine: High Dose Trivalent Influenza Vaccine"}, {"id": "FG001", "title": "Standard Dose Influenza Vaccine", "description": "Standard Dose Influenza Vaccine\n\nStandard Dose Quadrivalent Influenza Vaccine: Standard Dose Quadrivalent Influenza Vaccine"}], "periods": [{"title": "Overall Study", "milestones": [{"type": "STARTED", "comment": "Total Randomized patients", "achievements": [{"groupId": "FG000", "numSubjects": "2630"}, {"groupId": "FG001", "numSubjects": "2630"}]}, {"type": "COMPLETED", "achievements": [{"groupId": "FG000", "numSubjects": "2615"}, {"groupId": "FG001", "numSubjects": "2611"}]}, {"type": "NOT COMPLETED", "achievements": [{"groupId": "FG000", "numSubjects": "15"}, {"groupId": "FG001", "numSubjects": "19"}]}], "dropWithdraws": [{"type": "Lost to Follow-up", "reasons": [{"groupId": "FG000", "numSubjects": "15"}, {"groupId": "FG001", "numSubjects": "19"}]}]}]}, "baselineCharacteristicsModule": {"groups": [{"id": "BG000", "title": "High Dose Influenza Vaccine", "description": "High Dose Influenza Vaccine\n\nHigh Dose Trivalent Influenza Vaccine: High Dose Trivalent Influenza Vaccine"}, {"id": "BG001", "title": "Standard Dose Influenza Vaccine", "description": "Standard Dose Influenza Vaccine\n\nStandard Dose Quadrivalent Influenza Vaccine: Standard Dose Quadrivalent Influenza Vaccine"}, {"id": "BG002", "title": "Total", "description": "Total of all reporting groups"}], "denoms": [{"units": "Participants", "counts": [{"groupId": "BG000", "value": "2630"}, {"groupId": "BG001", "value": "2630"}, {"groupId": "BG002", "value": "5260"}]}], "measures": [{"title": "Age, Continuous", "paramType": "MEAN", "dispersionType": "STANDARD_DEVIATION", "unitOfMeasure": "years", "classes": [{"denoms": [{"units": "Participants", "counts": [{"groupId": "BG000", "value": "2630"}, {"groupId": "BG001", "value": "2630"}, {"groupId": "BG002", "value": "5260"}]}], "categories": [{"measurements": [{"groupId": "BG000", "value": "65.5", "spread": "12.6"}, {"groupId": "BG001", "value": "65.5", "spread": "12.5"}, {"groupId": "BG002", "value": "65.5", "spread": "12.5"}]}]}]}, {"title": "Sex: Female, Male", "populationDescription": "Some patients chose intersex or refused to answer", "paramType": "COUNT_OF_PARTICIPANTS", "unitOfMeasure": "Participants", "classes": [{"denoms": [{"units": "Participants", "counts": [{"groupId": "BG000", "value": "2621"}, {"groupId": "BG001", "value": "2625"}, {"groupId": "BG002", "value": "5246"}]}], "categories": [{"title": "Female", "measurements": [{"groupId": "BG000", "value": "717"}, {"groupId": "BG001", "value": "756"}, {"groupId": "BG002", "value": "1473"}]}, {"title": "Male", "measurements": [{"groupId": "BG000", "value": "1904"}, {"groupId": "BG001", "value": "1869"}, {"groupId": "BG002", "value": "3773"}]}]}]}, {"title": "Ethnicity (NIH/OMB)", "paramType": "COUNT_OF_PARTICIPANTS", "unitOfMeasure": "Participants", "classes": [{"denoms": [{"units": "Participants", "counts": [{"groupId": "BG000", "value": "2630"}, {"groupId": "BG001", "value": "2630"}, {"groupId": "BG002", "value": "5260"}]}], "categories": [{"title": "Hispanic or Latino", "measurements": [{"groupId": "BG000", "value": "250"}, {"groupId": "BG001", "value": "267"}, {"groupId": "BG002", "value": "517"}]}, {"title": "Not Hispanic or Latino", "measurements": [{"groupId": "BG000", "value": "2349"}, {"groupId": "BG001", "value": "2334"}, {"groupId": "BG002", "value": "4683"}]}, {"title": "Unknown or Not Reported", "measurements": [{"groupId": "BG000", "value": "31"}, {"groupId": "BG001", "value": "29"}, {"groupId": "BG002", "value": "60"}]}]}]}, {"title": "Race (NIH/OMB)", "paramType": "COUNT_OF_PARTICIPANTS", "unitOfMeasure": "Participants", "classes": [{"denoms": [{"units": "Participants", "counts": [{"groupId": "BG000", "value": "2630"}, {"groupId": "BG001", "value": "2630"}, {"groupId": "BG002", "value": "5260"}]}], "categories": [{"title": "American Indian or Alaska Native", "measurements": [{"groupId": "BG000", "value": "17"}, {"groupId": "BG001", "value": "32"}, {"groupId": "BG002", "value": "49"}]}, {"title": "Asian", "measurements": [{"groupId": "BG000", "value": "81"}, {"groupId": "BG001", "value": "74"}, {"groupId": "BG002", "value": "155"}]}, {"title": "Native Hawaiian or Other Pacific Islander", "measurements": [{"groupId": "BG000", "value": "13"}, {"groupId": "BG001", "value": "12"}, {"groupId": "BG002", "value": "25"}]}, {"title": "Black or African American", "measurements": [{"groupId": "BG000", "value": "407"}, {"groupId": "BG001", "value": "377"}, {"groupId": "BG002", "value": "784"}]}, {"title": "White", "measurements": [{"groupId": "BG000", "value": "2042"}, {"groupId": "BG001", "value": "2061"}, {"groupId": "BG002", "value": "4103"}]}, {"title": "More than one race", "measurements": [{"groupId": "BG000", "value": "12"}, {"groupId": "BG001", "value": "14"}, {"groupId": "BG002", "value": "26"}]}, {"title": "Unknown or Not Reported", "measurements": [{"groupId": "BG000", "value": "58"}, {"groupId": "BG001", "value": "60"}, {"groupId": "BG002", "value": "118"}]}]}]}, {"title": "Region of Enrollment", "paramType": "NUMBER", "unitOfMeasure": "participants", "classes": [{"title": "Canada", "denoms": [{"units": "Participants", "counts": [{"groupId": "BG000", "value": "2630"}, {"groupId": "BG001", "value": "2630"}, {"groupId": "BG002", "value": "5260"}]}], "categories": [{"measurements": [{"groupId": "BG000", "value": "838"}, {"groupId": "BG001", "value": "838"}, {"groupId": "BG002", "value": "1676"}]}]}, {"title": "United States", "denoms": [{"units": "Participants", "counts": [{"groupId": "BG000", "value": "2630"}, {"groupId": "BG001", "value": "2630"}, {"groupId": "BG002", "value": "5260"}]}], "categories": [{"measurements": [{"groupId": "BG000", "value": "1792"}, {"groupId": "BG001", "value": "1792"}, {"groupId": "BG002", "value": "3584"}]}]}]}, {"title": "Ejection Fraction", "populationDescription": "Measures not available in all patients", "paramType": "MEAN", "dispersionType": "STANDARD_DEVIATION", "unitOfMeasure": "Percentage", "classes": [{"denoms": [{"units": "Participants", "counts": [{"groupId": "BG000", "value": "2275"}, {"groupId": "BG001", "value": "2274"}, {"groupId": "BG002", "value": "4549"}]}], "categories": [{"measurements": [{"groupId": "BG000", "value": "42.5", "spread": "16.1"}, {"groupId": "BG001", "value": "41.9", "spread": "16.2"}, {"groupId": "BG002", "value": "42.2", "spread": "16.2"}]}]}]}, {"title": "Body Mass Index", "populationDescription": "Not available on all patients", "paramType": "MEAN", "dispersionType": "STANDARD_DEVIATION", "unitOfMeasure": "kg/m^2", "classes": [{"denoms": [{"units": "Participants", "counts": [{"groupId": "BG000", "value": "2622"}, {"groupId": "BG001", "value": "2623"}, {"groupId": "BG002", "value": "5245"}]}], "categories": [{"measurements": [{"groupId": "BG000", "value": "30.7", "spread": "7.2"}, {"groupId": "BG001", "value": "31.0", "spread": "7.7"}, {"groupId": "BG002", "value": "30.9", "spread": "7.4"}]}]}]}, {"title": "Qualifying Event", "paramType": "COUNT_OF_PARTICIPANTS", "unitOfMeasure": "Participants", "classes": [{"title": "Heart Failure", "denoms": [{"units": "Participants", "counts": [{"groupId": "BG000", "value": "2630"}, {"groupId": "BG001", "value": "2630"}, {"groupId": "BG002", "value": "5260"}]}], "categories": [{"measurements": [{"groupId": "BG000", "value": "1641"}, {"groupId": "BG001", "value": "1648"}, {"groupId": "BG002", "value": "3289"}]}]}, {"title": "Myocardial Infarction", "denoms": [{"units": "Participants", "counts": [{"groupId": "BG000", "value": "2630"}, {"groupId": "BG001", "value": "2630"}, {"groupId": "BG002", "value": "5260"}]}], "categories": [{"measurements": [{"groupId": "BG000", "value": "982"}, {"groupId": "BG001", "value": "978"}, {"groupId": "BG002", "value": "1960"}]}]}]}, {"title": "Hypertension", "paramType": "COUNT_OF_PARTICIPANTS", "unitOfMeasure": "Participants", "classes": [{"denoms": [{"units": "Participants", "counts": [{"groupId": "BG000", "value": "2630"}, {"groupId": "BG001", "value": "2630"}, {"groupId": "BG002", "value": "5260"}]}], "categories": [{"measurements": [{"groupId": "BG000", "value": "1986"}, {"groupId": "BG001", "value": "2060"}, {"groupId": "BG002", "value": "4046"}]}]}]}, {"title": "Dyslipidemia", "paramType": "COUNT_OF_PARTICIPANTS", "unitOfMeasure": "Participants", "classes": [{"denoms": [{"units": "Participants", "counts": [{"groupId": "BG000", "value": "2630"}, {"groupId": "BG001", "value": "2630"}, {"groupId": "BG002", "value": "5260"}]}], "categories": [{"measurements": [{"groupId": "BG000", "value": "1793"}, {"groupId": "BG001", "value": "1823"}, {"groupId": "BG002", "value": "3616"}]}]}]}, {"title": "History of Percutaneous Coronary Intervention", "paramType": "COUNT_OF_PARTICIPANTS", "unitOfMeasure": "Participants", "classes": [{"denoms": [{"units": "Participants", "counts": [{"groupId": "BG000", "value": "2630"}, {"groupId": "BG001", "value": "2630"}, {"groupId": "BG002", "value": "5260"}]}], "categories": [{"measurements": [{"groupId": "BG000", "value": "1103"}, {"groupId": "BG001", "value": "1059"}, {"groupId": "BG002", "value": "2162"}]}]}]}, {"title": "Atrial Fibrillation", "paramType": "COUNT_OF_PARTICIPANTS", "unitOfMeasure": "Participants", "classes": [{"denoms": [{"units": "Participants", "counts": [{"groupId": "BG000", "value": "2630"}, {"groupId": "BG001", "value": "2630"}, {"groupId": "BG002", "value": "5260"}]}], "categories": [{"measurements": [{"groupId": "BG000", "value": "854"}, {"groupId": "BG001", "value": "871"}, {"groupId": "BG002", "value": "1725"}]}]}]}, {"title": "History of Coronary Artery Bypass Graft", "paramType": "COUNT_OF_PARTICIPANTS", "unitOfMeasure": "Participants", "classes": [{"denoms": [{"units": "Participants", "counts": [{"groupId": "BG000", "value": "2630"}, {"groupId": "BG001", "value": "2630"}, {"groupId": "BG002", "value": "5260"}]}], "categories": [{"measurements": [{"groupId": "BG000", "value": "503"}, {"groupId": "BG001", "value": "537"}, {"groupId": "BG002", "value": "1040"}]}]}]}, {"title": "History of Chronic Obstructive Pulmonary Disease", "paramType": "COUNT_OF_PARTICIPANTS", "unitOfMeasure": "Participants", "classes": [{"denoms": [{"units": "Participants", "counts": [{"groupId": "BG000", "value": "2630"}, {"groupId": "BG001", "value": "2630"}, {"groupId": "BG002", "value": "5260"}]}], "categories": [{"measurements": [{"groupId": "BG000", "value": "486"}, {"groupId": "BG001", "value": "520"}, {"groupId": "BG002", "value": "1006"}]}]}]}, {"title": "History of Implantable Cardioverter Defibrillator", "paramType": "COUNT_OF_PARTICIPANTS", "unitOfMeasure": "Participants", "classes": [{"denoms": [{"units": "Participants", "counts": [{"groupId": "BG000", "value": "2630"}, {"groupId": "BG001", "value": "2630"}, {"groupId": "BG002", "value": "5260"}]}], "categories": [{"measurements": [{"groupId": "BG000", "value": "463"}, {"groupId": "BG001", "value": "493"}, {"groupId": "BG002", "value": "956"}]}]}]}, {"title": "Asthma", "paramType": "COUNT_OF_PARTICIPANTS", "unitOfMeasure": "Participants", "classes": [{"denoms": [{"units": "Participants", "counts": [{"groupId": "BG000", "value": "2630"}, {"groupId": "BG001", "value": "2630"}, {"groupId": "BG002", "value": "5260"}]}], "categories": [{"measurements": [{"groupId": "BG000", "value": "308"}, {"groupId": "BG001", "value": "294"}, {"groupId": "BG002", "value": "602"}]}]}]}, {"title": "Statins (MI group)", "populationDescription": "Reported in MI group only", "paramType": "COUNT_OF_PARTICIPANTS", "unitOfMeasure": "Participants", "classes": [{"denoms": [{"units": "Participants", "counts": [{"groupId": "BG000", "value": "982"}, {"groupId": "BG001", "value": "978"}, {"groupId": "BG002", "value": "1960"}]}], "categories": [{"measurements": [{"groupId": "BG000", "value": "920"}, {"groupId": "BG001", "value": "915"}, {"groupId": "BG002", "value": "1835"}]}]}]}, {"title": "Aspirin (MI Group)", "populationDescription": "Reported in MI group only", "paramType": "COUNT_OF_PARTICIPANTS", "unitOfMeasure": "Participants", "classes": [{"denoms": [{"units": "Participants", "counts": [{"groupId": "BG000", "value": "982"}, {"groupId": "BG001", "value": "978"}, {"groupId": "BG002", "value": "1960"}]}], "categories": [{"measurements": [{"groupId": "BG000", "value": "907"}, {"groupId": "BG001", "value": "878"}, {"groupId": "BG002", "value": "1785"}]}]}]}, {"title": "Beta Blocker (MI Group)", "populationDescription": "Reported in MI group only", "paramType": "COUNT_OF_PARTICIPANTS", "unitOfMeasure": "Participants", "classes": [{"denoms": [{"units": "Participants", "counts": [{"groupId": "BG000", "value": "982"}, {"groupId": "BG001", "value": "978"}, {"groupId": "BG002", "value": "1960"}]}], "categories": [{"measurements": [{"groupId": "BG000", "value": "839"}, {"groupId": "BG001", "value": "840"}, {"groupId": "BG002", "value": "1679"}]}]}]}, {"title": "Diuretic (HF group)", "populationDescription": "Reported in HF group only", "paramType": "COUNT_OF_PARTICIPANTS", "unitOfMeasure": "Participants", "classes": [{"denoms": [{"units": "Participants", "counts": [{"groupId": "BG000", "value": "1641"}, {"groupId": "BG001", "value": "1648"}, {"groupId": "BG002", "value": "3289"}]}], "categories": [{"measurements": [{"groupId": "BG000", "value": "1294"}, {"groupId": "BG001", "value": "1313"}, {"groupId": "BG002", "value": "2607"}]}]}]}, {"title": "ACE Inhibitor/ Angiotensin Receptor Blocker / Angiotensin Receptor Neprilysin Inhibitor", "description": "ACE = Angiotensin Converting Enzyme", "populationDescription": "Reported in HF group only", "paramType": "COUNT_OF_PARTICIPANTS", "unitOfMeasure": "Participants", "classes": [{"denoms": [{"units": "Participants", "counts": [{"groupId": "BG000", "value": "1641"}, {"groupId": "BG001", "value": "1648"}, {"groupId": "BG002", "value": "3289"}]}], "categories": [{"measurements": [{"groupId": "BG000", "value": "1086"}, {"groupId": "BG001", "value": "1111"}, {"groupId": "BG002", "value": "2197"}]}]}]}, {"title": "Mineralocorticoid Receptor Antagonist (MRA) (HF group)", "populationDescription": "Reported in HF group only", "paramType": "COUNT_OF_PARTICIPANTS", "unitOfMeasure": "Participants", "classes": [{"denoms": [{"units": "Participants", "counts": [{"groupId": "BG000", "value": "1641"}, {"groupId": "BG001", "value": "1648"}, {"groupId": "BG002", "value": "3289"}]}], "categories": [{"measurements": [{"groupId": "BG000", "value": "572"}, {"groupId": "BG001", "value": "546"}, {"groupId": "BG002", "value": "1118"}]}]}]}, {"title": "Digoxin (HF Group)", "populationDescription": "Reporte in HF group only", "paramType": "COUNT_OF_PARTICIPANTS", "unitOfMeasure": "Participants", "classes": [{"denoms": [{"units": "Participants", "counts": [{"groupId": "BG000", "value": "1641"}, {"groupId": "BG001", "value": "1648"}, {"groupId": "BG002", "value": "3289"}]}], "categories": [{"measurements": [{"groupId": "BG000", "value": "155"}, {"groupId": "BG001", "value": "159"}, {"groupId": "BG002", "value": "314"}]}]}]}, {"title": "Beta Blocker (HF Group)", "populationDescription": "Reported in HF group only", "paramType": "COUNT_OF_PARTICIPANTS", "unitOfMeasure": "Participants", "classes": [{"denoms": [{"units": "Participants", "counts": [{"groupId": "BG000", "value": "1641"}, {"groupId": "BG001", "value": "1648"}, {"groupId": "BG002", "value": "3289"}]}], "categories": [{"measurements": [{"groupId": "BG000", "value": "1381"}, {"groupId": "BG001", "value": "1398"}, {"groupId": "BG002", "value": "2779"}]}]}]}]}, "outcomeMeasuresModule": {"outcomeMeasures": [{"type": "PRIMARY", "title": "All-Cause Death or Cardiopulmonary Hospitalization Within Each Vaccination Season", "description": "Number of patients with first occurrence of death or cardiopulmonary hospitalization within each vaccination season", "reportingStatus": "POSTED", "paramType": "COUNT_OF_UNITS", "unitOfMeasure": "Participant-Seasons", "timeFrame": "Up to 1 year from vaccination (repeats seasonally)", "typeUnitsAnalyzed": "Participant-Seasons", "denomUnitsSelected": "Participant-Seasons", "groups": [{"id": "OG000", "title": "High Dose Influenza Vaccine", "description": "High Dose Influenza Vaccine\n\nHigh Dose Trivalent Influenza Vaccine: High Dose Trivalent Influenza Vaccine; Note primary analysis is of participant-seasons (n = 3577)"}, {"id": "OG001", "title": "Standard Dose Influenza Vaccine", "description": "Standard Dose Influenza Vaccine\n\nStandard Dose Quadrivalent Influenza Vaccine: Standard Dose Quadrivalent Influenza Vaccine; Note primary analysis is of participant-seasons (n = 3577)"}], "denoms": [{"units": "Participants", "counts": [{"groupId": "OG000", "value": "2630"}, {"groupId": "OG001", "value": "2630"}]}, {"units": "Participant-Seasons", "counts": [{"groupId": "OG000", "value": "3577"}, {"groupId": "OG001", "value": "3577"}]}], "classes": [{"categories": [{"measurements": [{"groupId": "OG000", "value": "975"}, {"groupId": "OG001", "value": "924"}]}]}], "analyses": [{"groupIds": ["OG000", "OG001"], "groupDescription": "Note, each participant can be included in the primary analysis up to 3 times (participating seasons).", "nonInferiorityType": "SUPERIORITY", "pValue": "0.21", "statisticalMethod": "Regression, Cox", "paramType": "Hazard Ratio (HR)", "paramValue": "1.06", "ciPctValue": "95", "ciNumSides": "TWO_SIDED", "ciLowerLimit": "0.97", "ciUpperLimit": "1.17"}]}, {"type": "SECONDARY", "title": "Total Cardiopulmonary Hospitalizations or Death", "description": "Total (first and recurrent) cardiopulmonary hospitalizations or death", "reportingStatus": "POSTED", "paramType": "NUMBER", "unitOfMeasure": "All CP hospitalizations/death", "timeFrame": "Up to 3 years", "groups": [{"id": "OG000", "title": "High Dose Influenza Vaccine", "description": "High Dose Influenza Vaccine\n\nHigh Dose Trivalent Influenza Vaccine: High Dose Trivalent Influenza Vaccine"}, {"id": "OG001", "title": "Standard Dose Influenza Vaccine", "description": "Standard Dose Influenza Vaccine\n\nStandard Dose Quadrivalent Influenza Vaccine: Standard Dose Quadrivalent Influenza Vaccine"}], "denoms": [{"units": "Participants", "counts": [{"groupId": "OG000", "value": "2630"}, {"groupId": "OG001", "value": "2630"}]}], "classes": [{"categories": [{"measurements": [{"groupId": "OG000", "value": "1857"}, {"groupId": "OG001", "value": "1784"}]}]}], "analyses": [{"groupIds": ["OG000", "OG001"], "nonInferiorityType": "SUPERIORITY", "pValue": "0.44", "statisticalMethod": "Regression, Cox", "paramType": "Hazard Ratio (HR)", "paramValue": "1.04", "ciPctValue": "95", "ciNumSides": "TWO_SIDED", "ciLowerLimit": "0.94", "ciUpperLimit": "1.15"}]}, {"type": "SECONDARY", "title": "Cardiovascular Death or Hospitalization Within Each Vaccination Season", "description": "Number of patients with first cardiovascular death or cardiovascular hospitalization within each influenza season", "reportingStatus": "POSTED", "paramType": "COUNT_OF_UNITS", "unitOfMeasure": "Participant-Seasons", "timeFrame": "Up to one year from vaccination", "typeUnitsAnalyzed": "Participant-Seasons", "denomUnitsSelected": "Participant-Seasons", "groups": [{"id": "OG000", "title": "High Dose Influenza Vaccine", "description": "High Dose Influenza Vaccine\n\nHigh Dose Trivalent Influenza Vaccine: High Dose Trivalent Influenza Vaccine; Note: primary analysis is of participant-seasons (n = 3577)"}, {"id": "OG001", "title": "Standard Dose Influenza Vaccine", "description": "Standard Dose Influenza Vaccine\n\nStandard Dose Quadrivalent Influenza Vaccine: Standard Dose Quadrivalent Influenza Vaccine; Note: primary analysis is of participant-seasons (n = 3577)"}], "denoms": [{"units": "Participants", "counts": [{"groupId": "OG000", "value": "2630"}, {"groupId": "OG001", "value": "2630"}]}, {"units": "Participant-Seasons", "counts": [{"groupId": "OG000", "value": "3577"}, {"groupId": "OG001", "value": "3577"}]}], "classes": [{"categories": [{"measurements": [{"groupId": "OG000", "value": "805"}, {"groupId": "OG001", "value": "752"}]}]}], "analyses": [{"groupIds": ["OG000", "OG001"], "groupDescription": "Each participant can be analyzed up to three times (seasons)", "nonInferiorityType": "SUPERIORITY", "pValue": "0.16", "statisticalMethod": "Regression, Cox", "paramType": "Hazard Ratio (HR)", "paramValue": "1.08", "ciPctValue": "95", "ciNumSides": "TWO_SIDED", "ciLowerLimit": ".97", "ciUpperLimit": "1.2"}]}, {"type": "SECONDARY", "title": "Death or Cardiopulmonary Hospitalization Across Enrolling Seasons", "description": "First cardiopulmonary Hospitalization or all-cause death across enrolling seasons", "reportingStatus": "POSTED", "paramType": "NUMBER", "unitOfMeasure": "first CP hospitalization/death", "timeFrame": "Up to three years", "groups": [{"id": "OG000", "title": "High Dose Influenza Vaccine", "description": "High Dose Influenza Vaccine\n\nHigh Dose Trivalent Influenza Vaccine: High Dose Trivalent Influenza Vaccine"}, {"id": "OG001", "title": "Standard Dose Influenza Vaccine", "description": "Standard Dose Influenza Vaccine\n\nStandard Dose Quadrivalent Influenza Vaccine: Standard Dose Quadrivalent Influenza Vaccine"}], "denoms": [{"units": "Participants", "counts": [{"groupId": "OG000", "value": "2630"}, {"groupId": "OG001", "value": "2630"}]}], "classes": [{"categories": [{"measurements": [{"groupId": "OG000", "value": "955"}, {"groupId": "OG001", "value": "918"}]}]}], "analyses": [{"groupIds": ["OG000", "OG001"], "nonInferiorityType": "SUPERIORITY", "pValue": "0.26", "statisticalMethod": "Regression, Cox", "paramType": "Hazard Ratio (HR)", "paramValue": "1.05", "ciPctValue": "95", "ciNumSides": "TWO_SIDED", "ciLowerLimit": ".96", "ciUpperLimit": "1.15"}]}, {"type": "SECONDARY", "title": "All-Cause Mortality", "description": "Number of patients with first occurrence of all-cause mortality", "reportingStatus": "POSTED", "paramType": "NUMBER", "unitOfMeasure": "All cause deaths", "timeFrame": "Up to 3 years", "groups": [{"id": "OG000", "title": "High Dose Influenza Vaccine", "description": "High Dose Influenza Vaccine\n\nHigh Dose Trivalent Influenza Vaccine: High Dose Trivalent Influenza Vaccine"}, {"id": "OG001", "title": "Standard Dose Influenza Vaccine", "description": "Standard Dose Influenza Vaccine\n\nStandard Dose Quadrivalent Influenza Vaccine: Standard Dose Quadrivalent Influenza Vaccine"}], "denoms": [{"units": "Participants", "counts": [{"groupId": "OG000", "value": "2630"}, {"groupId": "OG001", "value": "2630"}]}], "classes": [{"categories": [{"measurements": [{"groupId": "OG000", "value": "223"}, {"groupId": "OG001", "value": "222"}]}]}], "analyses": [{"groupIds": ["OG000", "OG001"], "nonInferiorityType": "SUPERIORITY", "pValue": "0.96", "statisticalMethod": "Regression, Cox", "paramType": "Hazard Ratio (HR)", "paramValue": "1.01", "ciPctValue": "95", "ciNumSides": "TWO_SIDED", "ciLowerLimit": "0.84", "ciUpperLimit": "1.21"}]}]}, "adverseEventsModule": {"frequencyThreshold": "0", "timeFrame": "1 week for post-vaccination adverse events; 1-3 years, depending on length of participation for serious adverse events", "description": "Post-vaccination AEs were collected via participant self report up to 1 week post vaccination. Potential SAEs during study participation were reviewed by study monitors. For all-cause mortality, the number of patients at risk are the total number of patients randomized who were included in the efficacy analyses: 2630 per group. For all other adverse events, the safety analysis set consists of patients who received study vaccination (2606 in high-dose group and 2604 in standard-dose group).", "eventGroups": [{"id": "EG000", "title": "High Dose Influenza Vaccine", "description": "High Dose Influenza Vaccine\n\nHigh Dose Trivalent Influenza Vaccine: High Dose Trivalent Influenza Vaccine", "deathsNumAffected": 223, "deathsNumAtRisk": 2630, "seriousNumAffected": 2, "seriousNumAtRisk": 2606, "otherNumAffected": 1241, "otherNumAtRisk": 2606}, {"id": "EG001", "title": "Standard Dose Influenza Vaccine", "description": "Standard Dose Influenza Vaccine\n\nStandard Dose Quadrivalent Influenza Vaccine: Standard Dose Quadrivalent Influenza Vaccine", "deathsNumAffected": 222, "deathsNumAtRisk": 2630, "seriousNumAffected": 4, "seriousNumAtRisk": 2604, "otherNumAffected": 1096, "otherNumAtRisk": 2604}], "seriousEvents": [{"term": "Bell's Palsy", "organSystem": "Nervous system disorders", "assessmentType": "SYSTEMATIC_ASSESSMENT", "stats": [{"groupId": "EG000", "numEvents": 0, "numAffected": 0, "numAtRisk": 2606}, {"groupId": "EG001", "numEvents": 1, "numAffected": 1, "numAtRisk": 2604}]}, {"term": "Neuritis", "organSystem": "Nervous system disorders", "assessmentType": "SYSTEMATIC_ASSESSMENT", "stats": [{"groupId": "EG000", "numEvents": 0, "numAffected": 0, "numAtRisk": 2606}, {"groupId": "EG001", "numEvents": 1, "numAffected": 1, "numAtRisk": 2604}]}, {"term": "Fever", "organSystem": "General disorders", "assessmentType": "SYSTEMATIC_ASSESSMENT", "stats": [{"groupId": "EG000", "numEvents": 1, "numAffected": 1, "numAtRisk": 2606}, {"groupId": "EG001", "numEvents": 0, "numAffected": 0, "numAtRisk": 2604}]}, {"term": "Acute Respiratory Failure", "organSystem": "Respiratory, thoracic and mediastinal disorders", "assessmentType": "SYSTEMATIC_ASSESSMENT", "stats": [{"groupId": "EG000", "numEvents": 0, "numAffected": 0, "numAtRisk": 2606}, {"groupId": "EG001", "numEvents": 1, "numAffected": 1, "numAtRisk": 2604}]}, {"term": "Dysgusia", "organSystem": "Gastrointestinal disorders", "assessmentType": "SYSTEMATIC_ASSESSMENT", "stats": [{"groupId": "EG000", "numEvents": 0, "numAffected": 0, "numAtRisk": 2606}, {"groupId": "EG001", "numEvents": 1, "numAffected": 1, "numAtRisk": 2604}]}, {"term": "Cardiac Arrest", "organSystem": "Cardiac disorders", "assessmentType": "SYSTEMATIC_ASSESSMENT", "stats": [{"groupId": "EG000", "numEvents": 1, "numAffected": 1, "numAtRisk": 2606}, {"groupId": "EG001", "numEvents": 0, "numAffected": 0, "numAtRisk": 2604}]}], "otherEvents": [{"term": "Pain at injection site", "organSystem": "Injury, poisoning and procedural complications", "assessmentType": "SYSTEMATIC_ASSESSMENT", "stats": [{"groupId": "EG000", "numEvents": 932, "numAffected": 788, "numAtRisk": 2606}, {"groupId": "EG001", "numEvents": 683, "numAffected": 594, "numAtRisk": 2604}]}, {"term": "Myalgia", "organSystem": "General disorders", "assessmentType": "SYSTEMATIC_ASSESSMENT", "stats": [{"groupId": "EG000", "numEvents": 500, "numAffected": 447, "numAtRisk": 2606}, {"groupId": "EG001", "numEvents": 423, "numAffected": 391, "numAtRisk": 2604}]}, {"term": "Overall Discomfort", "organSystem": "General disorders", "assessmentType": "SYSTEMATIC_ASSESSMENT", "stats": [{"groupId": "EG000", "numEvents": 310, "numAffected": 290, "numAtRisk": 2606}, {"groupId": "EG001", "numEvents": 280, "numAffected": 266, "numAtRisk": 2604}]}, {"term": "Headache", "organSystem": "General disorders", "assessmentType": "SYSTEMATIC_ASSESSMENT", "stats": [{"groupId": "EG000", "numEvents": 279, "numAffected": 265, "numAtRisk": 2606}, {"groupId": "EG001", "numEvents": 272, "numAffected": 253, "numAtRisk": 2604}]}, {"term": "Swelling", "organSystem": "Injury, poisoning and procedural complications", "assessmentType": "SYSTEMATIC_ASSESSMENT", "stats": [{"groupId": "EG000", "numEvents": 198, "numAffected": 179, "numAtRisk": 2606}, {"groupId": "EG001", "numEvents": 119, "numAffected": 115, "numAtRisk": 2604}]}, {"term": "Erythema", "organSystem": "Injury, poisoning and procedural complications", "assessmentType": "SYSTEMATIC_ASSESSMENT", "stats": [{"groupId": "EG000", "numEvents": 157, "numAffected": 144, "numAtRisk": 2606}, {"groupId": "EG001", "numEvents": 157, "numAffected": 150, "numAtRisk": 2604}]}]}, "moreInfoModule": {"certainAgreement": {"piSponsorEmployee": false, "restrictiveAgreement": false}, "pointOfContact": {"title": "Dr. Scott Solomon", "organization": "Brigham and Women's Hospital", "email": "ssolomon@bwh.harvard.edu", "phone": "857-307-1960"}}}, "documentSection": {"largeDocumentModule": {"largeDocs": [{"typeAbbrev": "Prot", "hasProtocol": true, "hasSap": false, "hasIcf": false, "label": "Study Protocol", "date": "2019-07-23", "uploadDate": "2021-05-12T09:33", "filename": "Prot_000.pdf", "size": 8129821}, {"typeAbbrev": "SAP", "hasProtocol": false, "hasSap": true, "hasIcf": false, "label": "Statistical Analysis Plan", "date": "2020-07-31", "uploadDate": "2021-05-12T09:26", "filename": "SAP_001.pdf", "size": 483978}, {"typeAbbrev": "ICF", "hasProtocol": false, "hasSap": false, "hasIcf": true, "label": "Informed Consent Form", "date": "2019-07-30", "uploadDate": "2021-11-29T11:32", "filename": "ICF_002.pdf", "size": 118366}]}}, "derivedSection": {"miscInfoModule": {"versionHolder": "2024-06-24"}, "conditionBrowseModule": {"meshes": [{"id": "D000007251", "term": "Influenza, Human"}, {"id": "D000006333", "term": "Heart Failure"}, {"id": "D000009203", "term": "Myocardial Infarction"}, {"id": "D000007238", "term": "Infarction"}], "ancestors": [{"id": "D000006331", "term": "Heart Diseases"}, {"id": "D000002318", "term": "Cardiovascular Diseases"}, {"id": "D000012141", "term": "Respiratory Tract Infections"}, {"id": "D000007239", "term": "Infections"}, {"id": "D000009976", "term": "Orthomyxoviridae Infections"}, {"id": "D000012327", "term": "RNA Virus Infections"}, {"id": "D000014777", "term": "Virus Diseases"}, {"id": "D000012140", "term": "Respiratory Tract Diseases"}, {"id": "D000007511", "term": "Ischemia"}, {"id": "D000010335", "term": "Pathologic Processes"}, {"id": "D000009336", "term": "Necrosis"}, {"id": "D000017202", "term": "Myocardial Ischemia"}, {"id": "D000014652", "term": "Vascular Diseases"}], "browseLeaves": [{"id": "M9421", "name": "Heart Failure", "asFound": "Heart Failure", "relevance": "HIGH"}, {"id": "M12155", "name": "Myocardial Infarction", "asFound": "Myocardial Infarction", "relevance": "HIGH"}, {"id": "M10282", "name": "Infarction", "asFound": "Infarction", "relevance": "HIGH"}, {"id": "M10295", "name": "Influenza, Human", "asFound": "Influenza", "relevance": "HIGH"}, {"id": "M9419", "name": "Heart Diseases", "relevance": "LOW"}, {"id": "M10283", "name": "Infections", "relevance": "LOW"}, {"id": "M6368", "name": "Communicable Diseases", "relevance": "LOW"}, {"id": "M14978", "name": "Respiratory Tract Infections", "relevance": "LOW"}, {"id": "M12902", "name": "Orthomyxoviridae Infections", "relevance": "LOW"}, {"id": "M17522", "name": "Virus Diseases", "relevance": "LOW"}, {"id": "M15149", "name": "RNA Virus Infections", "relevance": "LOW"}, {"id": "M14977", "name": "Respiratory Tract Diseases", "relevance": "LOW"}, {"id": "M10543", "name": "Ischemia", "relevance": "LOW"}, {"id": "M12284", "name": "Necrosis", "relevance": "LOW"}, {"id": "M6546", "name": "Coronary Artery Disease", "relevance": "LOW"}, {"id": "M19506", "name": "Myocardial Ischemia", "relevance": "LOW"}, {"id": "M17400", "name": "Vascular Diseases", "relevance": "LOW"}], "browseBranches": [{"abbrev": "BC14", "name": "Heart and Blood Diseases"}, {"abbrev": "All", "name": "All Conditions"}, {"abbrev": "BC23", "name": "Symptoms and General Pathology"}, {"abbrev": "BC01", "name": "Infections"}, {"abbrev": "BC08", "name": "Respiratory Tract (Lung and Bronchial) Diseases"}]}, "interventionBrowseModule": {"meshes": [{"id": "D000014612", "term": "Vaccines"}], "ancestors": [{"id": "D000007155", "term": "Immunologic Factors"}, {"id": "D000045505", "term": "Physiological Effects of Drugs"}], "browseLeaves": [{"id": "M17360", "name": "Vaccines", "asFound": "Other", "relevance": "HIGH"}, {"id": "M10201", "name": "Immunologic Factors", "relevance": "LOW"}], "browseBranches": [{"abbrev": "All", "name": "All Drugs and Chemicals"}]}}, "hasResults": true}