{"protocolSection": {"identificationModule": {"nctId": "NCT02224157", "orgStudyIdInfo": {"id": "D589SC00003"}, "secondaryIdInfos": [{"id": "2013-004473-28", "type": "EUDRACT_NUMBER"}], "organization": {"fullName": "AstraZeneca", "class": "INDUSTRY"}, "briefTitle": "A Clinical Study to Evaluate Symbicort Turbuhaler Used 'as Needed' in Adults and Adolescents With Asthma", "officialTitle": "A Clinical Study Comparing Symbicort 'as Needed' With Pulmicort Twice Daily Plus Terbutaline 'as Needed' in Adult and Adolescent Patients With Asthma", "acronym": "SYGMA2"}, "statusModule": {"statusVerifiedDate": "2019-11", "overallStatus": "COMPLETED", "expandedAccessInfo": {"hasExpandedAccess": false}, "startDateStruct": {"date": "2014-11-28", "type": "ACTUAL"}, "primaryCompletionDateStruct": {"date": "2017-08-16", "type": "ACTUAL"}, "completionDateStruct": {"date": "2017-08-16", "type": "ACTUAL"}, "studyFirstSubmitDate": "2014-08-19", "studyFirstSubmitQcDate": "2014-08-22", "studyFirstPostDateStruct": {"date": "2014-08-25", "type": "ESTIMATED"}, "resultsFirstSubmitDate": "2018-08-16", "resultsFirstSubmitQcDate": "2019-11-06", "resultsFirstPostDateStruct": {"date": "2019-11-25", "type": "ACTUAL"}, "lastUpdateSubmitDate": "2019-11-06", "lastUpdatePostDateStruct": {"date": "2019-11-25", "type": "ACTUAL"}}, "sponsorCollaboratorsModule": {"responsibleParty": {"type": "SPONSOR"}, "leadSponsor": {"name": "AstraZeneca", "class": "INDUSTRY"}}, "oversightModule": {"oversightHasDmc": false}, "descriptionModule": {"briefSummary": "The purpose of this study is to test if Symbicort (budesonide/formoterol) Turbuhaler is effective in treating asthma when used 'as needed' in patients with milder asthma. The efficacy of Symbicort 'as needed' will be compared with Pulmicort (budesonide) Turbuhaler twice daily plus terbutaline Turbuhaler 'as needed'", "detailedDescription": "A 52-week, double-blind, randomised, multi-centre, phase III, parallel-group study in patients 12 years and older with asthma, evaluating the efficacy and safety of Symbicort (budesonide/formoterol) Turbuhaler 160/4.5 \u03bcg 'as needed' compared with Pulmicort (budesonide) Turbuhaler 200 \u03bcg twice daily plus terbutaline Turbuhaler 0.4 mg 'as needed'"}, "conditionsModule": {"conditions": ["Asthma"]}, "designModule": {"studyType": "INTERVENTIONAL", "phases": ["PHASE3"], "designInfo": {"allocation": "RANDOMIZED", "interventionModel": "PARALLEL", "primaryPurpose": "TREATMENT", "maskingInfo": {"masking": "TRIPLE", "whoMasked": ["PARTICIPANT", "CARE_PROVIDER", "INVESTIGATOR"]}}, "enrollmentInfo": {"count": 4215, "type": "ACTUAL"}}, "armsInterventionsModule": {"armGroups": [{"label": "Symbicort \"as needed\"+placebo Pulmicort bid", "type": "EXPERIMENTAL", "description": "Symbicort (budesonide/formoterol) Turbuhaler 160/4.5 \u03bcg 'as needed' + Placebo Pulmicort Turbuhaler 200 \u03bcg bid", "interventionNames": ["Drug: budesonide/formoterol 'as needed' + budesonide placebo bid"]}, {"label": "Pulmicort bid + terbutaline \"as needed\"", "type": "ACTIVE_COMPARATOR", "description": "Pulmicort 200 \u03bcg Turbuhaler bid + terbutaline 0.4 mg Turbuhaler 'as needed'", "interventionNames": ["Drug: budesonode bid + terbutaline 'as needed'"]}], "interventions": [{"type": "DRUG", "name": "budesonide/formoterol 'as needed' + budesonide placebo bid", "description": "Symbicort (budesonide/ formoterol) 160/4.5 \u03bcg powder for inhalation 'as needed' plus Pulmicort placebo 200 \u03bcg powder for inhalation, 1 inhalation twice daily (morning and evening), 52-week treatment", "armGroupLabels": ["Symbicort \"as needed\"+placebo Pulmicort bid"]}, {"type": "DRUG", "name": "budesonode bid + terbutaline 'as needed'", "description": "Pulmicort (budesonide) 200 \u03bcg powder for inhalation, 1 inhalation twice daily (morning and evening) plus terbutaline 0.4 mg powder for inhalation 'as needed', 52-week treatment", "armGroupLabels": ["Pulmicort bid + terbutaline \"as needed\""]}]}, "outcomesModule": {"primaryOutcomes": [{"measure": "Annual Severe Asthma Exacerbation Rate - Non-inferiority Analysis", "description": "Severe asthma exacerbations over the randomised treatment period, negative binomial model for non-inferiority test evaluation", "timeFrame": "up to 52 weeks"}, {"measure": "Annual Severe Asthma Exacerbation Rate - Superiority Analysis", "description": "Severe asthma exacerbations over the randomised treatment period, negative binomial model for superiority test evaluation", "timeFrame": "up to 52 weeks"}], "secondaryOutcomes": [{"measure": "Number of Participants Experiencing at Least One Severe Asthma Exacerbation", "description": "A severe exacerbation is defined as a deterioration of asthma requiring any of the following: use of systemic glucocorticosteroids (GCS) for at least 3 days, inpatient hospitalization, or emergency room visit due to asthma that required systemic steroids.", "timeFrame": "Day 1 up to 52 weeks"}, {"measure": "Average Change From Baseline in Pre-bronchodilator FEV1", "description": "The average change from baseline (baseline defined by measurement at week 0, prior to first dose of IP) to the treatment period average assessed over the entire treatment period in pre-bronchodilator FEV1 was derived by computing a contrast for the mean across the post-randomisation visits (week 17, 34, 52) from the MMRM (mixed model repeated measures) analysis.", "timeFrame": "Study weeks 0,17, 34, 52"}, {"measure": "Number of Participants With Study Specific Asthma Related Discontinuation", "description": "The following two criteria lead to discontinuation from the IP due to asthma related events: A severe asthma exacerbation with duration for more than 3 weeks, and/or three severe asthma exacerbations during 6 months.", "timeFrame": "Day 1 up to 52 weeks"}, {"measure": "Average Change From Baseline in 'as Needed' Use", "description": "'As-needed' use change from baseline over the randomised treatment period. Baseline was defined as the last 10 days of the run-in period. 'As needed' use was calculated as the cumulative doses of 'as-needed' medication over the randomised treatment period divided by the follow-up time (number of days - 1). ie, average number of inhalations per day.", "timeFrame": "Week 0 up to 52 weeks"}, {"measure": "Change From Baseline in Percent of 'as Needed' Free Days", "description": "'As needed' free days (%) change from baseline during randomised treatment period. An 'as-needed' free day was defined as a day and night with no use of 'as needed' medication. Variable analysed is the percentage (%) of 'as-needed' free days during the randomised treatment period. Baseline is defined by the last 10 days of the run-in period.", "timeFrame": "Week 0 up to 52 weeks"}, {"measure": "Percentage of Controller Use Days", "description": "ICS controller use days (%) during the randomised treatment period is calculated as the cumulative days when any controller medication (containing ICS) was taken including maintenance (Pulmicort bid group) and 'as needed' medication (Symbicort 'as needed' group) and additional prescribed ICS for asthma (all treatment groups), divided by the number of days in the randomised treatment period.", "timeFrame": "Week 0 up to 52 weeks"}, {"measure": "Average Change From Baseline in Asthma Control Questionnaire (5-item Version) - ACQ-5 Score", "description": "ACQ questionnaire contains five questions on patients' symptoms, which are assessed on a 7-point scale from 0 (representing good control) to 6 (representing poor control). The score is the mean score of all questions for which responses are provided. The average change from baseline to treatment period average in ACQ-5 was derived by computing a contrast for the mean across all post-randomisation visits (week 17, 34, 52) from the MMRM (mixed model repeated measures) analysis.", "timeFrame": "Study weeks 0, 17, 34, 52"}, {"measure": "Average Change From Baseline in Asthma Quality of Life Questionnaire Standardised Version - AQLQ(S) Score", "description": "AQLQ(S) consists of 32 questions in 4 domains. Each question is assessed on a 7-point scale from 1 to 7, with higher values indicating better health-related quality of life. The overall score is calculated as the mean score of all 32 items. The average change from baseline to treatment period average in AQLQ(S) overall score was derived by computing a contrast for the mean across all post-randomisation visits (week 17, 34, 52) from the MMRM (mixed model repeated measures) analysis.", "timeFrame": "Study weeks 0,17, 34, 52"}]}, "eligibilityModule": {"eligibilityCriteria": "Inclusion Criteria:\n\n1. Provision of informed consent prior to any study specific procedures. For patients under-age, signed informed consent from both the patient and the patient's parent/legal guardian is required\n2. Male or Female, \u226512 years of age\n3. Documented diagnosis of asthma for at least 6 months prior to Visit 1\n4. Patients who are in need of GINA step 2 treatment\n5. Patients treated with a short acting inhaled bronchodilator(s) only should have pre-bronchodilator FEV1 \u2265 60 % of predicted normal (PN) and post-bronchodilator FEV1 \u2265 80 % PN\n6. Patients treated with low stable dose of ICS or leukotriene antagonists in addition to short acting inhaled bronchodilator(s) should have pre-bronchodilator FEV1 \u226580 % PN\n7. Patients should have reversible airway obstruction\n8. To be randomized patients must have used Bricanyl Turbuhaler as needed on at least 3 separate days during the last week of the run in period\n\nExclusion Criteria:\n\n1. Patient has a history of life-threatening asthma including intubation and intensive care unit admission\n2. Patient has had an asthma worsening requiring change in treatment other than short acting inhaled bronchodilator(s) within 30 days prior to Visit 1 and from Visit 1 until randomization\n3. Patient has required treatment with oral, rectal or parenteral GCS within 30 days and/or depot parenteral GCS within 12 weeks prior to Visit 1\n4. Current or previous smoker with a smoking history of \u2265 10 pack years\n5. Pregnancy, breast-feeding or planned pregnancy during the study", "healthyVolunteers": false, "sex": "ALL", "minimumAge": "12 Years", "maximumAge": "130 Years", "stdAges": ["CHILD", "ADULT", "OLDER_ADULT"]}, "contactsLocationsModule": {"overallOfficials": [{"name": "Carin Jorup, MD", "affiliation": "AstraZeneca Research & Development", "role": "STUDY_DIRECTOR"}], "locations": [{"facility": "Research Site", "city": "Sydney", "zip": "2010", "country": "Australia", "geoPoint": {"lat": -33.86785, "lon": 151.20732}}, {"facility": "Research Site", "city": "Botucatu", "zip": "18618-970", "country": "Brazil", "geoPoint": {"lat": -22.88583, "lon": -48.445}}, {"facility": "Research Site", "city": "Florianopolis", "zip": "88040-970", "country": "Brazil", "geoPoint": {"lat": -27.59667, "lon": -48.54917}}, {"facility": "Research Site", "city": "Goiania", "zip": "74110 030", "country": "Brazil", "geoPoint": {"lat": -16.67861, "lon": -49.25389}}, {"facility": "Research Site", "city": "Porto Alegre", "zip": "9002-060", "country": "Brazil", "geoPoint": {"lat": -30.03306, "lon": -51.23}}, {"facility": "Research Site", "city": "Porto Alegre", "zip": "90020-060", "country": "Brazil", "geoPoint": {"lat": -30.03306, "lon": -51.23}}, {"facility": "Research Site", "city": "Porto Alegre", "zip": "90110-270", "country": "Brazil", "geoPoint": {"lat": -30.03306, "lon": -51.23}}, {"facility": "Research Site", "city": "Porto Alegre", "zip": "90610-000", "country": "Brazil", "geoPoint": {"lat": -30.03306, "lon": -51.23}}, {"facility": "Research Site", "city": "Porto Alegre", "zip": "91350-200", "country": "Brazil", "geoPoint": {"lat": -30.03306, "lon": -51.23}}, {"facility": "Research Site", "city": "Salvador", "zip": "41940-455", "country": "Brazil", "geoPoint": {"lat": -12.97111, "lon": -38.51083}}, {"facility": "Research Site", "city": "Santo Andre", "zip": "09080-110", "country": "Brazil", "geoPoint": {"lat": -23.66389, "lon": -46.53833}}, {"facility": "Research Site", "city": "Sao Paulo", "zip": "04020-060", "country": "Brazil", "geoPoint": {"lat": -23.5475, "lon": -46.63611}}, {"facility": "Research Site", "city": "Sao Paulo", "zip": "04101-000", "country": "Brazil", "geoPoint": {"lat": -23.5475, "lon": -46.63611}}, {"facility": "Research Site", "city": "Sao Paulo", "zip": "04266-010", "country": "Brazil", "geoPoint": {"lat": -23.5475, "lon": -46.63611}}, {"facility": "Research Site", "city": "Sorocaba", "zip": "18040-425", "country": "Brazil", "geoPoint": {"lat": -23.50167, "lon": -47.45806}}, {"facility": "Research Site", "city": "S\u00e3o Paulo", "zip": "02189-000", "country": "Brazil", "geoPoint": {"lat": -23.5475, "lon": -46.63611}}, {"facility": "Research Site", "city": "S\u00e3o Paulo", "zip": "05403-900", "country": "Brazil", "geoPoint": {"lat": -23.5475, "lon": -46.63611}}, {"facility": "Research Site", "city": "Blagoevgrad", "zip": "2700", "country": "Bulgaria", "geoPoint": {"lat": 42.01667, "lon": 23.1}}, {"facility": "Research Site", "city": "Pernik", "zip": "2300", "country": "Bulgaria", "geoPoint": {"lat": 42.6, "lon": 23.03333}}, {"facility": "Research Site", "city": "Petrich", "zip": "2850", "country": "Bulgaria", "geoPoint": {"lat": 41.39847, "lon": 23.20705}}, {"facility": "Research Site", "city": "Pleven", "zip": "5800", "country": "Bulgaria", "geoPoint": {"lat": 43.41667, "lon": 24.61667}}, {"facility": "Research Site", "city": "Razlog", "zip": "2760", "country": "Bulgaria", "geoPoint": {"lat": 41.8863, "lon": 23.46714}}, {"facility": "Research Site", "city": "Sliven", "zip": "8800", "country": "Bulgaria", "geoPoint": {"lat": 42.68583, "lon": 26.32917}}, {"facility": "Research Site", "city": "Smolyan", "zip": "4700", "country": "Bulgaria", "geoPoint": {"lat": 41.58528, "lon": 24.69194}}, {"facility": "Research Site", "city": "Sofia", "zip": "1404", "country": "Bulgaria", "geoPoint": {"lat": 42.69751, "lon": 23.32415}}, {"facility": "Research Site", "city": "Sofia", "zip": "1407", "country": "Bulgaria", "geoPoint": {"lat": 42.69751, "lon": 23.32415}}, {"facility": "Research Site", "city": "Sofia", "zip": "1408", "country": "Bulgaria", "geoPoint": {"lat": 42.69751, "lon": 23.32415}}, {"facility": "Research Site", "city": "Sofia", "zip": "1431", "country": "Bulgaria", "geoPoint": {"lat": 42.69751, "lon": 23.32415}}, {"facility": "Research Site", "city": "Sofia", "zip": "1612", "country": "Bulgaria", "geoPoint": {"lat": 42.69751, "lon": 23.32415}}, {"facility": "Research Site", "city": "Sofia", "zip": "1618", "country": "Bulgaria", "geoPoint": {"lat": 42.69751, "lon": 23.32415}}, {"facility": "Research Site", "city": "Sofia", "country": "Bulgaria", "geoPoint": {"lat": 42.69751, "lon": 23.32415}}, {"facility": "Research Site", "city": "Stara Zagora", "zip": "6000", "country": "Bulgaria", "geoPoint": {"lat": 42.43278, "lon": 25.64194}}, {"facility": "Research Site", "city": "Varna", "zip": "9000", "country": "Bulgaria", "geoPoint": {"lat": 43.21667, "lon": 27.91667}}, {"facility": "Research Site", "city": "Veliko Tarnovo", "zip": "5000", "country": "Bulgaria", "geoPoint": {"lat": 43.08124, "lon": 25.62904}}, {"facility": "Research Site", "city": "Vidin", "zip": "3700", "country": "Bulgaria", "geoPoint": {"lat": 43.99, "lon": 22.8725}}, {"facility": "Research Site", "city": "Yambol", "zip": "8600", "country": "Bulgaria", "geoPoint": {"lat": 42.48333, "lon": 26.5}}, {"facility": "Research Site", "city": "Curico", "zip": "3341643", "country": "Chile", "geoPoint": {"lat": -34.98279, "lon": -71.23943}}, {"facility": "Research Site", "city": "Quillota", "zip": "2260000", "country": "Chile", "geoPoint": {"lat": -32.88341, "lon": -71.24882}}, {"facility": "Research Site", "city": "Santiago", "zip": "404366", "country": "Chile", "geoPoint": {"lat": -33.45694, "lon": -70.64827}}, {"facility": "Research Site", "city": "Santiago", "zip": "8207257", "country": "Chile", "geoPoint": {"lat": -33.45694, "lon": -70.64827}}, {"facility": "Research Site", "city": "Santiago", "zip": "8320000", "country": "Chile", "geoPoint": {"lat": -33.45694, "lon": -70.64827}}, {"facility": "Research Site", "city": "Talca", "zip": "3465584", "country": "Chile", "geoPoint": {"lat": -35.4264, "lon": -71.65542}}, {"facility": "Research Site", "city": "Vi\u00f1a del Mar", "zip": "2520000", "country": "Chile", "geoPoint": {"lat": -33.02457, "lon": -71.55183}}, {"facility": "Research Site", "city": "Barranquilla", "zip": "80001", "country": "Colombia", "geoPoint": {"lat": 10.96854, "lon": -74.78132}}, {"facility": "Research Site", "city": "Bogota", "zip": "111511", "country": "Colombia", "geoPoint": {"lat": 4.60971, "lon": -74.08175}}, {"facility": "Research Site", "city": "Bogot\u00e1", "zip": "110221", "country": "Colombia", "geoPoint": {"lat": 4.60971, "lon": -74.08175}}, {"facility": "Research Site", "city": "Bogot\u00e1", "zip": "111211", "country": "Colombia", "geoPoint": {"lat": 4.60971, "lon": -74.08175}}, {"facility": "Research Site", "city": "Medellin", "zip": "5001000", "country": "Colombia", "geoPoint": {"lat": 6.25184, "lon": -75.56359}}, {"facility": "Research Site", "city": "Ceska Lipa", "zip": "470 01", "country": "Czechia", "geoPoint": {"lat": 50.68551, "lon": 14.53764}}, {"facility": "Research Site", "city": "Kladno", "zip": "272 00", "country": "Czechia", "geoPoint": {"lat": 50.14734, "lon": 14.10285}}, {"facility": "Research Site", "city": "Kralupy nad Vltavou", "zip": "278 01", "country": "Czechia", "geoPoint": {"lat": 50.24107, "lon": 14.31149}}, {"facility": "Research Site", "city": "Kutna Hora", "zip": "284 01", "country": "Czechia", "geoPoint": {"lat": 49.94839, "lon": 15.26816}}, {"facility": "Research Site", "city": "Liberec 1", "zip": "460 01", "country": "Czechia", "geoPoint": {"lat": 50.76711, "lon": 15.05619}}, {"facility": "Research Site", "city": "Neratovice", "zip": "277 01", "country": "Czechia", "geoPoint": {"lat": 50.25926, "lon": 14.51759}}, {"facility": "Research Site", "city": "Ostrava", "zip": "709 00", "country": "Czechia", "geoPoint": {"lat": 49.83465, "lon": 18.28204}}, {"facility": "Research Site", "city": "Ostrava", "zip": "728 80", "country": "Czechia", "geoPoint": {"lat": 49.83465, "lon": 18.28204}}, {"facility": "Research Site", "city": "Pardubice", "zip": "532 03", "country": "Czechia", "geoPoint": {"lat": 50.04075, "lon": 15.77659}}, {"facility": "Research Site", "city": "Plzen", "zip": "301 00", "country": "Czechia", "geoPoint": {"lat": 49.74747, "lon": 13.37759}}, {"facility": "Research Site", "city": "Plzen", "zip": "304 60", "country": "Czechia", "geoPoint": {"lat": 49.74747, "lon": 13.37759}}, {"facility": "Research Site", "city": "Praha 4", "zip": "142 00", "country": "Czechia", "geoPoint": {"lat": 50.08804, "lon": 14.42076}}, {"facility": "Research Site", "city": "Praha 5", "zip": "150 00", "country": "Czechia", "geoPoint": {"lat": 50.08804, "lon": 14.42076}}, {"facility": "Research Site", "city": "Praha", "zip": "169 00", "country": "Czechia", "geoPoint": {"lat": 50.08804, "lon": 14.42076}}, {"facility": "Research Site", "city": "Rokycany", "zip": "337 22", "country": "Czechia", "geoPoint": {"lat": 49.7427, "lon": 13.59459}}, {"facility": "Research Site", "city": "Rudna U Prahy", "zip": "252 19", "country": "Czechia"}, {"facility": "Research Site", "city": "Tabor", "zip": "390 01", "country": "Czechia", "geoPoint": {"lat": 49.41441, "lon": 14.6578}}, {"facility": "Research Site", "city": "Teplice", "zip": "415 01", "country": "Czechia", "geoPoint": {"lat": 50.6404, "lon": 13.82451}}, {"facility": "Research Site", "city": "Zatec", "zip": "43801", "country": "Czechia", "geoPoint": {"lat": 50.32717, "lon": 13.54577}}, {"facility": "Research Site", "city": "Brii-sous-forges", "zip": "91640", "country": "France"}, {"facility": "Research Site", "city": "Colmar", "zip": "68000", "country": "France", "geoPoint": {"lat": 48.08333, "lon": 7.36667}}, {"facility": "Research Site", "city": "Joue-les-Tours", "zip": "37300", "country": "France", "geoPoint": {"lat": 47.35223, "lon": 0.66905}}, {"facility": "Research Site", "city": "Nantes Cedex 2", "zip": "44277", "country": "France", "geoPoint": {"lat": 47.21725, "lon": -1.55336}}, {"facility": "Research Site", "city": "Nimes", "zip": "30000", "country": "France", "geoPoint": {"lat": 43.83333, "lon": 4.35}}, {"facility": "Research Site", "city": "Reze", "zip": "44400", "country": "France", "geoPoint": {"lat": 47.18144, "lon": -1.54965}}, {"facility": "Research Site", "city": "Bad Lippspringe", "zip": "33175", "country": "Germany", "geoPoint": {"lat": 51.78333, "lon": 8.81683}}, {"facility": "Research Site", "city": "Berlin", "zip": "10119", "country": "Germany", "geoPoint": {"lat": 52.52437, "lon": 13.41053}}, {"facility": "Research Site", "city": "Berlin", "zip": "10367", "country": "Germany", "geoPoint": {"lat": 52.52437, "lon": 13.41053}}, {"facility": "Research Site", "city": "Berlin", "zip": "10629", "country": "Germany", "geoPoint": {"lat": 52.52437, "lon": 13.41053}}, {"facility": "Research Site", "city": "Berlin", "zip": "10787", "country": "Germany", "geoPoint": {"lat": 52.52437, "lon": 13.41053}}, {"facility": "Research Site", "city": "Berlin", "zip": "13507", "country": "Germany", "geoPoint": {"lat": 52.52437, "lon": 13.41053}}, {"facility": "Research Site", "city": "Cottbus", "zip": "03050", "country": "Germany", "geoPoint": {"lat": 51.75769, "lon": 14.32888}}, {"facility": "Research Site", "city": "Frankfurt/Main", "zip": "60389", "country": "Germany", "geoPoint": {"lat": 50.11552, "lon": 8.68417}}, {"facility": "Research Site", "city": "Geesthacht", "zip": "21502", "country": "Germany", "geoPoint": {"lat": 53.43575, "lon": 10.3779}}, {"facility": "Research Site", "city": "Gro\u00dfhansdorf", "zip": "22927", "country": "Germany", "geoPoint": {"lat": 53.66667, "lon": 10.28333}}, {"facility": "Research Site", "city": "Hamburg", "zip": "20354", "country": "Germany", "geoPoint": {"lat": 53.57532, "lon": 10.01534}}, {"facility": "Research Site", "city": "Hannover", "zip": "D-30173", "country": "Germany", "geoPoint": {"lat": 52.37052, "lon": 9.73322}}, {"facility": "Research Site", "city": "Leipzig", "zip": "04103", "country": "Germany", "geoPoint": {"lat": 51.33962, "lon": 12.37129}}, {"facility": "Research Site", "city": "Leipzig", "zip": "04207", "country": "Germany", "geoPoint": {"lat": 51.33962, "lon": 12.37129}}, {"facility": "Research Site", "city": "Leipzig", "zip": "04357", "country": "Germany", "geoPoint": {"lat": 51.33962, "lon": 12.37129}}, {"facility": "Research Site", "city": "L\u00fcbeck", "zip": "23552", "country": "Germany", "geoPoint": {"lat": 53.86893, "lon": 10.68729}}, {"facility": "Research Site", "city": "Neu-Isenburg", "zip": "63263", "country": "Germany", "geoPoint": {"lat": 50.04832, "lon": 8.69406}}, {"facility": "Research Site", "city": "Oldenburg", "zip": "23758", "country": "Germany", "geoPoint": {"lat": 53.14118, "lon": 8.21467}}, {"facility": "Research Site", "city": "Reinfeld", "zip": "23858", "country": "Germany", "geoPoint": {"lat": 53.83184, "lon": 10.49126}}, {"facility": "Research Site", "city": "R\u00fcdersdorf", "zip": "15562", "country": "Germany", "geoPoint": {"lat": 51.1, "lon": 11.45}}, {"facility": "Research Site", "city": "Schleswig", "zip": "24837", "country": "Germany", "geoPoint": {"lat": 54.52156, "lon": 9.5586}}, {"facility": "Research Site", "city": "Warendorf", "zip": "48231", "country": "Germany", "geoPoint": {"lat": 51.95109, "lon": 7.98756}}, {"facility": "Research Site", "city": "Asz\u00f3d", "zip": "2170", "country": "Hungary", "geoPoint": {"lat": 47.65174, "lon": 19.4785}}, {"facility": "Research Site", "city": "Balassagyarmat", "zip": "2660", "country": "Hungary", "geoPoint": {"lat": 48.07296, "lon": 19.29614}}, {"facility": "Research Site", "city": "Beretty\u00f3\u00fajfalu", "zip": "4100", "country": "Hungary", "geoPoint": {"lat": 47.21667, "lon": 21.55}}, {"facility": "Research Site", "city": "Budapest", "zip": "1036", "country": "Hungary", "geoPoint": {"lat": 47.49801, "lon": 19.03991}}, {"facility": "Research Site", "city": "Budapest", "zip": "1135", "country": "Hungary", "geoPoint": {"lat": 47.49801, "lon": 19.03991}}, {"facility": "Research Site", "city": "Budapest", "zip": "1145", "country": "Hungary", "geoPoint": {"lat": 47.49801, "lon": 19.03991}}, {"facility": "Research Site", "city": "Budapest", "zip": "1191", "country": "Hungary", "geoPoint": {"lat": 47.49801, "lon": 19.03991}}, {"facility": "Research Site", "city": "Cegl\u00e9d", "zip": "2700", "country": "Hungary", "geoPoint": {"lat": 47.17266, "lon": 19.79952}}, {"facility": "Research Site", "city": "Gyula", "zip": "5700", "country": "Hungary", "geoPoint": {"lat": 46.65, "lon": 21.28333}}, {"facility": "Research Site", "city": "Gyula", "zip": "5703", "country": "Hungary", "geoPoint": {"lat": 46.65, "lon": 21.28333}}, {"facility": "Research Site", "city": "G\u00f6d\u00f6ll\u0151", "zip": "2100", "country": "Hungary", "geoPoint": {"lat": 47.59657, "lon": 19.35515}}, {"facility": "Research Site", "city": "Hajd\u00fan\u00e1n\u00e1s", "zip": "4080", "country": "Hungary", "geoPoint": {"lat": 47.85, "lon": 21.43333}}, {"facility": "Research Site", "city": "L\u00e9tav\u00e9rtes", "zip": "4281", "country": "Hungary", "geoPoint": {"lat": 47.38333, "lon": 21.9}}, {"facility": "Research Site", "city": "Mak\u00f3", "zip": "6900", "country": "Hungary", "geoPoint": {"lat": 46.21667, "lon": 20.48333}}, {"facility": "Research Site", "city": "Miskolc", "zip": "3529", "country": "Hungary", "geoPoint": {"lat": 48.1, "lon": 20.78333}}, {"facility": "Research Site", "city": "M\u00f3rahalom", "zip": "6782", "country": "Hungary", "geoPoint": {"lat": 46.21806, "lon": 19.8851}}, {"facility": "Research Site", "city": "P\u00e9cs", "zip": "7635", "country": "Hungary", "geoPoint": {"lat": 46.08333, "lon": 18.23333}}, {"facility": "Research Site", "city": "Si\u00f3fok", "zip": "8600", "country": "Hungary", "geoPoint": {"lat": 46.90413, "lon": 18.058}}, {"facility": "Research Site", "city": "Szeged", "zip": "H-6722", "country": "Hungary", "geoPoint": {"lat": 46.253, "lon": 20.14824}}, {"facility": "Research Site", "city": "Szombathely", "zip": "9700", "country": "Hungary", "geoPoint": {"lat": 47.23088, "lon": 16.62155}}, {"facility": "Research Site", "city": "V\u00e1s\u00e1rosnam\u00e9ny", "zip": "4800", "country": "Hungary", "geoPoint": {"lat": 48.12542, "lon": 22.31325}}, {"facility": "Research Site", "city": "\u00c9rd", "zip": "2030", "country": "Hungary", "geoPoint": {"lat": 47.39489, "lon": 18.91361}}, {"facility": "Research Site", "city": "Busan", "zip": "49201", "country": "Korea, Republic of", "geoPoint": {"lat": 35.10278, "lon": 129.04028}}, {"facility": "Research Site", "city": "Cheongju-si", "zip": "28644", "country": "Korea, Republic of", "geoPoint": {"lat": 36.63722, "lon": 127.48972}}, {"facility": "Research Site", "city": "Daegu", "zip": "42415", "country": "Korea, Republic of", "geoPoint": {"lat": 35.87028, "lon": 128.59111}}, {"facility": "Research Site", "city": "Incheon", "zip": "405-760", "country": "Korea, Republic of", "geoPoint": {"lat": 37.45646, "lon": 126.70515}}, {"facility": "Research Site", "city": "Seongnam-si", "zip": "13620", "country": "Korea, Republic of", "geoPoint": {"lat": 37.43861, "lon": 127.13778}}, {"facility": "Research Site", "city": "Seoul", "zip": "03080", "country": "Korea, Republic of", "geoPoint": {"lat": 37.566, "lon": 126.9784}}, {"facility": "Research Site", "city": "Seoul", "zip": "03312", "country": "Korea, Republic of", "geoPoint": {"lat": 37.566, "lon": 126.9784}}, {"facility": "Research Site", "city": "Seoul", "zip": "04401", "country": "Korea, Republic of", "geoPoint": {"lat": 37.566, "lon": 126.9784}}, {"facility": "Research Site", "city": "Seoul", "zip": "05030", "country": "Korea, Republic of", "geoPoint": {"lat": 37.566, "lon": 126.9784}}, {"facility": "Research Site", "city": "Seoul", "zip": "05505", "country": "Korea, Republic of", "geoPoint": {"lat": 37.566, "lon": 126.9784}}, {"facility": "Research Site", "city": "Seoul", "zip": "06591", "country": "Korea, Republic of", "geoPoint": {"lat": 37.566, "lon": 126.9784}}, {"facility": "Research Site", "city": "Seoul", "zip": "135-710", "country": "Korea, Republic of", "geoPoint": {"lat": 37.566, "lon": 126.9784}}, {"facility": "Research Site", "city": "Suwon-si", "zip": "16247", "country": "Korea, Republic of", "geoPoint": {"lat": 37.29111, "lon": 127.00889}}, {"facility": "Research Site", "city": "Uijeongbu-si", "zip": "11765", "country": "Korea, Republic of", "geoPoint": {"lat": 37.7415, "lon": 127.0474}}, {"facility": "Research Site", "city": "Wonju-si", "zip": "26426", "country": "Korea, Republic of"}, {"facility": "Research Site", "city": "Chihuahua", "zip": "31203", "country": "Mexico", "geoPoint": {"lat": 28.63528, "lon": -106.08889}}, {"facility": "Research Site", "city": "Guadalajara", "zip": "44100", "country": "Mexico", "geoPoint": {"lat": 20.66682, "lon": -103.39182}}, {"facility": "Research Site", "city": "Guadalajara", "zip": "44670", "country": "Mexico", "geoPoint": {"lat": 20.66682, "lon": -103.39182}}, {"facility": "Research Site", "city": "Mexico City", "zip": "6726", "country": "Mexico", "geoPoint": {"lat": 19.42847, "lon": -99.12766}}, {"facility": "Research Site", "city": "M\u00e9rida", "zip": "97070", "country": "Mexico", "geoPoint": {"lat": 20.97537, "lon": -89.61696}}, {"facility": "Research Site", "city": "M\u00e9xico", "zip": "06720", "country": "Mexico", "geoPoint": {"lat": 19.42847, "lon": -99.12766}}, {"facility": "Research Site", "city": "San Juan del Rio", "zip": "76800", "country": "Mexico", "geoPoint": {"lat": 20.38886, "lon": -99.99577}}, {"facility": "Research Site", "city": "Tlanepantla", "zip": "54055", "country": "Mexico", "geoPoint": {"lat": 18.8631, "lon": -97.88701}}, {"facility": "Research Site", "city": "Villahermosa", "zip": "86035", "country": "Mexico", "geoPoint": {"lat": 17.98689, "lon": -92.93028}}, {"facility": "Research Site", "city": "Zapopan", "zip": "45200", "country": "Mexico", "geoPoint": {"lat": 20.72356, "lon": -103.38479}}, {"facility": "Research Site", "city": "Auckland", "zip": "0626", "country": "New Zealand", "geoPoint": {"lat": -36.84853, "lon": 174.76349}}, {"facility": "Research Site", "city": "Christchurch Central", "zip": "8011", "country": "New Zealand"}, {"facility": "Research Site", "city": "Christchurch", "zip": "8024", "country": "New Zealand", "geoPoint": {"lat": -43.53333, "lon": 172.63333}}, {"facility": "Research Site", "city": "Christchurch", "zip": "8041", "country": "New Zealand", "geoPoint": {"lat": -43.53333, "lon": 172.63333}}, {"facility": "Research Site", "city": "Grafton", "zip": "1010", "country": "New Zealand", "geoPoint": {"lat": -36.86029, "lon": 174.76566}}, {"facility": "Research Site", "city": "Hamilton West", "zip": "3204", "country": "New Zealand", "geoPoint": {"lat": -37.78821, "lon": 175.2702}}, {"facility": "Research Site", "city": "Maroubra", "zip": "2035", "country": "New Zealand"}, {"facility": "Research Site", "city": "New Lambton", "zip": "2310", "country": "New Zealand"}, {"facility": "Research Site", "city": "Newtown", "zip": "6242", "country": "New Zealand", "geoPoint": {"lat": -41.31115, "lon": 174.77935}}, {"facility": "Research Site", "city": "Rotorua", "zip": "3010", "country": "New Zealand", "geoPoint": {"lat": -38.13874, "lon": 176.24516}}, {"facility": "Research Site", "city": "South Brisbane", "zip": "4101", "country": "New Zealand"}, {"facility": "Research Site", "city": "Tauranga", "zip": "3143", "country": "New Zealand", "geoPoint": {"lat": -37.68611, "lon": 176.16667}}, {"facility": "Research Site", "city": "Wellington", "zip": "6021", "country": "New Zealand", "geoPoint": {"lat": -41.28664, "lon": 174.77557}}, {"facility": "Research Site", "city": "Cercado De Lima", "zip": "LIMA 1", "country": "Peru"}, {"facility": "Research Site", "city": "Chancay", "zip": "15131", "country": "Peru", "geoPoint": {"lat": -11.57139, "lon": -77.26722}}, {"facility": "Research Site", "city": "Lima", "zip": "15033", "country": "Peru", "geoPoint": {"lat": -12.04318, "lon": -77.02824}}, {"facility": "Research Site", "city": "Lima", "zip": "LIMA 01", "country": "Peru", "geoPoint": {"lat": -12.04318, "lon": -77.02824}}, {"facility": "Research Site", "city": "Lima", "zip": "LIMA 21", "country": "Peru", "geoPoint": {"lat": -12.04318, "lon": -77.02824}}, {"facility": "Research Site", "city": "Lima", "zip": "LIMA 27", "country": "Peru", "geoPoint": {"lat": -12.04318, "lon": -77.02824}}, {"facility": "Research Site", "city": "Lima", "zip": "LIMA 32", "country": "Peru", "geoPoint": {"lat": -12.04318, "lon": -77.02824}}, {"facility": "Research Site", "city": "Miraflores", "zip": "15046", "country": "Peru"}, {"facility": "Research Site", "city": "Santa Beatriz", "zip": "LIMA 14", "country": "Peru"}, {"facility": "Research Site", "city": "Lipa City", "zip": "4217", "country": "Philippines", "geoPoint": {"lat": 13.9411, "lon": 121.1631}}, {"facility": "Research Site", "city": "Manila", "country": "Philippines", "geoPoint": {"lat": 14.6042, "lon": 120.9822}}, {"facility": "Research Site", "city": "Pasig City", "zip": "1600", "country": "Philippines", "geoPoint": {"lat": 14.58691, "lon": 121.0614}}, {"facility": "Research Site", "city": "Quezon City", "zip": "1109", "country": "Philippines", "geoPoint": {"lat": 14.6488, "lon": 121.0509}}, {"facility": "Research Site", "city": "Quezon City", "country": "Philippines", "geoPoint": {"lat": 14.6488, "lon": 121.0509}}, {"facility": "Research Site", "city": "Bia\u0142ystok", "zip": "15-044", "country": "Poland", "geoPoint": {"lat": 53.13333, "lon": 23.16433}}, {"facility": "Research Site", "city": "Bia\u0142ystok", "zip": "15-430", "country": "Poland", "geoPoint": {"lat": 53.13333, "lon": 23.16433}}, {"facility": "Research Site", "city": "Gi\u017cycko", "zip": "11-500", "country": "Poland", "geoPoint": {"lat": 54.03811, "lon": 21.76441}}, {"facility": "Research Site", "city": "Ko\u015bcian", "zip": "64-000", "country": "Poland", "geoPoint": {"lat": 52.08829, "lon": 16.64866}}, {"facility": "Research Site", "city": "Krak\u00f3w", "zip": "31-559", "country": "Poland", "geoPoint": {"lat": 50.06143, "lon": 19.93658}}, {"facility": "Research Site", "city": "Lublin", "zip": "20-709", "country": "Poland", "geoPoint": {"lat": 51.25, "lon": 22.56667}}, {"facility": "Research Site", "city": "Mr\u0105gowo", "zip": "11-700", "country": "Poland", "geoPoint": {"lat": 53.86437, "lon": 21.30507}}, {"facility": "Research Site", "city": "Ostrowiec \u015awi\u0119tokrzyski", "zip": "27-400", "country": "Poland", "geoPoint": {"lat": 50.92936, "lon": 21.38525}}, {"facility": "Research Site", "city": "Ostr\u00f3w Wielkopolski", "zip": "63-400", "country": "Poland", "geoPoint": {"lat": 51.65501, "lon": 17.80686}}, {"facility": "Research Site", "city": "Pabianice", "zip": "95-200", "country": "Poland", "geoPoint": {"lat": 51.66446, "lon": 19.35473}}, {"facility": "Research Site", "city": "Pila", "zip": "64-920", "country": "Poland", "geoPoint": {"lat": 53.15145, "lon": 16.73782}}, {"facility": "Research Site", "city": "Pozna\u0144", "zip": "60-685", "country": "Poland", "geoPoint": {"lat": 52.40692, "lon": 16.92993}}, {"facility": "Research Site", "city": "Pozna\u0144", "zip": "60-693", "country": "Poland", "geoPoint": {"lat": 52.40692, "lon": 16.92993}}, {"facility": "Research Site", "city": "Proszowice", "zip": "32-100", "country": "Poland", "geoPoint": {"lat": 50.19275, "lon": 20.28909}}, {"facility": "Research Site", "city": "Rzesz\u00f3w", "zip": "35-205", "country": "Poland", "geoPoint": {"lat": 50.04132, "lon": 21.99901}}, {"facility": "Research Site", "city": "Warszawa", "zip": "02-106", "country": "Poland", "geoPoint": {"lat": 52.22977, "lon": 21.01178}}, {"facility": "Research Site", "city": "Zabrze", "zip": "41-800", "country": "Poland", "geoPoint": {"lat": 50.32492, "lon": 18.78576}}, {"facility": "Research Site", "city": "Bragadiru", "zip": "077025", "country": "Romania", "geoPoint": {"lat": 44.37111, "lon": 25.9775}}, {"facility": "Research Site", "city": "Brasov", "zip": "500051", "country": "Romania", "geoPoint": {"lat": 45.64861, "lon": 25.60613}}, {"facility": "Research Site", "city": "Brasov", "zip": "500283", "country": "Romania", "geoPoint": {"lat": 45.64861, "lon": 25.60613}}, {"facility": "Research Site", "city": "Bucharest", "zip": "030303", "country": "Romania", "geoPoint": {"lat": 44.43225, "lon": 26.10626}}, {"facility": "Research Site", "city": "Constanta", "zip": "900002", "country": "Romania", "geoPoint": {"lat": 44.18073, "lon": 28.63432}}, {"facility": "Research Site", "city": "Constanta", "country": "Romania", "geoPoint": {"lat": 44.18073, "lon": 28.63432}}, {"facility": "Research Site", "city": "Deva", "zip": "330061", "country": "Romania", "geoPoint": {"lat": 45.88333, "lon": 22.9}}, {"facility": "Research Site", "city": "Iasi", "zip": "700115", "country": "Romania", "geoPoint": {"lat": 47.16667, "lon": 27.6}}, {"facility": "Research Site", "city": "Pitesti", "zip": "110084", "country": "Romania", "geoPoint": {"lat": 44.85, "lon": 24.86667}}, {"facility": "Research Site", "city": "Chelyabinsk", "zip": "454021", "country": "Russian Federation", "geoPoint": {"lat": 55.15402, "lon": 61.42915}}, {"facility": "Research Site", "city": "Ekaterinburg", "zip": "620137", "country": "Russian Federation", "geoPoint": {"lat": 56.8519, "lon": 60.6122}}, {"facility": "Research Site", "city": "Gatchina", "zip": "188300", "country": "Russian Federation", "geoPoint": {"lat": 59.57639, "lon": 30.12833}}, {"facility": "Research Site", "city": "Ivanovo", "zip": "153005", "country": "Russian Federation", "geoPoint": {"lat": 56.99719, "lon": 40.97139}}, {"facility": "Research Site", "city": "Izhevsk", "zip": "426035", "country": "Russian Federation", "geoPoint": {"lat": 56.84976, "lon": 53.20448}}, {"facility": "Research Site", "city": "Kazan", "zip": "420012", "country": "Russian Federation", "geoPoint": {"lat": 55.78874, "lon": 49.12214}}, {"facility": "Research Site", "city": "Kemerovo", "zip": "650000", "country": "Russian Federation", "geoPoint": {"lat": 55.33333, "lon": 86.08333}}, {"facility": "Research Site", "city": "Kemerovo", "zip": "650002", "country": "Russian Federation", "geoPoint": {"lat": 55.33333, "lon": 86.08333}}, {"facility": "Research Site", "city": "Kemerovo", "zip": "650066", "country": "Russian Federation", "geoPoint": {"lat": 55.33333, "lon": 86.08333}}, {"facility": "Research Site", "city": "Moscow", "zip": "109240", "country": "Russian Federation", "geoPoint": {"lat": 55.75222, "lon": 37.61556}}, {"facility": "Research Site", "city": "Moscow", "zip": "117630", "country": "Russian Federation", "geoPoint": {"lat": 55.75222, "lon": 37.61556}}, {"facility": "Research Site", "city": "Moscow", "zip": "121309", "country": "Russian Federation", "geoPoint": {"lat": 55.75222, "lon": 37.61556}}, {"facility": "Research Site", "city": "Moscow", "zip": "123182", "country": "Russian Federation", "geoPoint": {"lat": 55.75222, "lon": 37.61556}}, {"facility": "Research Site", "city": "Moscow", "zip": "142160", "country": "Russian Federation", "geoPoint": {"lat": 55.75222, "lon": 37.61556}}, {"facility": "Research Site", "city": "Novosibirsk", "zip": "630008", "country": "Russian Federation", "geoPoint": {"lat": 55.0415, "lon": 82.9346}}, {"facility": "Research Site", "city": "Novosibirsk", "zip": "630051", "country": "Russian Federation", "geoPoint": {"lat": 55.0415, "lon": 82.9346}}, {"facility": "Research Site", "city": "Omsk", "zip": "644043", "country": "Russian Federation", "geoPoint": {"lat": 54.99244, "lon": 73.36859}}, {"facility": "Research Site", "city": "Penza", "zip": "440067", "country": "Russian Federation", "geoPoint": {"lat": 53.20066, "lon": 45.00464}}, {"facility": "Research Site", "city": "Perm", "zip": "614000", "country": "Russian Federation", "geoPoint": {"lat": 58.01046, "lon": 56.25017}}, {"facility": "Research Site", "city": "Pskov", "zip": "180007", "country": "Russian Federation", "geoPoint": {"lat": 57.8136, "lon": 28.3496}}, {"facility": "Research Site", "city": "Saint - Petersburg", "zip": "196211", "country": "Russian Federation", "geoPoint": {"lat": 59.93863, "lon": 30.31413}}, {"facility": "Research Site", "city": "Saint - Petersburg", "zip": "196657", "country": "Russian Federation", "geoPoint": {"lat": 59.93863, "lon": 30.31413}}, {"facility": "Research Site", "city": "Saint Petersburg", "zip": "191144", "country": "Russian Federation", "geoPoint": {"lat": 59.93863, "lon": 30.31413}}, {"facility": "Research Site", "city": "Saint Petersburg", "zip": "194044", "country": "Russian Federation", "geoPoint": {"lat": 59.93863, "lon": 30.31413}}, {"facility": "Research Site", "city": "Saint Petersburg", "zip": "194100", "country": "Russian Federation", "geoPoint": {"lat": 59.93863, "lon": 30.31413}}, {"facility": "Research Site", "city": "Saint Petersburg", "zip": "196240", "country": "Russian Federation", "geoPoint": {"lat": 59.93863, "lon": 30.31413}}, {"facility": "Research Site", "city": "Saint Petersburg", "zip": "197342", "country": "Russian Federation", "geoPoint": {"lat": 59.93863, "lon": 30.31413}}, {"facility": "Research Site", "city": "Saint Petersburg", "zip": "198260", "country": "Russian Federation", "geoPoint": {"lat": 59.93863, "lon": 30.31413}}, {"facility": "Research Site", "city": "Saint-Petersburg", "zip": "194291", "country": "Russian Federation", "geoPoint": {"lat": 59.93863, "lon": 30.31413}}, {"facility": "Research Site", "city": "Saint-Petersburg", "zip": "194354", "country": "Russian Federation", "geoPoint": {"lat": 59.93863, "lon": 30.31413}}, {"facility": "Research Site", "city": "Saint-Petersburg", "zip": "198205", "country": "Russian Federation", "geoPoint": {"lat": 59.93863, "lon": 30.31413}}, {"facility": "Research Site", "city": "Saratov", "zip": "410012", "country": "Russian Federation", "geoPoint": {"lat": 51.54056, "lon": 46.00861}}, {"facility": "Research Site", "city": "Saratov", "zip": "410053", "country": "Russian Federation", "geoPoint": {"lat": 51.54056, "lon": 46.00861}}, {"facility": "Research Site", "city": "St. Petersburg", "zip": "193231", "country": "Russian Federation", "geoPoint": {"lat": 59.93863, "lon": 30.31413}}, {"facility": "Research Site", "city": "St. Petersburg", "zip": "196211", "country": "Russian Federation", "geoPoint": {"lat": 59.93863, "lon": 30.31413}}, {"facility": "Research Site", "city": "St. Petersburg", "zip": "196247", "country": "Russian Federation", "geoPoint": {"lat": 59.93863, "lon": 30.31413}}, {"facility": "Research Site", "city": "St. Petersburg", "zip": "197022", "country": "Russian Federation", "geoPoint": {"lat": 59.93863, "lon": 30.31413}}, {"facility": "Research Site", "city": "St.Petersburg", "zip": "194354", "country": "Russian Federation", "geoPoint": {"lat": 59.93863, "lon": 30.31413}}, {"facility": "Research Site", "city": "Tomsk", "zip": "634050", "country": "Russian Federation", "geoPoint": {"lat": 56.49771, "lon": 84.97437}}, {"facility": "Research Site", "city": "Tver", "zip": "170642", "country": "Russian Federation", "geoPoint": {"lat": 56.85836, "lon": 35.90057}}, {"facility": "Research Site", "city": "Ufa", "zip": "450000", "country": "Russian Federation", "geoPoint": {"lat": 54.74306, "lon": 55.96779}}, {"facility": "Research Site", "city": "Ulyanovsk", "zip": "432009", "country": "Russian Federation", "geoPoint": {"lat": 54.32824, "lon": 48.38657}}, {"facility": "Research Site", "city": "Vladikavkaz", "zip": "362007", "country": "Russian Federation", "geoPoint": {"lat": 43.03667, "lon": 44.66778}}, {"facility": "Research Site", "city": "Volgograd", "zip": "400131", "country": "Russian Federation", "geoPoint": {"lat": 48.71939, "lon": 44.50183}}, {"facility": "Research Site", "city": "Vsevolozhsk", "zip": "188640", "country": "Russian Federation", "geoPoint": {"lat": 60.01512, "lon": 30.67314}}, {"facility": "Research Site", "city": "Yaroslavl", "zip": "150003", "country": "Russian Federation", "geoPoint": {"lat": 57.62987, "lon": 39.87368}}, {"facility": "Research Site", "city": "Dhahran", "zip": "131932", "country": "Saudi Arabia", "geoPoint": {"lat": 26.28864, "lon": 50.11396}}, {"facility": "Research Site", "city": "Jeddah", "zip": "21499", "country": "Saudi Arabia", "geoPoint": {"lat": 21.54238, "lon": 39.19797}}, {"facility": "Research Site", "city": "Jeddah", "zip": "22252", "country": "Saudi Arabia", "geoPoint": {"lat": 21.54238, "lon": 39.19797}}, {"facility": "Research Site", "city": "Riyadh", "zip": "12371", "country": "Saudi Arabia", "geoPoint": {"lat": 24.68773, "lon": 46.72185}}, {"facility": "Research Site", "city": "Riyadh", "zip": "12713", "country": "Saudi Arabia", "geoPoint": {"lat": 24.68773, "lon": 46.72185}}, {"facility": "Research Site", "city": "Kezmarok", "zip": "060 01", "country": "Slovakia", "geoPoint": {"lat": 49.13571, "lon": 20.43352}}, {"facility": "Research Site", "city": "Komarno", "zip": "945 01", "country": "Slovakia", "geoPoint": {"lat": 47.76356, "lon": 18.12263}}, {"facility": "Research Site", "city": "Kosice", "zip": "040 22", "country": "Slovakia", "geoPoint": {"lat": 48.71395, "lon": 21.25808}}, {"facility": "Research Site", "city": "Kosice", "zip": "04022", "country": "Slovakia", "geoPoint": {"lat": 48.71395, "lon": 21.25808}}, {"facility": "Research Site", "city": "Levice", "zip": "934 01", "country": "Slovakia", "geoPoint": {"lat": 48.21563, "lon": 18.60705}}, {"facility": "Research Site", "city": "Liptovsky Mikulas", "zip": "031 01", "country": "Slovakia", "geoPoint": {"lat": 49.08061, "lon": 19.62218}}, {"facility": "Research Site", "city": "Lucenec", "zip": "984 01", "country": "Slovakia", "geoPoint": {"lat": 48.33249, "lon": 19.66708}}, {"facility": "Research Site", "city": "Nitra", "zip": "94901", "country": "Slovakia", "geoPoint": {"lat": 48.30763, "lon": 18.08453}}, {"facility": "Research Site", "city": "Nove Zamky", "zip": "94001", "country": "Slovakia", "geoPoint": {"lat": 47.98544, "lon": 18.16195}}, {"facility": "Research Site", "city": "Poprad", "zip": "058 01", "country": "Slovakia", "geoPoint": {"lat": 49.06144, "lon": 20.29798}}, {"facility": "Research Site", "city": "Poprad", "zip": "05801", "country": "Slovakia", "geoPoint": {"lat": 49.06144, "lon": 20.29798}}, {"facility": "Research Site", "city": "Rimavska Sobota", "zip": "979 01", "country": "Slovakia", "geoPoint": {"lat": 48.38284, "lon": 20.02239}}, {"facility": "Research Site", "city": "Ruzomberok", "zip": "034 26", "country": "Slovakia", "geoPoint": {"lat": 49.0748, "lon": 19.30751}}, {"facility": "Research Site", "city": "Skalica", "zip": "90901", "country": "Slovakia", "geoPoint": {"lat": 48.8449, "lon": 17.22635}}, {"facility": "Research Site", "city": "Surany", "zip": "94201", "country": "Slovakia", "geoPoint": {"lat": 48.08613, "lon": 18.18447}}, {"facility": "Research Site", "city": "Topolcany", "zip": "95501", "country": "Slovakia", "geoPoint": {"lat": 48.56361, "lon": 18.16712}}, {"facility": "Research Site", "city": "Trebisov", "zip": "07701", "country": "Slovakia", "geoPoint": {"lat": 48.62858, "lon": 21.71954}}, {"facility": "Research Site", "city": "Zilina", "zip": "01008", "country": "Slovakia", "geoPoint": {"lat": 49.22315, "lon": 18.73941}}, {"facility": "Research Site", "city": "Zvolen", "zip": "96001", "country": "Slovakia", "geoPoint": {"lat": 48.57442, "lon": 19.15324}}, {"facility": "Research Site", "city": "Bellville", "zip": "7530", "country": "South Africa", "geoPoint": {"lat": -33.90022, "lon": 18.62847}}, {"facility": "Research Site", "city": "Boksburg North", "zip": "1460", "country": "South Africa", "geoPoint": {"lat": -26.20535, "lon": 28.25392}}, {"facility": "Research Site", "city": "Cape Town", "zip": "7570", "country": "South Africa", "geoPoint": {"lat": -33.92584, "lon": 18.42322}}, {"facility": "Research Site", "city": "Cape Town", "zip": "7764", "country": "South Africa", "geoPoint": {"lat": -33.92584, "lon": 18.42322}}, {"facility": "Research Site", "city": "Durban", "zip": "4001", "country": "South Africa", "geoPoint": {"lat": -29.8579, "lon": 31.0292}}, {"facility": "Research Site", "city": "Durban", "zip": "4037", "country": "South Africa", "geoPoint": {"lat": -29.8579, "lon": 31.0292}}, {"facility": "Research Site", "city": "Durban", "zip": "4091", "country": "South Africa", "geoPoint": {"lat": -29.8579, "lon": 31.0292}}, {"facility": "Research Site", "city": "Durban", "zip": "4092", "country": "South Africa", "geoPoint": {"lat": -29.8579, "lon": 31.0292}}, {"facility": "Research Site", "city": "Johannesburg", "zip": "2001", "country": "South Africa", "geoPoint": {"lat": -26.20227, "lon": 28.04363}}, {"facility": "Research Site", "city": "Johannesburg", "zip": "2188", "country": "South Africa", "geoPoint": {"lat": -26.20227, "lon": 28.04363}}, {"facility": "Research Site", "city": "Lenasia", "zip": "1829", "country": "South Africa", "geoPoint": {"lat": -26.32052, "lon": 27.83564}}, {"facility": "Research Site", "city": "Mowbray", "zip": "7700", "country": "South Africa", "geoPoint": {"lat": -33.94802, "lon": 18.47333}}, {"facility": "Research Site", "city": "Panorama", "zip": "7500", "country": "South Africa", "geoPoint": {"lat": -25.61314, "lon": 30.52899}}, {"facility": "Research Site", "city": "Phoenix", "zip": "4068", "country": "South Africa"}, {"facility": "Research Site", "city": "Verulam", "zip": "4345", "country": "South Africa", "geoPoint": {"lat": -29.6434, "lon": 31.04709}}, {"facility": "Research Site", "city": "Alicante", "zip": "03004", "country": "Spain", "geoPoint": {"lat": 38.34517, "lon": -0.48149}}, {"facility": "Research Site", "city": "Badalona", "zip": "08916", "country": "Spain", "geoPoint": {"lat": 41.45004, "lon": 2.24741}}, {"facility": "Research Site", "city": "Barcelona", "zip": "08025", "country": "Spain", "geoPoint": {"lat": 41.38879, "lon": 2.15899}}, {"facility": "Research Site", "city": "Barcelona", "zip": "08036", "country": "Spain", "geoPoint": {"lat": 41.38879, "lon": 2.15899}}, {"facility": "Research Site", "city": "Bilbao (Vizcaya)", "zip": "48013", "country": "Spain"}, {"facility": "Research Site", "city": "Madrid", "zip": "28040", "country": "Spain", "geoPoint": {"lat": 40.4165, "lon": -3.70256}}, {"facility": "Research Site", "city": "Madrid", "zip": "28046", "country": "Spain", "geoPoint": {"lat": 40.4165, "lon": -3.70256}}, {"facility": "Research Site", "city": "Malaga", "zip": "29730", "country": "Spain", "geoPoint": {"lat": 36.72016, "lon": -4.42034}}, {"facility": "Research Site", "city": "Marbella (M\u00e1laga)", "zip": "29603", "country": "Spain"}, {"facility": "Research Site", "city": "Oviedo", "zip": "33011", "country": "Spain", "geoPoint": {"lat": 43.36029, "lon": -5.84476}}, {"facility": "Research Site", "city": "Sevilla", "zip": "41013", "country": "Spain", "geoPoint": {"lat": 37.38283, "lon": -5.97317}}, {"facility": "Research Site", "city": "Sevilla", "zip": "41071", "country": "Spain", "geoPoint": {"lat": 37.38283, "lon": -5.97317}}, {"facility": "Research Site", "city": "Terrassa (Barcelona)", "zip": "08227", "country": "Spain"}, {"facility": "Research Site", "city": "Valencia", "zip": "46017", "country": "Spain", "geoPoint": {"lat": 39.46975, "lon": -0.37739}}, {"facility": "Research Site", "city": "Bor\u00e5s", "zip": "506 30", "country": "Sweden", "geoPoint": {"lat": 57.72101, "lon": 12.9401}}, {"facility": "Research Site", "city": "Lund", "zip": "222 21", "country": "Sweden", "geoPoint": {"lat": 55.70584, "lon": 13.19321}}, {"facility": "Research Site", "city": "Malmo", "zip": "21152", "country": "Sweden", "geoPoint": {"lat": 55.60587, "lon": 13.00073}}, {"facility": "Research Site", "city": "Stockholm", "zip": "114 46", "country": "Sweden", "geoPoint": {"lat": 59.33258, "lon": 18.0649}}, {"facility": "Research Site", "city": "V\u00e4rnamo", "zip": "33185", "country": "Sweden", "geoPoint": {"lat": 57.18604, "lon": 14.04001}}, {"facility": "Research Site", "city": "V\u00e4stra Fr\u00f6lunda", "zip": "42144", "country": "Sweden", "geoPoint": {"lat": 57.64667, "lon": 11.92944}}, {"facility": "Research Site", "city": "Bangkok", "zip": "10330", "country": "Thailand", "geoPoint": {"lat": 13.75398, "lon": 100.50144}}, {"facility": "Research Site", "city": "Bangkok", "zip": "10400", "country": "Thailand", "geoPoint": {"lat": 13.75398, "lon": 100.50144}}, {"facility": "Research Site", "city": "Bangkok", "zip": "10600", "country": "Thailand", "geoPoint": {"lat": 13.75398, "lon": 100.50144}}, {"facility": "Research Site", "city": "Bangkok", "zip": "10700", "country": "Thailand", "geoPoint": {"lat": 13.75398, "lon": 100.50144}}, {"facility": "Research Site", "city": "Chonburi", "zip": "20000", "country": "Thailand"}, {"facility": "Research Site", "city": "Hat Yai", "zip": "90110", "country": "Thailand", "geoPoint": {"lat": 7.00836, "lon": 100.47668}}, {"facility": "Research Site", "city": "Khon Kaen", "zip": "40002", "country": "Thailand", "geoPoint": {"lat": 16.44671, "lon": 102.833}}, {"facility": "Research Site", "city": "Muang,", "zip": "55000", "country": "Thailand"}, {"facility": "Research Site", "city": "Nonthaburi", "zip": "11000", "country": "Thailand", "geoPoint": {"lat": 13.86075, "lon": 100.51477}}, {"facility": "Research Site", "city": "Pathumthani", "zip": "12120", "country": "Thailand", "geoPoint": {"lat": 14.01346, "lon": 100.53049}}, {"facility": "Research Site", "city": "Cherkasy", "zip": "18009", "country": "Ukraine", "geoPoint": {"lat": 49.42854, "lon": 32.06207}}, {"facility": "Research Site", "city": "Chernihiv", "zip": "14034", "country": "Ukraine", "geoPoint": {"lat": 51.50551, "lon": 31.28487}}, {"facility": "Research Site", "city": "Chernivtsi", "zip": "58000", "country": "Ukraine", "geoPoint": {"lat": 48.29149, "lon": 25.94034}}, {"facility": "Research Site", "city": "Dnipro", "zip": "49074", "country": "Ukraine", "geoPoint": {"lat": 48.4593, "lon": 35.03864}}, {"facility": "Research Site", "city": "Ivano-Frankivsk", "zip": "76012", "country": "Ukraine", "geoPoint": {"lat": 48.9215, "lon": 24.70972}}, {"facility": "Research Site", "city": "Ivano-Frankivsk", "zip": "76018", "country": "Ukraine", "geoPoint": {"lat": 48.9215, "lon": 24.70972}}, {"facility": "Research Site", "city": "Kharkiv", "zip": "61035", "country": "Ukraine", "geoPoint": {"lat": 49.98081, "lon": 36.25272}}, {"facility": "Research Site", "city": "Kharkiv", "zip": "61039", "country": "Ukraine", "geoPoint": {"lat": 49.98081, "lon": 36.25272}}, {"facility": "Research Site", "city": "Kharkiv", "zip": "61058", "country": "Ukraine", "geoPoint": {"lat": 49.98081, "lon": 36.25272}}, {"facility": "Research Site", "city": "Kharkiv", "zip": "61075", "country": "Ukraine", "geoPoint": {"lat": 49.98081, "lon": 36.25272}}, {"facility": "Research Site", "city": "Kherson", "zip": "73000", "country": "Ukraine", "geoPoint": {"lat": 46.65581, "lon": 32.6178}}, {"facility": "Research Site", "city": "Kyiv", "zip": "02091", "country": "Ukraine", "geoPoint": {"lat": 50.45466, "lon": 30.5238}}, {"facility": "Research Site", "city": "Kyiv", "zip": "03037", "country": "Ukraine", "geoPoint": {"lat": 50.45466, "lon": 30.5238}}, {"facility": "Research Site", "city": "Kyiv", "zip": "03680", "country": "Ukraine", "geoPoint": {"lat": 50.45466, "lon": 30.5238}}, {"facility": "Research Site", "city": "Kyiv", "zip": "04050", "country": "Ukraine", "geoPoint": {"lat": 50.45466, "lon": 30.5238}}, {"facility": "Research Site", "city": "Lutsk", "zip": "43000", "country": "Ukraine", "geoPoint": {"lat": 50.75932, "lon": 25.34244}}, {"facility": "Research Site", "city": "Lviv", "zip": "79066", "country": "Ukraine", "geoPoint": {"lat": 49.83826, "lon": 24.02324}}, {"facility": "Research Site", "city": "Odesa", "zip": "65025", "country": "Ukraine", "geoPoint": {"lat": 46.47747, "lon": 30.73262}}, {"facility": "Research Site", "city": "Odessa", "zip": "65114", "country": "Ukraine", "geoPoint": {"lat": 46.47747, "lon": 30.73262}}, {"facility": "Research Site", "city": "Ternopil", "zip": "46000", "country": "Ukraine", "geoPoint": {"lat": 49.55589, "lon": 25.60556}}, {"facility": "Research Site", "city": "Uzhgorod", "zip": "88000", "country": "Ukraine", "geoPoint": {"lat": 48.61667, "lon": 22.3}}, {"facility": "Research Site", "city": "Uzhgorod", "zip": "88009", "country": "Ukraine", "geoPoint": {"lat": 48.61667, "lon": 22.3}}, {"facility": "Research Site", "city": "Uzhgorod", "zip": "88014", "country": "Ukraine", "geoPoint": {"lat": 48.61667, "lon": 22.3}}, {"facility": "Research Site", "city": "Vinnytsia", "zip": "21001", "country": "Ukraine", "geoPoint": {"lat": 49.23278, "lon": 28.48097}}, {"facility": "Research Site", "city": "Zaporizhzhya", "zip": "69063", "country": "Ukraine", "geoPoint": {"lat": 50.60727, "lon": 31.78792}}, {"facility": "Research Site", "city": "Zaporizhzhya", "zip": "69068", "country": "Ukraine", "geoPoint": {"lat": 50.60727, "lon": 31.78792}}, {"facility": "Research Site", "city": "Can Tho", "zip": "900000", "country": "Vietnam", "geoPoint": {"lat": 10.03711, "lon": 105.78825}}, {"facility": "Research Site", "city": "Ha Noi", "zip": "100000", "country": "Vietnam", "geoPoint": {"lat": 20.47366, "lon": 106.02292}}, {"facility": "Research Site", "city": "Hanoi", "zip": "100000", "country": "Vietnam", "geoPoint": {"lat": 21.0245, "lon": 105.84117}}, {"facility": "Research Site", "city": "Ho Chi Minh", "zip": "700000", "country": "Vietnam", "geoPoint": {"lat": 10.82302, "lon": 106.62965}}, {"facility": "Research Site", "city": "Hochiminh", "zip": "700000", "country": "Vietnam"}, {"facility": "Research Site", "city": "Hue", "zip": "530000", "country": "Vietnam", "geoPoint": {"lat": 16.4619, "lon": 107.59546}}]}, "referencesModule": {"references": [{"pmid": "33548020", "type": "DERIVED", "citation": "FitzGerald JM, O'Byrne PM, Bateman ED, Barnes PJ, Zheng J, Ivanov S, Lamarca R, Larsdotter U, Emerath U, Jansen G, Puu M, Alagappan VKT, Surmont F, Reddel HK. Safety of As-Needed Budesonide-Formoterol in Mild Asthma: Data from the Two Phase III SYGMA Studies. Drug Saf. 2021 Apr;44(4):467-478. doi: 10.1007/s40264-020-01041-z. Epub 2021 Feb 6."}, {"pmid": "29768147", "type": "DERIVED", "citation": "Bateman ED, Reddel HK, O'Byrne PM, Barnes PJ, Zhong N, Keen C, Jorup C, Lamarca R, Siwek-Posluszna A, FitzGerald JM. As-Needed Budesonide-Formoterol versus Maintenance Budesonide in Mild Asthma. N Engl J Med. 2018 May 17;378(20):1877-1887. doi: 10.1056/NEJMoa1715275."}, {"pmid": "28069068", "type": "DERIVED", "citation": "O'Byrne PM, FitzGerald JM, Zhong N, Bateman E, Barnes PJ, Keen C, Almqvist G, Pemberton K, Jorup C, Ivanov S, Reddel HK. The SYGMA programme of phase 3 trials to evaluate the efficacy and safety of budesonide/formoterol given 'as needed' in mild asthma: study protocols for two randomised controlled trials. Trials. 2017 Jan 10;18(1):12. doi: 10.1186/s13063-016-1731-4."}, {"pmid": "27912982", "type": "DERIVED", "citation": "Reddel HK, Busse WW, Pedersen S, Tan WC, Chen YZ, Jorup C, Lythgoe D, O'Byrne PM. Should recommendations about starting inhaled corticosteroid treatment for mild asthma be based on symptom frequency: a post-hoc efficacy analysis of the START study. Lancet. 2017 Jan 14;389(10065):157-166. doi: 10.1016/S0140-6736(16)31399-X. Epub 2016 Nov 30."}], "seeAlsoLinks": [{"label": "D589SC00003-revised-csp-edition-4_12Oct2016_Redacted_pdfa", "url": "http://filehosting.pharmacm.com/DownloadService.ashx?client=CTR_MED_7111&studyid=2649&filename=d589sc00003-revised-csp-edition-4_12Oct2016_Redacted_pdfa.pdf"}, {"label": "D589SC00003-statistical-analysis-plan-edition-2_06SEP2017_pdfa", "url": "http://filehosting.pharmacm.com/DownloadService.ashx?client=CTR_MED_7111&studyid=2649&filename=D589SC00003-statistical-analysis-plan-edition-2_06SEP2017_pdfa.pdf"}]}}, "resultsSection": {"participantFlowModule": {"preAssignmentDetails": "Screening Details Eligibility was assessed at Visits 1, 2 and 3. IC was obtained at V1. At V2, patients stopped pre-study asthma medications and entered a 2 to 4 week run-in period on SABA as needed only (Bricanyl Turbuhaler 0.5 mg). Lung function was assessed by spirometry to confirm eligibility. Eligible patients were randomised at V3.", "recruitmentDetails": "4215 patients were enrolled. 26 patients were randomised in error and hence never recieved treatment.", "groups": [{"id": "FG000", "title": "Placebo Bid + Symbicort 'as Needed' (Experimental)", "description": "Placebo for budesonide (Placebo Turbuhaler) + Symbicort Turbuhaler (budesonide/formoterol 160/4.5 \u03bcg)"}, {"id": "FG001", "title": "Pulmicort Bid + Terbutaline 'as Needed' (Active Comparator)", "description": "Pulmicort Turbuhaler (budesonide 200 \u03bcg) + Terbutaline Turbuhaler 0.4mg 'as needed'"}], "periods": [{"title": "Overall Study", "milestones": [{"type": "STARTED", "comment": "Patients randomised and received treatment", "achievements": [{"groupId": "FG000", "numSubjects": "2095"}, {"groupId": "FG001", "numSubjects": "2094"}]}, {"type": "Patients Who Completed Treatment", "achievements": [{"groupId": "FG000", "numSubjects": "1924"}, {"groupId": "FG001", "numSubjects": "1903"}]}, {"type": "COMPLETED", "achievements": [{"groupId": "FG000", "numSubjects": "1985"}, {"groupId": "FG001", "numSubjects": "1983"}]}, {"type": "NOT COMPLETED", "achievements": [{"groupId": "FG000", "numSubjects": "110"}, {"groupId": "FG001", "numSubjects": "111"}]}], "dropWithdraws": [{"type": "Severe non-compliance to protocol", "reasons": [{"groupId": "FG000", "numSubjects": "2"}, {"groupId": "FG001", "numSubjects": "2"}]}, {"type": "Other", "reasons": [{"groupId": "FG000", "numSubjects": "13"}, {"groupId": "FG001", "numSubjects": "10"}]}, {"type": "Subject decision", "reasons": [{"groupId": "FG000", "numSubjects": "58"}, {"groupId": "FG001", "numSubjects": "50"}]}, {"type": "Prematurely closed site", "reasons": [{"groupId": "FG000", "numSubjects": "4"}, {"groupId": "FG001", "numSubjects": "2"}]}, {"type": "Eligibility criteria not fulfilled", "reasons": [{"groupId": "FG000", "numSubjects": "4"}, {"groupId": "FG001", "numSubjects": "8"}]}, {"type": "Lost to Follow-up", "reasons": [{"groupId": "FG000", "numSubjects": "27"}, {"groupId": "FG001", "numSubjects": "35"}]}, {"type": "Death", "reasons": [{"groupId": "FG000", "numSubjects": "1"}, {"groupId": "FG001", "numSubjects": "1"}]}, {"type": "Adverse Event", "reasons": [{"groupId": "FG000", "numSubjects": "1"}, {"groupId": "FG001", "numSubjects": "3"}]}]}]}, "baselineCharacteristicsModule": {"populationDescription": "Full analysis set", "groups": [{"id": "BG000", "title": "Placebo Bid + Symbicort 'as Needed' (Experimental)", "description": "Placebo for budesonide (Placebo Turbuhaler) + Symbicort Turbuhaler (budesonide/formoterol 160/4.5 \u03bcg)"}, {"id": "BG001", "title": "Pulmicort Bid + Terbutaline 'as Needed' (Active Comparator)", "description": "Pulmicort Turbuhaler (budesonide 200 \u03bcg) + Terbutaline Turbuhaler 0.4mg 'as needed'"}, {"id": "BG002", "title": "Total", "description": "Total of all reporting groups"}], "denoms": [{"units": "Participants", "counts": [{"groupId": "BG000", "value": "2089"}, {"groupId": "BG001", "value": "2087"}, {"groupId": "BG002", "value": "4176"}]}], "measures": [{"title": "Age, Continuous", "paramType": "MEAN", "dispersionType": "STANDARD_DEVIATION", "unitOfMeasure": "Years", "classes": [{"categories": [{"measurements": [{"groupId": "BG000", "value": "41.3", "spread": "16.8"}, {"groupId": "BG001", "value": "40.7", "spread": "17.1"}, {"groupId": "BG002", "value": "41.0", "spread": "17.0"}]}]}]}, {"title": "Sex/Gender, Customized", "paramType": "COUNT_OF_PARTICIPANTS", "unitOfMeasure": "Participants", "classes": [{"categories": [{"title": "Female", "measurements": [{"groupId": "BG000", "value": "1308"}, {"groupId": "BG001", "value": "1289"}, {"groupId": "BG002", "value": "2597"}]}, {"title": "Male", "measurements": [{"groupId": "BG000", "value": "781"}, {"groupId": "BG001", "value": "798"}, {"groupId": "BG002", "value": "1579"}]}]}]}, {"title": "Race/Ethnicity, Customized", "populationDescription": "Full Analysis Set", "paramType": "NUMBER", "unitOfMeasure": "Participants", "classes": [{"title": "American Indian or Alaska Native", "categories": [{"measurements": [{"groupId": "BG000", "value": "36"}, {"groupId": "BG001", "value": "32"}, {"groupId": "BG002", "value": "68"}]}]}, {"title": "Asian", "categories": [{"measurements": [{"groupId": "BG000", "value": "399"}, {"groupId": "BG001", "value": "403"}, {"groupId": "BG002", "value": "802"}]}]}, {"title": "Native Hawaiian or Other Pacific Islander", "categories": [{"measurements": [{"groupId": "BG000", "value": "1"}, {"groupId": "BG001", "value": "2"}, {"groupId": "BG002", "value": "3"}]}]}, {"title": "Black or African American", "categories": [{"measurements": [{"groupId": "BG000", "value": "34"}, {"groupId": "BG001", "value": "33"}, {"groupId": "BG002", "value": "67"}]}]}, {"title": "White", "categories": [{"measurements": [{"groupId": "BG000", "value": "1408"}, {"groupId": "BG001", "value": "1406"}, {"groupId": "BG002", "value": "2814"}]}]}, {"title": "Other", "categories": [{"measurements": [{"groupId": "BG000", "value": "211"}, {"groupId": "BG001", "value": "211"}, {"groupId": "BG002", "value": "422"}]}]}]}]}, "outcomeMeasuresModule": {"outcomeMeasures": [{"type": "PRIMARY", "title": "Annual Severe Asthma Exacerbation Rate - Non-inferiority Analysis", "description": "Severe asthma exacerbations over the randomised treatment period, negative binomial model for non-inferiority test evaluation", "populationDescription": "Full analysis set", "reportingStatus": "POSTED", "paramType": "LEAST_SQUARES_MEAN", "dispersionType": "95% Confidence Interval", "unitOfMeasure": "exacerbations per participant year", "timeFrame": "up to 52 weeks", "groups": [{"id": "OG000", "title": "Placebo Bid + Symbicort 'as Needed' (Experimental)", "description": "Placebo for budesonide (Placebo Turbuhaler) + Symbicort Turbuhaler (budesonide/formoterol 160/4.5 \u03bcg)"}, {"id": "OG001", "title": "Pulmicort Bid + Terbutaline 'as Needed' (Active Comparator)", "description": "Pulmicort Turbuhaler (budesonide 200 \u03bcg) + Terbutaline Turbuhaler 0.4mg 'as needed'"}], "denoms": [{"units": "Participants", "counts": [{"groupId": "OG000", "value": "2089"}, {"groupId": "OG001", "value": "2087"}]}], "classes": [{"categories": [{"measurements": [{"groupId": "OG000", "value": "0.11", "lowerLimit": "0.10", "upperLimit": "0.13"}, {"groupId": "OG001", "value": "0.12", "lowerLimit": "0.10", "upperLimit": "0.14"}]}]}], "analyses": [{"groupIds": ["OG000", "OG001"], "nonInferiorityType": "NON_INFERIORITY", "nonInferiorityComment": "Non-inferiority analysis based on CI instead of p-value, hence no p-value calculated for this analysis. Upper limit of the 1-sided 95% confidence limit \\<1.2 indicates Symbicort 'as needed' is non-inferior to Pulmicort bid", "statisticalMethod": "Negative binomial model", "statisticalComment": "Adjusted for randomised treatment, pre-study treatment and region. Logarithm of follow-up time is used as an offset variable.", "paramType": "Rate ratio", "paramValue": "0.97", "ciPctValue": "95", "ciNumSides": "ONE_SIDED", "ciUpperLimit": "1.16", "estimateComment": "A rate ratio less than 1 indicates a lower rate of exacerbations in the Symbicort 'as needed' treatment group."}]}, {"type": "SECONDARY", "title": "Number of Participants Experiencing at Least One Severe Asthma Exacerbation", "description": "A severe exacerbation is defined as a deterioration of asthma requiring any of the following: use of systemic glucocorticosteroids (GCS) for at least 3 days, inpatient hospitalization, or emergency room visit due to asthma that required systemic steroids.", "populationDescription": "Full analysis set", "reportingStatus": "POSTED", "paramType": "NUMBER", "unitOfMeasure": "Participants", "timeFrame": "Day 1 up to 52 weeks", "groups": [{"id": "OG000", "title": "Placebo Bid + Symbicort 'as Needed' (Experimental)", "description": "Placebo for budesonide (Placebo Turbuhaler) + Symbicort Turbuhaler (budesonide/formoterol 160/4.5 \u03bcg)"}, {"id": "OG001", "title": "Pulmicort Bid + Terbutaline 'as Needed' (Active Comparator)", "description": "Pulmicort Turbuhaler (budesonide 200 \u03bcg) + Terbutaline Turbuhaler 0.4mg 'as needed'"}], "denoms": [{"units": "Participants", "counts": [{"groupId": "OG000", "value": "2089"}, {"groupId": "OG001", "value": "2087"}]}], "classes": [{"categories": [{"measurements": [{"groupId": "OG000", "value": "177"}, {"groupId": "OG001", "value": "184"}]}]}], "analyses": [{"groupIds": ["OG000", "OG001"], "nonInferiorityType": "SUPERIORITY", "pValue": "0.664", "statisticalMethod": "Regression, Cox", "statisticalComment": "Cox regression model with randomised treatment, pre-study treatment and region as covariates.", "paramType": "Hazard Ratio (HR)", "paramValue": "0.955", "ciPctValue": "95", "ciNumSides": "TWO_SIDED", "ciLowerLimit": "0.777", "ciUpperLimit": "1.174", "estimateComment": "A hazard ratio less than 1 indicates that Symbicort 'as needed' prolongs the time to first severe exacerbation."}]}, {"type": "SECONDARY", "title": "Average Change From Baseline in Pre-bronchodilator FEV1", "description": "The average change from baseline (baseline defined by measurement at week 0, prior to first dose of IP) to the treatment period average assessed over the entire treatment period in pre-bronchodilator FEV1 was derived by computing a contrast for the mean across the post-randomisation visits (week 17, 34, 52) from the MMRM (mixed model repeated measures) analysis.", "populationDescription": "Full analysis set", "reportingStatus": "POSTED", "paramType": "LEAST_SQUARES_MEAN", "dispersionType": "95% Confidence Interval", "unitOfMeasure": "mL", "timeFrame": "Study weeks 0,17, 34, 52", "groups": [{"id": "OG000", "title": "Placebo Bid + Symbicort 'as Needed' (Experimental)", "description": "Placebo for budesonide (Placebo Turbuhaler) + Symbicort Turbuhaler (budesonide/formoterol 160/4.5 \u03bcg)"}, {"id": "OG001", "title": "Pulmicort Bid + Terbutaline 'as Needed' (Active Comparator)", "description": "Pulmicort Turbuhaler (budesonide 200 \u03bcg) + Terbutaline Turbuhaler 0.4mg 'as needed'"}], "denoms": [{"units": "Participants", "counts": [{"groupId": "OG000", "value": "2089"}, {"groupId": "OG001", "value": "2087"}]}], "classes": [{"categories": [{"measurements": [{"groupId": "OG000", "value": "104.0", "lowerLimit": "88.5", "upperLimit": "119.6"}, {"groupId": "OG001", "value": "136.6", "lowerLimit": "121.1", "upperLimit": "152.2"}]}]}], "analyses": [{"groupIds": ["OG000", "OG001"], "nonInferiorityType": "SUPERIORITY", "pValue": "0.003", "statisticalMethod": "Mixed Models Analysis", "statisticalComment": "Rand treatment,pre-study treatment,region,visit,rand treatment by visit; fixed effects. Patient; random effect, baseline FEV1; covariate.", "paramType": "Least Square Mean Difference", "paramValue": "-32.6", "ciPctValue": "95", "ciNumSides": "TWO_SIDED", "ciLowerLimit": "-53.7", "ciUpperLimit": "-11.4", "estimateComment": "Mean difference greater than 0 favours Symbicort 'as needed'. Estimate corresponds to average treatment effect across all treatment visits."}]}, {"type": "SECONDARY", "title": "Number of Participants With Study Specific Asthma Related Discontinuation", "description": "The following two criteria lead to discontinuation from the IP due to asthma related events: A severe asthma exacerbation with duration for more than 3 weeks, and/or three severe asthma exacerbations during 6 months.", "populationDescription": "Full analysis set", "reportingStatus": "POSTED", "paramType": "NUMBER", "unitOfMeasure": "Participants", "timeFrame": "Day 1 up to 52 weeks", "groups": [{"id": "OG000", "title": "Placebo Bid + Symbicort 'as Needed' (Experimental)", "description": "Placebo for budesonide (Placebo Turbuhaler) + Symbicort Turbuhaler (budesonide/formoterol 160/4.5 \u03bcg)"}, {"id": "OG001", "title": "Pulmicort Bid + Terbutaline 'as Needed' (Active Comparator)", "description": "Pulmicort Turbuhaler (budesonide 200 \u03bcg) + Terbutaline Turbuhaler 0.4mg 'as needed'"}], "denoms": [{"units": "Participants", "counts": [{"groupId": "OG000", "value": "2089"}, {"groupId": "OG001", "value": "2087"}]}], "classes": [{"categories": [{"measurements": [{"groupId": "OG000", "value": "0"}, {"groupId": "OG001", "value": "4"}]}]}]}, {"type": "SECONDARY", "title": "Average Change From Baseline in 'as Needed' Use", "description": "'As-needed' use change from baseline over the randomised treatment period. Baseline was defined as the last 10 days of the run-in period. 'As needed' use was calculated as the cumulative doses of 'as-needed' medication over the randomised treatment period divided by the follow-up time (number of days - 1). ie, average number of inhalations per day.", "populationDescription": "Full analysis set.", "reportingStatus": "POSTED", "paramType": "LEAST_SQUARES_MEAN", "dispersionType": "95% Confidence Interval", "unitOfMeasure": "Number of inhalations per day", "timeFrame": "Week 0 up to 52 weeks", "groups": [{"id": "OG000", "title": "Placebo Bid + Symbicort 'as Needed' (Experimental)", "description": "Placebo for budesonide (Placebo Turbuhaler) + Symbicort Turbuhaler (budesonide/formoterol 160/4.5 \u03bcg)"}, {"id": "OG001", "title": "Pulmicort Bid + Terbutaline 'as Needed' (Active Comparator)", "description": "Pulmicort Turbuhaler (budesonide 200 \u03bcg) + Terbutaline Turbuhaler 0.4mg 'as needed'"}], "denoms": [{"units": "Participants", "counts": [{"groupId": "OG000", "value": "2089"}, {"groupId": "OG001", "value": "2087"}]}], "classes": [{"categories": [{"measurements": [{"groupId": "OG000", "value": "-0.84", "lowerLimit": "-0.86", "upperLimit": "-0.81"}, {"groupId": "OG001", "value": "-0.87", "lowerLimit": "-0.89", "upperLimit": "-0.84"}]}]}], "analyses": [{"groupIds": ["OG000", "OG001"], "nonInferiorityType": "SUPERIORITY", "pValueComment": "No p-value was calculated for this efficacy variable", "statisticalMethod": "ANCOVA", "statisticalComment": "Model with randomised treatment, pre-study treatment and region as factors, and no. of 'as needed' inhalations at baseline as continuous covariate", "paramType": "Least Square Mean Difference", "paramValue": "0.03", "ciPctValue": "95", "ciNumSides": "TWO_SIDED", "ciLowerLimit": "0.00", "ciUpperLimit": "0.07", "estimateComment": "A mean difference less than zero indicates a larger mean reduction in number of 'as needed' inhalations in the Symbicort 'as needed' group."}]}, {"type": "SECONDARY", "title": "Change From Baseline in Percent of 'as Needed' Free Days", "description": "'As needed' free days (%) change from baseline during randomised treatment period. An 'as-needed' free day was defined as a day and night with no use of 'as needed' medication. Variable analysed is the percentage (%) of 'as-needed' free days during the randomised treatment period. Baseline is defined by the last 10 days of the run-in period.", "populationDescription": "Full analysis set", "reportingStatus": "POSTED", "paramType": "LEAST_SQUARES_MEAN", "dispersionType": "95% Confidence Interval", "unitOfMeasure": "Percentage of 'as needed' free days", "timeFrame": "Week 0 up to 52 weeks", "groups": [{"id": "OG000", "title": "Placebo Bid + Symbicort 'as Needed' (Experimental)", "description": "Placebo for budesonide (Placebo Turbuhaler) + Symbicort Turbuhaler (budesonide/formoterol 160/4.5 \u03bcg)"}, {"id": "OG001", "title": "Pulmicort Bid + Terbutaline 'as Needed' (Active Comparator)", "description": "Pulmicort Turbuhaler (budesonide 200 \u03bcg) + Terbutaline Turbuhaler 0.4mg 'as needed'"}], "denoms": [{"units": "Participants", "counts": [{"groupId": "OG000", "value": "2089"}, {"groupId": "OG001", "value": "2087"}]}], "classes": [{"categories": [{"measurements": [{"groupId": "OG000", "value": "41.01", "lowerLimit": "39.90", "upperLimit": "42.12"}, {"groupId": "OG001", "value": "47.86", "lowerLimit": "46.75", "upperLimit": "48.98"}]}]}], "analyses": [{"groupIds": ["OG000", "OG001"], "nonInferiorityType": "SUPERIORITY", "pValue": "< 0.001", "statisticalMethod": "ANCOVA", "statisticalComment": "adjusted for randomised treatment, pre-study treatment and region as factors and the percent 'as needed' free days during run-in as a cont covariate.", "paramType": "Least Square Mean Difference", "paramValue": "-6.85", "ciPctValue": "95", "ciNumSides": "TWO_SIDED", "ciLowerLimit": "-8.37", "ciUpperLimit": "-5.34", "estimateComment": "An estimate of difference \\>0 means that there was a larger increase in the % of 'as needed' free days in the Symbicort 'as-needed' arm."}]}, {"type": "SECONDARY", "title": "Percentage of Controller Use Days", "description": "ICS controller use days (%) during the randomised treatment period is calculated as the cumulative days when any controller medication (containing ICS) was taken including maintenance (Pulmicort bid group) and 'as needed' medication (Symbicort 'as needed' group) and additional prescribed ICS for asthma (all treatment groups), divided by the number of days in the randomised treatment period.", "populationDescription": "Full analysis set", "reportingStatus": "POSTED", "paramType": "LEAST_SQUARES_MEAN", "dispersionType": "95% Confidence Interval", "unitOfMeasure": "Percentage of days", "timeFrame": "Week 0 up to 52 weeks", "groups": [{"id": "OG000", "title": "Placebo Bid + Symbicort 'as Needed' (Experimental)", "description": "Placebo for budesonide (Placebo Turbuhaler) + Symbicort Turbuhaler (budesonide/formoterol 160/4.5 \u03bcg)"}, {"id": "OG001", "title": "Pulmicort Bid + Terbutaline 'as Needed' (Active Comparator)", "description": "Pulmicort Turbuhaler (budesonide 200 \u03bcg) + Terbutaline Turbuhaler 0.4mg 'as needed'"}], "denoms": [{"units": "Participants", "counts": [{"groupId": "OG000", "value": "2089"}, {"groupId": "OG001", "value": "2087"}]}], "classes": [{"categories": [{"measurements": [{"groupId": "OG000", "value": "30.45", "lowerLimit": "29.20", "upperLimit": "31.70"}, {"groupId": "OG001", "value": "67.92", "lowerLimit": "66.67", "upperLimit": "69.17"}]}]}], "analyses": [{"groupIds": ["OG000", "OG001"], "nonInferiorityType": "SUPERIORITY", "pValue": "<0.001", "statisticalMethod": "ANOVA", "statisticalComment": "model adjusted for: randomised treatment, pre-study treatment and region.", "paramType": "Least Square Mean Difference", "paramValue": "-37.48", "ciPctValue": "95", "ciNumSides": "TWO_SIDED", "ciLowerLimit": "-39.18", "ciUpperLimit": "-35.77", "estimateComment": "An estimate of difference \\>0 means that there was a higher % of controller use days in the Symbicort 'as-needed' group."}]}, {"type": "SECONDARY", "title": "Average Change From Baseline in Asthma Control Questionnaire (5-item Version) - ACQ-5 Score", "description": "ACQ questionnaire contains five questions on patients' symptoms, which are assessed on a 7-point scale from 0 (representing good control) to 6 (representing poor control). The score is the mean score of all questions for which responses are provided. The average change from baseline to treatment period average in ACQ-5 was derived by computing a contrast for the mean across all post-randomisation visits (week 17, 34, 52) from the MMRM (mixed model repeated measures) analysis.", "populationDescription": "Full analysis set.", "reportingStatus": "POSTED", "paramType": "LEAST_SQUARES_MEAN", "dispersionType": "95% Confidence Interval", "unitOfMeasure": "Score", "timeFrame": "Study weeks 0, 17, 34, 52", "groups": [{"id": "OG000", "title": "Placebo Bid + Symbicort 'as Needed' (Experimental)", "description": "Placebo for budesonide (Placebo Turbuhaler) + Symbicort Turbuhaler (budesonide/formoterol 160/4.5 \u03bcg)"}, {"id": "OG001", "title": "Pulmicort Bid + Terbutaline 'as Needed' (Active Comparator)", "description": "Pulmicort Turbuhaler (budesonide 200 \u03bcg) + Terbutaline Turbuhaler 0.4mg 'as needed'"}], "denoms": [{"units": "Participants", "counts": [{"groupId": "OG000", "value": "2089"}, {"groupId": "OG001", "value": "2087"}]}], "classes": [{"categories": [{"measurements": [{"groupId": "OG000", "value": "-0.35", "lowerLimit": "-0.38", "upperLimit": "-0.32"}, {"groupId": "OG001", "value": "-0.46", "lowerLimit": "-0.49", "upperLimit": "-0.43"}]}]}], "analyses": [{"groupIds": ["OG000", "OG001"], "nonInferiorityType": "SUPERIORITY", "pValue": "<0.001", "statisticalMethod": "Mixed Models Analysis", "statisticalComment": "rand treatment, pre-study treatment, region, visit, rand treat by visit as fixed, patient as random, and baseline ACQ-5 as covariate.", "paramType": "Least Square Mean Difference", "paramValue": "0.109", "ciPctValue": "95", "ciNumSides": "TWO_SIDED", "ciLowerLimit": "0.068", "ciUpperLimit": "0.150", "estimateComment": "Mean difference less than 0 favours Symbicort 'as needed'."}]}, {"type": "SECONDARY", "title": "Average Change From Baseline in Asthma Quality of Life Questionnaire Standardised Version - AQLQ(S) Score", "description": "AQLQ(S) consists of 32 questions in 4 domains. Each question is assessed on a 7-point scale from 1 to 7, with higher values indicating better health-related quality of life. The overall score is calculated as the mean score of all 32 items. The average change from baseline to treatment period average in AQLQ(S) overall score was derived by computing a contrast for the mean across all post-randomisation visits (week 17, 34, 52) from the MMRM (mixed model repeated measures) analysis.", "populationDescription": "Full Analysis Set.", "reportingStatus": "POSTED", "paramType": "LEAST_SQUARES_MEAN", "dispersionType": "95% Confidence Interval", "unitOfMeasure": "AQLQ(S) overall score", "timeFrame": "Study weeks 0,17, 34, 52", "groups": [{"id": "OG000", "title": "Placebo Bid + Symbicort 'as Needed' (Experimental)", "description": "Placebo for budesonide (Placebo Turbuhaler) + Symbicort Turbuhaler (budesonide/formoterol 160/4.5 \u03bcg)"}, {"id": "OG001", "title": "Pulmicort Bid + Terbutaline 'as Needed' (Active Comparator)", "description": "Pulmicort Turbuhaler (budesonide 200 \u03bcg) + Terbutaline Turbuhaler 0.4mg 'as needed'"}], "denoms": [{"units": "Participants", "counts": [{"groupId": "OG000", "value": "2089"}, {"groupId": "OG001", "value": "2087"}]}], "classes": [{"categories": [{"measurements": [{"groupId": "OG000", "value": "0.335", "lowerLimit": "0.305", "upperLimit": "0.366"}, {"groupId": "OG001", "value": "0.431", "lowerLimit": "0.400", "upperLimit": "0.461"}]}]}], "analyses": [{"groupIds": ["OG000", "OG001"], "nonInferiorityType": "SUPERIORITY", "pValue": "<0.001", "statisticalMethod": "Mixed Models Analysis", "statisticalComment": "rand treatment, pre-study treatment, region, visit, rand treat by visit as fixed, patient as random and baseline AQLQ as covariate.", "paramType": "Least Square Mean Difference", "paramValue": "-0.096", "ciPctValue": "95", "ciNumSides": "TWO_SIDED", "ciLowerLimit": "-0.137", "ciUpperLimit": "-0.054", "estimateComment": "Mean difference greater than 0 favours Symbicort 'as needed'."}]}, {"type": "PRIMARY", "title": "Annual Severe Asthma Exacerbation Rate - Superiority Analysis", "description": "Severe asthma exacerbations over the randomised treatment period, negative binomial model for superiority test evaluation", "populationDescription": "Full analysis set", "reportingStatus": "POSTED", "paramType": "LEAST_SQUARES_MEAN", "dispersionType": "95% Confidence Interval", "unitOfMeasure": "exacerbations per participant year", "timeFrame": "up to 52 weeks", "groups": [{"id": "OG000", "title": "Placebo Bid + Symbicort 'as Needed' (Experimental)", "description": "Placebo for budesonide (Placebo Turbuhaler) + Symbicort Turbuhaler (budesonide/formoterol 160/4.5 \u03bcg)"}, {"id": "OG001", "title": "Pulmicort Bid + Terbutaline 'as Needed' (Active Comparator)", "description": "Pulmicort Turbuhaler (budesonide 200 \u03bcg) + Terbutaline Turbuhaler 0.4mg 'as needed'"}], "denoms": [{"units": "Participants", "counts": [{"groupId": "OG000", "value": "2089"}, {"groupId": "OG001", "value": "2087"}]}], "classes": [{"categories": [{"measurements": [{"groupId": "OG000", "value": "0.11", "lowerLimit": "0.10", "upperLimit": "0.13"}, {"groupId": "OG001", "value": "0.12", "lowerLimit": "0.10", "upperLimit": "0.14"}]}]}], "analyses": [{"groupIds": ["OG000", "OG001"], "nonInferiorityType": "SUPERIORITY", "pValue": "0.754", "statisticalMethod": "Negative binomial model", "statisticalComment": "Adjusted for randomised treatment, pre-study treatment and region. Logarithm of follow-up time is used as an offset variable.", "paramType": "Rate ratio", "paramValue": "0.97", "ciPctValue": "95", "ciNumSides": "TWO_SIDED", "ciLowerLimit": "0.78", "ciUpperLimit": "1.20", "estimateComment": "A rate ratio less than 1 indicates a lower rate of exacerbations in the Symbicort 'as needed' treatment group."}]}]}, "adverseEventsModule": {"frequencyThreshold": "2", "timeFrame": "Adverse events were summarised from Visit 2 throughout the randomised treatment period and including the follow-up period until the last telephone follow-up, or the last contact. Serious adverse events were recorded from the time of informed consent throughout the randomised treatment period and including the folow-up period until last telephone follow-up or last contact.", "eventGroups": [{"id": "EG000", "title": "Placebo Bid + Symbicort 'as Needed' (Experimental)", "description": "Placebo for budesonide (Placebo Turbuhaler) + Symbicort Turbuhaler (budesonide/formoterol 160/4.5 \u03bcg)", "deathsNumAffected": 1, "deathsNumAtRisk": 2089, "seriousNumAffected": 66, "seriousNumAtRisk": 2089, "otherNumAffected": 491, "otherNumAtRisk": 2089}, {"id": "EG001", "title": "Pulmicort Bid + Terbutaline 'as Needed' (Active Comparator)", "description": "Pulmicort Turbuhaler (budesonide 200 \u03bcg) + Terbutaline Turbuhaler 0.4mg 'as needed'", "deathsNumAffected": 1, "deathsNumAtRisk": 2087, "seriousNumAffected": 73, "seriousNumAtRisk": 2087, "otherNumAffected": 519, "otherNumAtRisk": 2087}], "seriousEvents": [{"term": "Acute sinusitis", "organSystem": "Infections and infestations", "sourceVocabulary": "MedDRA version 20.0", "assessmentType": "SYSTEMATIC_ASSESSMENT", "stats": [{"groupId": "EG000", "numEvents": 1, "numAffected": 1, "numAtRisk": 2089}, {"groupId": "EG001", "numEvents": 0, "numAffected": 0, "numAtRisk": 2087}]}, {"term": "Appendicitis", "organSystem": "Infections and infestations", "sourceVocabulary": "MedDRA version 20.0", "assessmentType": "SYSTEMATIC_ASSESSMENT", "stats": [{"groupId": "EG000", "numEvents": 2, "numAffected": 2, "numAtRisk": 2089}, {"groupId": "EG001", "numEvents": 1, "numAffected": 1, "numAtRisk": 2087}]}, {"term": "Chronic sinusitis", "organSystem": "Infections and infestations", "sourceVocabulary": "MedDRA version 20.0", "assessmentType": "SYSTEMATIC_ASSESSMENT", "stats": [{"groupId": "EG000", "numEvents": 2, "numAffected": 2, "numAtRisk": 2089}, {"groupId": "EG001", "numEvents": 0, "numAffected": 0, "numAtRisk": 2087}]}, {"term": "Cystitis", "organSystem": "Infections and infestations", "sourceVocabulary": "MedDRA version 20.0", "assessmentType": "SYSTEMATIC_ASSESSMENT", "stats": [{"groupId": "EG000", "numEvents": 0, "numAffected": 0, "numAtRisk": 2089}, {"groupId": "EG001", "numEvents": 1, "numAffected": 1, "numAtRisk": 2087}]}, {"term": "Dengue fever", "organSystem": "Infections and infestations", "sourceVocabulary": "MedDRA version 20.0", "assessmentType": "SYSTEMATIC_ASSESSMENT", "stats": [{"groupId": "EG000", "numEvents": 0, "numAffected": 0, "numAtRisk": 2089}, {"groupId": "EG001", "numEvents": 1, "numAffected": 1, "numAtRisk": 2087}]}, {"term": "Gastroenteritis", "organSystem": "Infections and infestations", "sourceVocabulary": "MedDRA version 20.0", "assessmentType": "SYSTEMATIC_ASSESSMENT", "stats": [{"groupId": "EG000", "numEvents": 0, "numAffected": 0, "numAtRisk": 2089}, {"groupId": "EG001", "numEvents": 1, "numAffected": 1, "numAtRisk": 2087}]}, {"term": "Influenza", "organSystem": "Infections and infestations", "sourceVocabulary": "MedDRA version 20.0", "assessmentType": "SYSTEMATIC_ASSESSMENT", "stats": [{"groupId": "EG000", "numEvents": 0, "numAffected": 0, "numAtRisk": 2089}, {"groupId": "EG001", "numEvents": 1, "numAffected": 1, "numAtRisk": 2087}]}, {"term": "Lower respiratory tract infection", "organSystem": "Infections and infestations", "sourceVocabulary": "MedDRA version 20.0", "assessmentType": "SYSTEMATIC_ASSESSMENT", "stats": [{"groupId": "EG000", "numEvents": 1, "numAffected": 1, "numAtRisk": 2089}, {"groupId": "EG001", "numEvents": 0, "numAffected": 0, "numAtRisk": 2087}]}, {"term": "Pharyngitis", "organSystem": "Infections and infestations", "sourceVocabulary": "MedDRA version 20.0", "assessmentType": "SYSTEMATIC_ASSESSMENT", "stats": [{"groupId": "EG000", "numEvents": 0, "numAffected": 0, "numAtRisk": 2089}, {"groupId": "EG001", "numEvents": 1, "numAffected": 1, "numAtRisk": 2087}]}, {"term": "Pneumonia", "organSystem": "Infections and infestations", "sourceVocabulary": "MedDRA version 20.0", "assessmentType": "SYSTEMATIC_ASSESSMENT", "stats": [{"groupId": "EG000", "numEvents": 2, "numAffected": 2, "numAtRisk": 2089}, {"groupId": "EG001", "numEvents": 1, "numAffected": 1, "numAtRisk": 2087}]}, {"term": "Pneumonia bacterial", "organSystem": "Infections and infestations", "sourceVocabulary": "MedDRA version 20.0", "assessmentType": "SYSTEMATIC_ASSESSMENT", "stats": [{"groupId": "EG000", "numEvents": 1, "numAffected": 1, "numAtRisk": 2089}, {"groupId": "EG001", "numEvents": 2, "numAffected": 2, "numAtRisk": 2087}]}, {"term": "Pneumonia pneumococcal", "organSystem": "Infections and infestations", "sourceVocabulary": "MedDRA version 20.0", "assessmentType": "SYSTEMATIC_ASSESSMENT", "stats": [{"groupId": "EG000", "numEvents": 0, "numAffected": 0, "numAtRisk": 2089}, {"groupId": "EG001", "numEvents": 1, "numAffected": 1, "numAtRisk": 2087}]}, {"term": "Postoperative wound infection", "organSystem": "Infections and infestations", "sourceVocabulary": "MedDRA version 20.0", "assessmentType": "SYSTEMATIC_ASSESSMENT", "stats": [{"groupId": "EG000", "numEvents": 0, "numAffected": 0, "numAtRisk": 2089}, {"groupId": "EG001", "numEvents": 1, "numAffected": 1, "numAtRisk": 2087}]}, {"term": "Pyelonephritis acute", "organSystem": "Infections and infestations", "sourceVocabulary": "MedDRA version 20.0", "assessmentType": "SYSTEMATIC_ASSESSMENT", "stats": [{"groupId": "EG000", "numEvents": 1, "numAffected": 1, "numAtRisk": 2089}, {"groupId": "EG001", "numEvents": 0, "numAffected": 0, "numAtRisk": 2087}]}, {"term": "Sinusitis", "organSystem": "Infections and infestations", "sourceVocabulary": "MedDRA version 20.0", "assessmentType": "SYSTEMATIC_ASSESSMENT", "stats": [{"groupId": "EG000", "numEvents": 0, "numAffected": 0, "numAtRisk": 2089}, {"groupId": "EG001", "numEvents": 1, "numAffected": 1, "numAtRisk": 2087}]}, {"term": "Urinary tract infection", "organSystem": "Infections and infestations", "sourceVocabulary": "MedDRA version 20.0", "assessmentType": "SYSTEMATIC_ASSESSMENT", "stats": [{"groupId": "EG000", "numEvents": 0, "numAffected": 0, "numAtRisk": 2089}, {"groupId": "EG001", "numEvents": 1, "numAffected": 1, "numAtRisk": 2087}]}, {"term": "Urinary tract infection bacterial", "organSystem": "Infections and infestations", "sourceVocabulary": "MedDRA version 20.0", "assessmentType": "SYSTEMATIC_ASSESSMENT", "stats": [{"groupId": "EG000", "numEvents": 1, "numAffected": 1, "numAtRisk": 2089}, {"groupId": "EG001", "numEvents": 0, "numAffected": 0, "numAtRisk": 2087}]}, {"term": "Vestibular neuronitis", "organSystem": "Infections and infestations", "sourceVocabulary": "MedDRA version 20.0", "assessmentType": "SYSTEMATIC_ASSESSMENT", "stats": [{"groupId": "EG000", "numEvents": 0, "numAffected": 0, "numAtRisk": 2089}, {"groupId": "EG001", "numEvents": 1, "numAffected": 1, "numAtRisk": 2087}]}, {"term": "Benign neoplasm of skin", "organSystem": "Neoplasms benign, malignant and unspecified (incl cysts and polyps)", "sourceVocabulary": "MedDRA version 20.0", "assessmentType": "SYSTEMATIC_ASSESSMENT", "stats": [{"groupId": "EG000", "numEvents": 0, "numAffected": 0, "numAtRisk": 2089}, {"groupId": "EG001", "numEvents": 1, "numAffected": 1, "numAtRisk": 2087}]}, {"term": "Breast cancer female", "organSystem": "Neoplasms benign, malignant and unspecified (incl cysts and polyps)", "sourceVocabulary": "MedDRA version 20.0", "assessmentType": "SYSTEMATIC_ASSESSMENT", "stats": [{"groupId": "EG000", "numEvents": 1, "numAffected": 1, "numAtRisk": 2089}, {"groupId": "EG001", "numEvents": 0, "numAffected": 0, "numAtRisk": 2087}]}, {"term": "Cervix carcinoma", "organSystem": "Neoplasms benign, malignant and unspecified (incl cysts and polyps)", "sourceVocabulary": "MedDRA version 20.0", "assessmentType": "SYSTEMATIC_ASSESSMENT", "stats": [{"groupId": "EG000", "numEvents": 0, "numAffected": 0, "numAtRisk": 2089}, {"groupId": "EG001", "numEvents": 1, "numAffected": 1, "numAtRisk": 2087}]}, {"term": "Fibroadenoma of breast", "organSystem": "Neoplasms benign, malignant and unspecified (incl cysts and polyps)", "sourceVocabulary": "MedDRA version 20.0", "assessmentType": "SYSTEMATIC_ASSESSMENT", "stats": [{"groupId": "EG000", "numEvents": 1, "numAffected": 1, "numAtRisk": 2089}, {"groupId": "EG001", "numEvents": 0, "numAffected": 0, "numAtRisk": 2087}]}, {"term": "Sebaceous adenoma", "organSystem": "Neoplasms benign, malignant and unspecified (incl cysts and polyps)", "sourceVocabulary": "MedDRA version 20.0", "assessmentType": "SYSTEMATIC_ASSESSMENT", "stats": [{"groupId": "EG000", "numEvents": 1, "numAffected": 1, "numAtRisk": 2089}, {"groupId": "EG001", "numEvents": 0, "numAffected": 0, "numAtRisk": 2087}]}, {"term": "Seborrhoeic keratosis", "organSystem": "Neoplasms benign, malignant and unspecified (incl cysts and polyps)", "sourceVocabulary": "MedDRA version 20.0", "assessmentType": "SYSTEMATIC_ASSESSMENT", "stats": [{"groupId": "EG000", "numEvents": 1, "numAffected": 1, "numAtRisk": 2089}, {"groupId": "EG001", "numEvents": 0, "numAffected": 0, "numAtRisk": 2087}]}, {"term": "Uterine leiomyoma", "organSystem": "Neoplasms benign, malignant and unspecified (incl cysts and polyps)", "sourceVocabulary": "MedDRA version 20.0", "assessmentType": "SYSTEMATIC_ASSESSMENT", "stats": [{"groupId": "EG000", "numEvents": 0, "numAffected": 0, "numAtRisk": 2089}, {"groupId": "EG001", "numEvents": 2, "numAffected": 2, "numAtRisk": 2087}]}, {"term": "Anaphylactic reaction", "organSystem": "Immune system disorders", "sourceVocabulary": "MedDRA version 20.0", "assessmentType": "SYSTEMATIC_ASSESSMENT", "stats": [{"groupId": "EG000", "numEvents": 0, "numAffected": 0, "numAtRisk": 2089}, {"groupId": "EG001", "numEvents": 1, "numAffected": 1, "numAtRisk": 2087}]}, {"term": "Drug hypersensitivity", "organSystem": "Immune system disorders", "sourceVocabulary": "MedDRA version 20.0", "assessmentType": "SYSTEMATIC_ASSESSMENT", "stats": [{"groupId": "EG000", "numEvents": 0, "numAffected": 0, "numAtRisk": 2089}, {"groupId": "EG001", "numEvents": 1, "numAffected": 1, "numAtRisk": 2087}]}, {"term": "Diabetes mellitus inadequate control", "organSystem": "Metabolism and nutrition disorders", "sourceVocabulary": "MedDRA version 20.0", "assessmentType": "SYSTEMATIC_ASSESSMENT", "stats": [{"groupId": "EG000", "numEvents": 0, "numAffected": 0, "numAtRisk": 2089}, {"groupId": "EG001", "numEvents": 1, "numAffected": 1, "numAtRisk": 2087}]}, {"term": "Depression", "organSystem": "Psychiatric disorders", "sourceVocabulary": "MedDRA version 20.0", "assessmentType": "SYSTEMATIC_ASSESSMENT", "stats": [{"groupId": "EG000", "numEvents": 1, "numAffected": 1, "numAtRisk": 2089}, {"groupId": "EG001", "numEvents": 0, "numAffected": 0, "numAtRisk": 2087}]}, {"term": "Carpal tunnel syndrome", "organSystem": "Nervous system disorders", "sourceVocabulary": "MedDRA version 20.0", "assessmentType": "SYSTEMATIC_ASSESSMENT", "stats": [{"groupId": "EG000", "numEvents": 0, "numAffected": 0, "numAtRisk": 2089}, {"groupId": "EG001", "numEvents": 1, "numAffected": 1, "numAtRisk": 2087}]}, {"term": "Epilepsy", "organSystem": "Nervous system disorders", "sourceVocabulary": "MedDRA version 20.0", "assessmentType": "SYSTEMATIC_ASSESSMENT", "stats": [{"groupId": "EG000", "numEvents": 0, "numAffected": 0, "numAtRisk": 2089}, {"groupId": "EG001", "numEvents": 1, "numAffected": 1, "numAtRisk": 2087}]}, {"term": "Headache", "organSystem": "Nervous system disorders", "sourceVocabulary": "MedDRA version 20.0", "assessmentType": "SYSTEMATIC_ASSESSMENT", "stats": [{"groupId": "EG000", "numEvents": 2, "numAffected": 1, "numAtRisk": 2089}, {"groupId": "EG001", "numEvents": 1, "numAffected": 1, "numAtRisk": 2087}]}, {"term": "Lumbar radiculopathy", "organSystem": "Nervous system disorders", "sourceVocabulary": "MedDRA version 20.0", "assessmentType": "SYSTEMATIC_ASSESSMENT", "stats": [{"groupId": "EG000", "numEvents": 1, "numAffected": 1, "numAtRisk": 2089}, {"groupId": "EG001", "numEvents": 0, "numAffected": 0, "numAtRisk": 2087}]}, {"term": "Radiculopathy", "organSystem": "Nervous system disorders", "sourceVocabulary": "MedDRA version 20.0", "assessmentType": "SYSTEMATIC_ASSESSMENT", "stats": [{"groupId": "EG000", "numEvents": 0, "numAffected": 0, "numAtRisk": 2089}, {"groupId": "EG001", "numEvents": 1, "numAffected": 1, "numAtRisk": 2087}]}, {"term": "Transient ischaemic attack", "organSystem": "Nervous system disorders", "sourceVocabulary": "MedDRA version 20.0", "assessmentType": "SYSTEMATIC_ASSESSMENT", "stats": [{"groupId": "EG000", "numEvents": 0, "numAffected": 0, "numAtRisk": 2089}, {"groupId": "EG001", "numEvents": 1, "numAffected": 1, "numAtRisk": 2087}]}, {"term": "Cataract", "organSystem": "Eye disorders", "sourceVocabulary": "MedDRA version 20.0", "assessmentType": "SYSTEMATIC_ASSESSMENT", "stats": [{"groupId": "EG000", "numEvents": 2, "numAffected": 2, "numAtRisk": 2089}, {"groupId": "EG001", "numEvents": 0, "numAffected": 0, "numAtRisk": 2087}]}, {"term": "Visual impairment", "organSystem": "Eye disorders", "sourceVocabulary": "MedDRA version 20.0", "assessmentType": "SYSTEMATIC_ASSESSMENT", "stats": [{"groupId": "EG000", "numEvents": 1, "numAffected": 1, "numAtRisk": 2089}, {"groupId": "EG001", "numEvents": 1, "numAffected": 1, "numAtRisk": 2087}]}, {"term": "Deafness neurosensory", "organSystem": "Ear and labyrinth disorders", "sourceVocabulary": "MedDRA version 20.0", "assessmentType": "SYSTEMATIC_ASSESSMENT", "stats": [{"groupId": "EG000", "numEvents": 0, "numAffected": 0, "numAtRisk": 2089}, {"groupId": "EG001", "numEvents": 1, "numAffected": 1, "numAtRisk": 2087}]}, {"term": "Adams-Stokes syndrome", "organSystem": "Cardiac disorders", "sourceVocabulary": "MedDRA version 20.0", "assessmentType": "SYSTEMATIC_ASSESSMENT", "stats": [{"groupId": "EG000", "numEvents": 0, "numAffected": 0, "numAtRisk": 2089}, {"groupId": "EG001", "numEvents": 1, "numAffected": 1, "numAtRisk": 2087}]}, {"term": "Angina unstable", "organSystem": "Cardiac disorders", "sourceVocabulary": "MedDRA version 20.0", "assessmentType": "SYSTEMATIC_ASSESSMENT", "stats": [{"groupId": "EG000", "numEvents": 1, "numAffected": 1, "numAtRisk": 2089}, {"groupId": "EG001", "numEvents": 1, "numAffected": 1, "numAtRisk": 2087}]}, {"term": "Atrial fibrilation", "organSystem": "Cardiac disorders", "sourceVocabulary": "MedDRA version 20.0", "assessmentType": "SYSTEMATIC_ASSESSMENT", "stats": [{"groupId": "EG000", "numEvents": 0, "numAffected": 0, "numAtRisk": 2089}, {"groupId": "EG001", "numEvents": 2, "numAffected": 2, "numAtRisk": 2087}]}, {"term": "Atrioventricular block complete", "organSystem": "Cardiac disorders", "sourceVocabulary": "MedDRA version 20.0", "assessmentType": "SYSTEMATIC_ASSESSMENT", "stats": [{"groupId": "EG000", "numEvents": 0, "numAffected": 0, "numAtRisk": 2089}, {"groupId": "EG001", "numEvents": 1, "numAffected": 1, "numAtRisk": 2087}]}, {"term": "Cardio-respiratory arrest", "organSystem": "Cardiac disorders", "sourceVocabulary": "MedDRA version 20.0", "assessmentType": "SYSTEMATIC_ASSESSMENT", "stats": [{"groupId": "EG000", "numEvents": 1, "numAffected": 1, "numAtRisk": 2089}, {"groupId": "EG001", "numEvents": 0, "numAffected": 0, "numAtRisk": 2087}]}, {"term": "Cardiomyopathy", "organSystem": "Cardiac disorders", "sourceVocabulary": "MedDRA version 20.0", "assessmentType": "SYSTEMATIC_ASSESSMENT", "stats": [{"groupId": "EG000", "numEvents": 1, "numAffected": 1, "numAtRisk": 2089}, {"groupId": "EG001", "numEvents": 0, "numAffected": 0, "numAtRisk": 2087}]}, {"term": "Degenerative aortic valve disease", "organSystem": "Cardiac disorders", "sourceVocabulary": "MedDRA version 20.0", "assessmentType": "SYSTEMATIC_ASSESSMENT", "stats": [{"groupId": "EG000", "numEvents": 1, "numAffected": 1, "numAtRisk": 2089}, {"groupId": "EG001", "numEvents": 0, "numAffected": 0, "numAtRisk": 2087}]}, {"term": "Hypertension", "organSystem": "Vascular disorders", "sourceVocabulary": "MedDRA version 20.0", "assessmentType": "SYSTEMATIC_ASSESSMENT", "stats": [{"groupId": "EG000", "numEvents": 2, "numAffected": 2, "numAtRisk": 2089}, {"groupId": "EG001", "numEvents": 0, "numAffected": 0, "numAtRisk": 2087}]}, {"term": "Hypertensive crisis", "organSystem": "Vascular disorders", "sourceVocabulary": "MedDRA version 20.0", "assessmentType": "SYSTEMATIC_ASSESSMENT", "stats": [{"groupId": "EG000", "numEvents": 1, "numAffected": 1, "numAtRisk": 2089}, {"groupId": "EG001", "numEvents": 1, "numAffected": 1, "numAtRisk": 2087}]}, {"term": "Peripheral arterial occlusive disease", "organSystem": "Vascular disorders", "sourceVocabulary": "MedDRA version 20.0", "assessmentType": "SYSTEMATIC_ASSESSMENT", "stats": [{"groupId": "EG000", "numEvents": 0, "numAffected": 0, "numAtRisk": 2089}, {"groupId": "EG001", "numEvents": 1, "numAffected": 1, "numAtRisk": 2087}]}, {"term": "Thrombophlebitis", "organSystem": "Vascular disorders", "sourceVocabulary": "MedDRA version 20.0", "assessmentType": "SYSTEMATIC_ASSESSMENT", "stats": [{"groupId": "EG000", "numEvents": 1, "numAffected": 1, "numAtRisk": 2089}, {"groupId": "EG001", "numEvents": 0, "numAffected": 0, "numAtRisk": 2087}]}, {"term": "Asthma", "organSystem": "Respiratory, thoracic and mediastinal disorders", "sourceVocabulary": "MedDRA version 20.0", "assessmentType": "SYSTEMATIC_ASSESSMENT", "stats": [{"groupId": "EG000", "numEvents": 20, "numAffected": 17, "numAtRisk": 2089}, {"groupId": "EG001", "numEvents": 17, "numAffected": 17, "numAtRisk": 2087}]}, {"term": "Nasal polyps", "organSystem": "Respiratory, thoracic and mediastinal disorders", "sourceVocabulary": "MedDRA version 20.0", "assessmentType": "SYSTEMATIC_ASSESSMENT", "stats": [{"groupId": "EG000", "numEvents": 1, "numAffected": 1, "numAtRisk": 2089}, {"groupId": "EG001", "numEvents": 1, "numAffected": 1, "numAtRisk": 2087}]}, {"term": "Nasal turbinate hypertrophy", "organSystem": "Respiratory, thoracic and mediastinal disorders", "sourceVocabulary": "MedDRA version 20.0", "assessmentType": "SYSTEMATIC_ASSESSMENT", "stats": [{"groupId": "EG000", "numEvents": 1, "numAffected": 1, "numAtRisk": 2089}, {"groupId": "EG001", "numEvents": 0, "numAffected": 0, "numAtRisk": 2087}]}, {"term": "Pneumothorax", "organSystem": "Respiratory, thoracic and mediastinal disorders", "sourceVocabulary": "MedDRA version 20.0", "assessmentType": "SYSTEMATIC_ASSESSMENT", "stats": [{"groupId": "EG000", "numEvents": 2, "numAffected": 1, "numAtRisk": 2089}, {"groupId": "EG001", "numEvents": 0, "numAffected": 0, "numAtRisk": 2087}]}, {"term": "Vocal cord polyp", "organSystem": "Respiratory, thoracic and mediastinal disorders", "sourceVocabulary": "MedDRA version 20.0", "assessmentType": "SYSTEMATIC_ASSESSMENT", "stats": [{"groupId": "EG000", "numEvents": 1, "numAffected": 1, "numAtRisk": 2089}, {"groupId": "EG001", "numEvents": 0, "numAffected": 0, "numAtRisk": 2087}]}, {"term": "Abdominal pain", "organSystem": "Gastrointestinal disorders", "sourceVocabulary": "MedDRA version 20.0", "assessmentType": "SYSTEMATIC_ASSESSMENT", "stats": [{"groupId": "EG000", "numEvents": 0, "numAffected": 0, "numAtRisk": 2089}, {"groupId": "EG001", "numEvents": 1, "numAffected": 1, "numAtRisk": 2087}]}, {"term": "Biliary colic", "organSystem": "Hepatobiliary disorders", "sourceVocabulary": "MedDRA version 20.0", "assessmentType": "SYSTEMATIC_ASSESSMENT", "stats": [{"groupId": "EG000", "numEvents": 0, "numAffected": 0, "numAtRisk": 2089}, {"groupId": "EG001", "numEvents": 1, "numAffected": 1, "numAtRisk": 2087}]}, {"term": "Cholecystitis", "organSystem": "Hepatobiliary disorders", "sourceVocabulary": "MedDRA version 20.0", "assessmentType": "SYSTEMATIC_ASSESSMENT", "stats": [{"groupId": "EG000", "numEvents": 1, "numAffected": 1, "numAtRisk": 2089}, {"groupId": "EG001", "numEvents": 0, "numAffected": 0, "numAtRisk": 2087}]}, {"term": "Cholecystitis acute", "organSystem": "Hepatobiliary disorders", "sourceVocabulary": "MedDRA version 20.0", "assessmentType": "SYSTEMATIC_ASSESSMENT", "stats": [{"groupId": "EG000", "numEvents": 0, "numAffected": 0, "numAtRisk": 2089}, {"groupId": "EG001", "numEvents": 2, "numAffected": 1, "numAtRisk": 2087}]}, {"term": "Hydrocholecystitis", "organSystem": "Hepatobiliary disorders", "sourceVocabulary": "MedDRA version 20.0", "assessmentType": "SYSTEMATIC_ASSESSMENT", "stats": [{"groupId": "EG000", "numEvents": 0, "numAffected": 0, "numAtRisk": 2089}, {"groupId": "EG001", "numEvents": 1, "numAffected": 1, "numAtRisk": 2087}]}, {"term": "Sphincter of Oddi dysfunction", "organSystem": "Hepatobiliary disorders", "sourceVocabulary": "MedDRA version 20.0", "assessmentType": "SYSTEMATIC_ASSESSMENT", "stats": [{"groupId": "EG000", "numEvents": 0, "numAffected": 0, "numAtRisk": 2089}, {"groupId": "EG001", "numEvents": 1, "numAffected": 1, "numAtRisk": 2087}]}, {"term": "Angioedema", "organSystem": "Skin and subcutaneous tissue disorders", "sourceVocabulary": "MedDRA version 20.0", "assessmentType": "SYSTEMATIC_ASSESSMENT", "stats": [{"groupId": "EG000", "numEvents": 1, "numAffected": 1, "numAtRisk": 2089}, {"groupId": "EG001", "numEvents": 0, "numAffected": 0, "numAtRisk": 2087}]}, {"term": "Hirsutism", "organSystem": "Skin and subcutaneous tissue disorders", "sourceVocabulary": "MedDRA version 20.0", "assessmentType": "SYSTEMATIC_ASSESSMENT", "stats": [{"groupId": "EG000", "numEvents": 1, "numAffected": 1, "numAtRisk": 2089}, {"groupId": "EG001", "numEvents": 0, "numAffected": 0, "numAtRisk": 2087}]}, {"term": "Back pain", "organSystem": "Musculoskeletal and connective tissue disorders", "sourceVocabulary": "MedDRA version 20.0", "assessmentType": "SYSTEMATIC_ASSESSMENT", "stats": [{"groupId": "EG000", "numEvents": 1, "numAffected": 1, "numAtRisk": 2089}, {"groupId": "EG001", "numEvents": 0, "numAffected": 0, "numAtRisk": 2087}]}, {"term": "Intervertebral disc protusion", "organSystem": "Musculoskeletal and connective tissue disorders", "sourceVocabulary": "MedDRA version 20.0", "assessmentType": "SYSTEMATIC_ASSESSMENT", "stats": [{"groupId": "EG000", "numEvents": 0, "numAffected": 0, "numAtRisk": 2089}, {"groupId": "EG001", "numEvents": 2, "numAffected": 2, "numAtRisk": 2087}]}, {"term": "Osteoarthritis", "organSystem": "Musculoskeletal and connective tissue disorders", "sourceVocabulary": "MedDRA version 20.0", "assessmentType": "SYSTEMATIC_ASSESSMENT", "stats": [{"groupId": "EG000", "numEvents": 1, "numAffected": 1, "numAtRisk": 2089}, {"groupId": "EG001", "numEvents": 2, "numAffected": 2, "numAtRisk": 2087}]}, {"term": "Rotator cuff syndrome", "organSystem": "Musculoskeletal and connective tissue disorders", "sourceVocabulary": "MedDRA version 20.0", "assessmentType": "SYSTEMATIC_ASSESSMENT", "stats": [{"groupId": "EG000", "numEvents": 1, "numAffected": 1, "numAtRisk": 2089}, {"groupId": "EG001", "numEvents": 0, "numAffected": 0, "numAtRisk": 2087}]}, {"term": "Spinal osteoarthritis", "organSystem": "Musculoskeletal and connective tissue disorders", "sourceVocabulary": "MedDRA version 20.0", "assessmentType": "SYSTEMATIC_ASSESSMENT", "stats": [{"groupId": "EG000", "numEvents": 1, "numAffected": 1, "numAtRisk": 2089}, {"groupId": "EG001", "numEvents": 0, "numAffected": 0, "numAtRisk": 2087}]}, {"term": "Haemorrhoidal haemorrhage", "organSystem": "Gastrointestinal disorders", "sourceVocabulary": "MedDRA version 20.0", "assessmentType": "SYSTEMATIC_ASSESSMENT", "stats": [{"groupId": "EG000", "numEvents": 1, "numAffected": 1, "numAtRisk": 2089}, {"groupId": "EG001", "numEvents": 0, "numAffected": 0, "numAtRisk": 2087}]}, {"term": "Incarcerated umbilical hernia", "organSystem": "Gastrointestinal disorders", "sourceVocabulary": "MedDRA version 20.0", "assessmentType": "SYSTEMATIC_ASSESSMENT", "stats": [{"groupId": "EG000", "numEvents": 0, "numAffected": 0, "numAtRisk": 2089}, {"groupId": "EG001", "numEvents": 1, "numAffected": 1, "numAtRisk": 2087}]}, {"term": "Inguinal hernia", "organSystem": "Gastrointestinal disorders", "sourceVocabulary": "MedDRA version 20.0", "assessmentType": "SYSTEMATIC_ASSESSMENT", "stats": [{"groupId": "EG000", "numEvents": 0, "numAffected": 0, "numAtRisk": 2089}, {"groupId": "EG001", "numEvents": 1, "numAffected": 1, "numAtRisk": 2087}]}, {"term": "Cholelithiasis", "organSystem": "Hepatobiliary disorders", "sourceVocabulary": "MedDRA version 20.0", "assessmentType": "SYSTEMATIC_ASSESSMENT", "stats": [{"groupId": "EG000", "numEvents": 0, "numAffected": 0, "numAtRisk": 2089}, {"groupId": "EG001", "numEvents": 1, "numAffected": 1, "numAtRisk": 2087}]}, {"term": "Cystistis interstitial", "organSystem": "Renal and urinary disorders", "sourceVocabulary": "MedDRA version 20.0", "assessmentType": "SYSTEMATIC_ASSESSMENT", "stats": [{"groupId": "EG000", "numEvents": 0, "numAffected": 0, "numAtRisk": 2089}, {"groupId": "EG001", "numEvents": 1, "numAffected": 1, "numAtRisk": 2087}]}, {"term": "Ureteric stenosis", "organSystem": "Renal and urinary disorders", "sourceVocabulary": "MedDRA version 20.0", "assessmentType": "SYSTEMATIC_ASSESSMENT", "stats": [{"groupId": "EG000", "numEvents": 1, "numAffected": 1, "numAtRisk": 2089}, {"groupId": "EG001", "numEvents": 0, "numAffected": 0, "numAtRisk": 2087}]}, {"term": "Adenomyosis", "organSystem": "Reproductive system and breast disorders", "sourceVocabulary": "MedDRA version 20.0", "assessmentType": "SYSTEMATIC_ASSESSMENT", "stats": [{"groupId": "EG000", "numEvents": 0, "numAffected": 0, "numAtRisk": 2089}, {"groupId": "EG001", "numEvents": 1, "numAffected": 1, "numAtRisk": 2087}]}, {"term": "Breast mass", "organSystem": "Reproductive system and breast disorders", "sourceVocabulary": "MedDRA version 20.0", "assessmentType": "SYSTEMATIC_ASSESSMENT", "stats": [{"groupId": "EG000", "numEvents": 0, "numAffected": 0, "numAtRisk": 2089}, {"groupId": "EG001", "numEvents": 1, "numAffected": 1, "numAtRisk": 2087}]}, {"term": "Endometrial hyperplasia", "organSystem": "Reproductive system and breast disorders", "sourceVocabulary": "MedDRA version 20.0", "assessmentType": "SYSTEMATIC_ASSESSMENT", "stats": [{"groupId": "EG000", "numEvents": 0, "numAffected": 0, "numAtRisk": 2089}, {"groupId": "EG001", "numEvents": 1, "numAffected": 1, "numAtRisk": 2087}]}, {"term": "Endometriosis", "organSystem": "Reproductive system and breast disorders", "sourceVocabulary": "MedDRA version 20.0", "assessmentType": "SYSTEMATIC_ASSESSMENT", "stats": [{"groupId": "EG000", "numEvents": 0, "numAffected": 0, "numAtRisk": 2089}, {"groupId": "EG001", "numEvents": 1, "numAffected": 1, "numAtRisk": 2087}]}, {"term": "Menorrhagia", "organSystem": "Reproductive system and breast disorders", "sourceVocabulary": "MedDRA version 20.0", "assessmentType": "SYSTEMATIC_ASSESSMENT", "stats": [{"groupId": "EG000", "numEvents": 1, "numAffected": 1, "numAtRisk": 2089}, {"groupId": "EG001", "numEvents": 0, "numAffected": 0, "numAtRisk": 2087}]}, {"term": "Prostatitis", "organSystem": "Reproductive system and breast disorders", "sourceVocabulary": "MedDRA version 20.0", "assessmentType": "SYSTEMATIC_ASSESSMENT", "stats": [{"groupId": "EG000", "numEvents": 0, "numAffected": 0, "numAtRisk": 2089}, {"groupId": "EG001", "numEvents": 1, "numAffected": 1, "numAtRisk": 2087}]}, {"term": "Rectocele", "organSystem": "Reproductive system and breast disorders", "sourceVocabulary": "MedDRA version 20.0", "assessmentType": "SYSTEMATIC_ASSESSMENT", "stats": [{"groupId": "EG000", "numEvents": 1, "numAffected": 1, "numAtRisk": 2089}, {"groupId": "EG001", "numEvents": 0, "numAffected": 0, "numAtRisk": 2087}]}, {"term": "Uterine polyp", "organSystem": "Reproductive system and breast disorders", "sourceVocabulary": "MedDRA version 20.0", "assessmentType": "SYSTEMATIC_ASSESSMENT", "stats": [{"groupId": "EG000", "numEvents": 0, "numAffected": 0, "numAtRisk": 2089}, {"groupId": "EG001", "numEvents": 1, "numAffected": 1, "numAtRisk": 2087}]}, {"term": "Abdominal injury", "organSystem": "Injury, poisoning and procedural complications", "sourceVocabulary": "MedDRA version 20.0", "assessmentType": "SYSTEMATIC_ASSESSMENT", "stats": [{"groupId": "EG000", "numEvents": 0, "numAffected": 0, "numAtRisk": 2089}, {"groupId": "EG001", "numEvents": 1, "numAffected": 1, "numAtRisk": 2087}]}, {"term": "Ankle fracture", "organSystem": "Injury, poisoning and procedural complications", "sourceVocabulary": "MedDRA version 20.0", "assessmentType": "SYSTEMATIC_ASSESSMENT", "stats": [{"groupId": "EG000", "numEvents": 1, "numAffected": 1, "numAtRisk": 2089}, {"groupId": "EG001", "numEvents": 1, "numAffected": 1, "numAtRisk": 2087}]}, {"term": "Arthropod bite", "organSystem": "Injury, poisoning and procedural complications", "sourceVocabulary": "MedDRA version 20.0", "assessmentType": "SYSTEMATIC_ASSESSMENT", "stats": [{"groupId": "EG000", "numEvents": 0, "numAffected": 0, "numAtRisk": 2089}, {"groupId": "EG001", "numEvents": 1, "numAffected": 1, "numAtRisk": 2087}]}, {"term": "Contusion", "organSystem": "Injury, poisoning and procedural complications", "sourceVocabulary": "MedDRA version 20.0", "assessmentType": "SYSTEMATIC_ASSESSMENT", "stats": [{"groupId": "EG000", "numEvents": 1, "numAffected": 1, "numAtRisk": 2089}, {"groupId": "EG001", "numEvents": 0, "numAffected": 0, "numAtRisk": 2087}]}, {"term": "Femur fracture", "organSystem": "Injury, poisoning and procedural complications", "sourceVocabulary": "MedDRA version 20.0", "assessmentType": "SYSTEMATIC_ASSESSMENT", "stats": [{"groupId": "EG000", "numEvents": 1, "numAffected": 1, "numAtRisk": 2089}, {"groupId": "EG001", "numEvents": 0, "numAffected": 0, "numAtRisk": 2087}]}, {"term": "Fracture", "organSystem": "Injury, poisoning and procedural complications", "sourceVocabulary": "MedDRA version 20.0", "assessmentType": "SYSTEMATIC_ASSESSMENT", "stats": [{"groupId": "EG000", "numEvents": 0, "numAffected": 0, "numAtRisk": 2089}, {"groupId": "EG001", "numEvents": 2, "numAffected": 2, "numAtRisk": 2087}]}, {"term": "Hand fracture", "organSystem": "Injury, poisoning and procedural complications", "sourceVocabulary": "MedDRA version 20.0", "assessmentType": "SYSTEMATIC_ASSESSMENT", "stats": [{"groupId": "EG000", "numEvents": 0, "numAffected": 0, "numAtRisk": 2089}, {"groupId": "EG001", "numEvents": 1, "numAffected": 1, "numAtRisk": 2087}]}, {"term": "Head injury", "organSystem": "Injury, poisoning and procedural complications", "sourceVocabulary": "MedDRA version 20.0", "assessmentType": "SYSTEMATIC_ASSESSMENT", "stats": [{"groupId": "EG000", "numEvents": 1, "numAffected": 1, "numAtRisk": 2089}, {"groupId": "EG001", "numEvents": 1, "numAffected": 1, "numAtRisk": 2087}]}, {"term": "Humerus fracture", "organSystem": "Injury, poisoning and procedural complications", "sourceVocabulary": "MedDRA version 20.0", "assessmentType": "SYSTEMATIC_ASSESSMENT", "stats": [{"groupId": "EG000", "numEvents": 1, "numAffected": 1, "numAtRisk": 2089}, {"groupId": "EG001", "numEvents": 0, "numAffected": 0, "numAtRisk": 2087}]}, {"term": "Ligament injury", "organSystem": "Injury, poisoning and procedural complications", "sourceVocabulary": "MedDRA version 20.0", "assessmentType": "SYSTEMATIC_ASSESSMENT", "stats": [{"groupId": "EG000", "numEvents": 1, "numAffected": 1, "numAtRisk": 2089}, {"groupId": "EG001", "numEvents": 0, "numAffected": 0, "numAtRisk": 2087}]}, {"term": "Limb injury", "organSystem": "Injury, poisoning and procedural complications", "sourceVocabulary": "MedDRA version 20.0", "assessmentType": "SYSTEMATIC_ASSESSMENT", "stats": [{"groupId": "EG000", "numEvents": 1, "numAffected": 1, "numAtRisk": 2089}, {"groupId": "EG001", "numEvents": 0, "numAffected": 0, "numAtRisk": 2087}]}, {"term": "Lower limb fracture", "organSystem": "Injury, poisoning and procedural complications", "sourceVocabulary": "MedDRA version 20.0", "assessmentType": "SYSTEMATIC_ASSESSMENT", "stats": [{"groupId": "EG000", "numEvents": 0, "numAffected": 0, "numAtRisk": 2089}, {"groupId": "EG001", "numEvents": 1, "numAffected": 1, "numAtRisk": 2087}]}, {"term": "Lumbosacral plexus injury", "organSystem": "Injury, poisoning and procedural complications", "sourceVocabulary": "MedDRA version 20.0", "assessmentType": "SYSTEMATIC_ASSESSMENT", "stats": [{"groupId": "EG000", "numEvents": 0, "numAffected": 0, "numAtRisk": 2089}, {"groupId": "EG001", "numEvents": 1, "numAffected": 1, "numAtRisk": 2087}]}, {"term": "Post procedural complication", "organSystem": "Injury, poisoning and procedural complications", "sourceVocabulary": "MedDRA version 20.0", "assessmentType": "SYSTEMATIC_ASSESSMENT", "stats": [{"groupId": "EG000", "numEvents": 1, "numAffected": 1, "numAtRisk": 2089}, {"groupId": "EG001", "numEvents": 0, "numAffected": 0, "numAtRisk": 2087}]}, {"term": "Post procedural swelling", "organSystem": "Injury, poisoning and procedural complications", "sourceVocabulary": "MedDRA version 20.0", "assessmentType": "SYSTEMATIC_ASSESSMENT", "stats": [{"groupId": "EG000", "numEvents": 0, "numAffected": 0, "numAtRisk": 2089}, {"groupId": "EG001", "numEvents": 1, "numAffected": 1, "numAtRisk": 2087}]}, {"term": "Radius fracture", "organSystem": "Injury, poisoning and procedural complications", "sourceVocabulary": "MedDRA version 20.0", "assessmentType": "SYSTEMATIC_ASSESSMENT", "stats": [{"groupId": "EG000", "numEvents": 1, "numAffected": 1, "numAtRisk": 2089}, {"groupId": "EG001", "numEvents": 1, "numAffected": 1, "numAtRisk": 2087}]}, {"term": "Rib fracture", "organSystem": "Injury, poisoning and procedural complications", "sourceVocabulary": "MedDRA version 20.0", "assessmentType": "SYSTEMATIC_ASSESSMENT", "stats": [{"groupId": "EG000", "numEvents": 1, "numAffected": 1, "numAtRisk": 2089}, {"groupId": "EG001", "numEvents": 0, "numAffected": 0, "numAtRisk": 2087}]}, {"term": "Road traffic accident", "organSystem": "Injury, poisoning and procedural complications", "sourceVocabulary": "MedDRA version 20.0", "assessmentType": "SYSTEMATIC_ASSESSMENT", "stats": [{"groupId": "EG000", "numEvents": 1, "numAffected": 1, "numAtRisk": 2089}, {"groupId": "EG001", "numEvents": 1, "numAffected": 1, "numAtRisk": 2087}]}, {"term": "Subarachnoid haemorrhage", "organSystem": "Injury, poisoning and procedural complications", "sourceVocabulary": "MedDRA version 20.0", "assessmentType": "SYSTEMATIC_ASSESSMENT", "stats": [{"groupId": "EG000", "numEvents": 0, "numAffected": 0, "numAtRisk": 2089}, {"groupId": "EG001", "numEvents": 1, "numAffected": 1, "numAtRisk": 2087}]}, {"term": "Subdural haematoma", "organSystem": "Injury, poisoning and procedural complications", "sourceVocabulary": "MedDRA version 20.0", "assessmentType": "SYSTEMATIC_ASSESSMENT", "stats": [{"groupId": "EG000", "numEvents": 1, "numAffected": 1, "numAtRisk": 2089}, {"groupId": "EG001", "numEvents": 0, "numAffected": 0, "numAtRisk": 2087}]}, {"term": "Tendon rupture", "organSystem": "Injury, poisoning and procedural complications", "sourceVocabulary": "MedDRA version 20.0", "assessmentType": "SYSTEMATIC_ASSESSMENT", "stats": [{"groupId": "EG000", "numEvents": 0, "numAffected": 0, "numAtRisk": 2089}, {"groupId": "EG001", "numEvents": 1, "numAffected": 1, "numAtRisk": 2087}]}, {"term": "Upper limb fracture", "organSystem": "Injury, poisoning and procedural complications", "sourceVocabulary": "MedDRA version 20.0", "assessmentType": "SYSTEMATIC_ASSESSMENT", "stats": [{"groupId": "EG000", "numEvents": 1, "numAffected": 1, "numAtRisk": 2089}, {"groupId": "EG001", "numEvents": 0, "numAffected": 0, "numAtRisk": 2087}]}, {"term": "Wrist fracture", "organSystem": "Injury, poisoning and procedural complications", "sourceVocabulary": "MedDRA version 20.0", "assessmentType": "SYSTEMATIC_ASSESSMENT", "stats": [{"groupId": "EG000", "numEvents": 1, "numAffected": 1, "numAtRisk": 2089}, {"groupId": "EG001", "numEvents": 0, "numAffected": 0, "numAtRisk": 2087}]}], "otherEvents": [{"term": "Viral upper respiratory tract infection", "organSystem": "Infections and infestations", "sourceVocabulary": "MedDRA version 20.0", "assessmentType": "SYSTEMATIC_ASSESSMENT", "stats": [{"groupId": "EG000", "numEvents": 188, "numAffected": 155, "numAtRisk": 2089}, {"groupId": "EG001", "numEvents": 206, "numAffected": 168, "numAtRisk": 2087}]}, {"term": "Asthma", "organSystem": "Respiratory, thoracic and mediastinal disorders", "sourceVocabulary": "MedDRA version 20.0", "assessmentType": "SYSTEMATIC_ASSESSMENT", "stats": [{"groupId": "EG000", "numEvents": 95, "numAffected": 81, "numAtRisk": 2089}, {"groupId": "EG001", "numEvents": 96, "numAffected": 84, "numAtRisk": 2087}]}, {"term": "Headache", "organSystem": "Nervous system disorders", "sourceVocabulary": "MedDRA version 20.0", "assessmentType": "SYSTEMATIC_ASSESSMENT", "stats": [{"groupId": "EG000", "numEvents": 69, "numAffected": 51, "numAtRisk": 2089}, {"groupId": "EG001", "numEvents": 68, "numAffected": 50, "numAtRisk": 2087}]}, {"term": "Bronchitis", "organSystem": "Infections and infestations", "sourceVocabulary": "MedDRA version 20.0", "assessmentType": "SYSTEMATIC_ASSESSMENT", "stats": [{"groupId": "EG000", "numEvents": 70, "numAffected": 64, "numAtRisk": 2089}, {"groupId": "EG001", "numEvents": 83, "numAffected": 78, "numAtRisk": 2087}]}, {"term": "Upper respiratory tract infection", "organSystem": "Infections and infestations", "sourceVocabulary": "MedDRA version 20.0", "assessmentType": "SYSTEMATIC_ASSESSMENT", "stats": [{"groupId": "EG000", "numEvents": 90, "numAffected": 81, "numAtRisk": 2089}, {"groupId": "EG001", "numEvents": 112, "numAffected": 89, "numAtRisk": 2087}]}, {"term": "Pharyngitis", "organSystem": "Infections and infestations", "sourceVocabulary": "MedDRA version 20.0", "assessmentType": "SYSTEMATIC_ASSESSMENT", "stats": [{"groupId": "EG000", "numEvents": 55, "numAffected": 51, "numAtRisk": 2089}, {"groupId": "EG001", "numEvents": 74, "numAffected": 62, "numAtRisk": 2087}]}, {"term": "Rhinitis allergic", "organSystem": "Respiratory, thoracic and mediastinal disorders", "sourceVocabulary": "MedDRA version 20.0", "assessmentType": "SYSTEMATIC_ASSESSMENT", "stats": [{"groupId": "EG000", "numEvents": 56, "numAffected": 51, "numAtRisk": 2089}, {"groupId": "EG001", "numEvents": 46, "numAffected": 44, "numAtRisk": 2087}]}, {"term": "Influenza", "organSystem": "Infections and infestations", "sourceVocabulary": "MedDRA version 20.0", "assessmentType": "SYSTEMATIC_ASSESSMENT", "stats": [{"groupId": "EG000", "numEvents": 34, "numAffected": 33, "numAtRisk": 2089}, {"groupId": "EG001", "numEvents": 46, "numAffected": 42, "numAtRisk": 2087}]}]}, "moreInfoModule": {"certainAgreement": {"piSponsorEmployee": false, "restrictiveAgreement": false}, "pointOfContact": {"title": "Stefan Ivanov", "organization": "AstraZeneca AB", "email": "information.center@astrazeneca.com", "phone": "000000000"}}}, "documentSection": {"largeDocumentModule": {"largeDocs": [{"typeAbbrev": "SAP", "hasProtocol": false, "hasSap": true, "hasIcf": false, "label": "Statistical Analysis Plan", "date": "2017-09-06", "uploadDate": "2019-04-10T14:38", "filename": "SAP_000.pdf", "size": 1630284}, {"typeAbbrev": "Prot", "hasProtocol": true, "hasSap": false, "hasIcf": false, "label": "Study Protocol", "date": "2016-10-12", "uploadDate": "2019-04-10T14:38", "filename": "Prot_001.pdf", "size": 1652364}]}}, "derivedSection": {"miscInfoModule": {"versionHolder": "2024-06-24", "removedCountries": ["Argentina", "Czech Republic", "Italy"]}, "conditionBrowseModule": {"meshes": [{"id": "D000001249", "term": "Asthma"}], "ancestors": [{"id": "D000001982", "term": "Bronchial Diseases"}, {"id": "D000012140", "term": "Respiratory Tract Diseases"}, {"id": "D000008173", "term": "Lung Diseases, Obstructive"}, {"id": "D000008171", "term": "Lung Diseases"}, {"id": "D000012130", "term": "Respiratory Hypersensitivity"}, {"id": "D000006969", "term": "Hypersensitivity, Immediate"}, {"id": "D000006967", "term": "Hypersensitivity"}, {"id": "D000007154", "term": "Immune System Diseases"}], "browseLeaves": [{"id": "M4556", "name": "Asthma", "asFound": "Asthma", "relevance": "HIGH"}, {"id": "M5258", "name": "Bronchial Diseases", "relevance": "LOW"}, {"id": "M14977", "name": "Respiratory Tract Diseases", "relevance": "LOW"}, {"id": "M11168", "name": "Lung Diseases", "relevance": "LOW"}, {"id": "M11170", "name": "Lung Diseases, Obstructive", "relevance": "LOW"}, {"id": "M10018", "name": "Hypersensitivity", "relevance": "LOW"}, {"id": "M14967", "name": "Respiratory Hypersensitivity", "relevance": "LOW"}, {"id": "M10020", "name": "Hypersensitivity, Immediate", "relevance": "LOW"}, {"id": "M10200", "name": "Immune System Diseases", "relevance": "LOW"}], "browseBranches": [{"abbrev": "BC08", "name": "Respiratory Tract (Lung and Bronchial) Diseases"}, {"abbrev": "BC20", "name": "Immune System Diseases"}, {"abbrev": "All", "name": "All Conditions"}]}, "interventionBrowseModule": {"meshes": [{"id": "D000019819", "term": "Budesonide"}, {"id": "D000013726", "term": "Terbutaline"}, {"id": "D000068759", "term": "Formoterol Fumarate"}], "ancestors": [{"id": "D000000893", "term": "Anti-Inflammatory Agents"}, {"id": "D000001993", "term": "Bronchodilator Agents"}, {"id": "D000001337", "term": "Autonomic Agents"}, {"id": "D000018373", "term": "Peripheral Nervous System Agents"}, {"id": "D000045505", "term": "Physiological Effects of Drugs"}, {"id": "D000018927", "term": "Anti-Asthmatic Agents"}, {"id": "D000019141", "term": "Respiratory System Agents"}, {"id": "D000005938", "term": "Glucocorticoids"}, {"id": "D000006728", "term": "Hormones"}, {"id": "D000006730", "term": "Hormones, Hormone Substitutes, and Hormone Antagonists"}, {"id": "D000058666", "term": "Adrenergic beta-2 Receptor Agonists"}, {"id": "D000000318", "term": "Adrenergic beta-Agonists"}, {"id": "D000000322", "term": "Adrenergic Agonists"}, {"id": "D000018663", "term": "Adrenergic Agents"}, {"id": "D000018377", "term": "Neurotransmitter Agents"}, {"id": "D000045504", "term": "Molecular Mechanisms of Pharmacological Action"}, {"id": "D000013566", "term": "Sympathomimetics"}, {"id": "D000015149", "term": "Tocolytic Agents"}, {"id": "D000012102", "term": "Reproductive Control Agents"}], "browseLeaves": [{"id": "M21711", "name": "Budesonide", "asFound": "Of 1", "relevance": "HIGH"}, {"id": "M304", "name": "Formoterol Fumarate", "asFound": "Nicotine", "relevance": "HIGH"}, {"id": "M16496", "name": "Terbutaline", "asFound": "Temodar", "relevance": "HIGH"}, {"id": "M4217", "name": "Anti-Inflammatory Agents", "relevance": "LOW"}, {"id": "M5269", "name": "Bronchodilator Agents", "relevance": "LOW"}, {"id": "M20963", "name": "Anti-Asthmatic Agents", "relevance": "LOW"}, {"id": "M21137", "name": "Respiratory System Agents", "relevance": "LOW"}, {"id": "M9047", "name": "Glucocorticoids", "relevance": "LOW"}, {"id": "M9789", "name": "Hormones", "relevance": "LOW"}, {"id": "M9788", "name": "Hormone Antagonists", "relevance": "LOW"}, {"id": "M20746", "name": "Adrenergic Agents", "relevance": "LOW"}, {"id": "M3670", "name": "Adrenergic beta-Agonists", "relevance": "LOW"}, {"id": "M3673", "name": "Adrenergic Agonists", "relevance": "LOW"}, {"id": "M20504", "name": "Neurotransmitter Agents", "relevance": "LOW"}, {"id": "M16345", "name": "Sympathomimetics", "relevance": "LOW"}, {"id": "M17869", "name": "Tocolytic Agents", "relevance": "LOW"}], "browseBranches": [{"abbrev": "Infl", "name": "Anti-Inflammatory Agents"}, {"abbrev": "Resp", "name": "Respiratory System Agents"}, {"abbrev": "All", "name": "All Drugs and Chemicals"}, {"abbrev": "Repr", "name": "Reproductive Control Agents"}]}}, "hasResults": true}