{"protocolSection": {"identificationModule": {"nctId": "NCT03075215", "orgStudyIdInfo": {"id": "C1949"}, "organization": {"fullName": "Boston Scientific Corporation", "class": "INDUSTRY"}, "briefTitle": "Strategic MAnagement to Optimize Response To Cardiac Resynchronization Therapy Registry", "officialTitle": "Strategic MAnagement to Optimize Response To Cardiac Resynchronization Therapy Registry (SMART Registry)", "acronym": "SMART Registry"}, "statusModule": {"statusVerifiedDate": "2023-10", "overallStatus": "COMPLETED", "expandedAccessInfo": {"hasExpandedAccess": false}, "startDateStruct": {"date": "2017-04-14", "type": "ACTUAL"}, "primaryCompletionDateStruct": {"date": "2021-11-15", "type": "ACTUAL"}, "completionDateStruct": {"date": "2021-11-15", "type": "ACTUAL"}, "studyFirstSubmitDate": "2017-03-05", "studyFirstSubmitQcDate": "2017-03-05", "studyFirstPostDateStruct": {"date": "2017-03-09", "type": "ACTUAL"}, "resultsFirstSubmitDate": "2022-11-01", "resultsFirstSubmitQcDate": "2023-09-28", "resultsFirstPostDateStruct": {"date": "2023-10-02", "type": "ACTUAL"}, "lastUpdateSubmitDate": "2023-10-11", "lastUpdatePostDateStruct": {"date": "2023-10-25", "type": "ACTUAL"}}, "sponsorCollaboratorsModule": {"responsibleParty": {"type": "SPONSOR"}, "leadSponsor": {"name": "Boston Scientific Corporation", "class": "INDUSTRY"}}, "oversightModule": {"oversightHasDmc": false, "isFdaRegulatedDrug": false, "isFdaRegulatedDevice": true, "isUsExport": true}, "descriptionModule": {"briefSummary": "To learn in a general Cardiac Resynchronization Therapy Defibrillators (CRT-D) population, which optimization techniques are used and how effective they are. It will compare 12-month response rates among different optimization methods and characterize which selected subject subgroups achieve better response than others.\n\nA subset of SMART Registry subjects will contribute to the NG4 Post Market Clinical Follow Up (PMCF) Cohort whose objective is collecting data on the NG4 CRT-D features and device usage in a real world setting and monitor long term safety associated with these devices to support CE Mark."}, "conditionsModule": {"conditions": ["Heart Failure"]}, "designModule": {"studyType": "OBSERVATIONAL", "patientRegistry": true, "targetDuration": "12 Months", "designInfo": {"observationalModel": "OTHER", "timePerspective": "PROSPECTIVE"}, "enrollmentInfo": {"count": 2044, "type": "ACTUAL"}}, "armsInterventionsModule": {"interventions": [{"type": "DEVICE", "name": "Device Programming of the Boston Scientific Cardiac Resynchronization Therapy Defibrillator (CRT-D)", "description": "The optimization during the standard of care visits in the first 12 months following implantation"}]}, "outcomesModule": {"primaryOutcomes": [{"measure": "CRT Response Rate", "description": "The traditional outcome of interest when using the Clinical Composite Score (CCS) is the proportion of patients who improved. Improvement was defined as remaining alive and free of heart failure hospitalization while also demonstrating improvement in NYHA Class, patient Global Assessment, or both. Patients were considered worsened if they died, experienced a heart failure hospitalization, or had worsened NYHA Class or patient Global Assessment. Patients who neither improved nor worsened were classified as \"no change.\"", "timeFrame": "12 months"}, {"measure": "Percentage of Post Market Clinical Follow Up Participants Without NG4 Pulse Generator Related Complications", "description": "Complication Free rate. PG-related Complication is defined as those detectable adverse events that resulted in:\n\n* Death\n* Serious injury\n* Correction of PG failure requiring invasive intervention\n* Permanent loss of PG device function. Permanent loss of device function is defined as any Pulse Generator (PG) that reverts to Safety Core or any PG rendered unable to deliver pacing or shocks Complications that are determined to be associated with the PG will be considered PGrelated complications (PG) and count against the PMCF endpoint. Complications related to the LV, RV, RA leads will not be counted against the PMCF endpoint.", "timeFrame": "36 months"}]}, "eligibilityModule": {"eligibilityCriteria": "Inclusion Criteria:\n\n* Subject implanted or upgraded with a NG3 or NG4 CRT-D device connected with any manufacturer quadripolar LV lead based on BSC labeling for devices in specific geographies.\n* Subjects must be enrolled between 1 and 21 calendar days post CRT-D implantation procedure.\n* Subject is age 18 or above, or of legal age to give informed consent specific to each country and national laws\n* Subject is willing and capable of complying with follow-up visits and procedures as defined by this protocol\n\nExclusion Criteria:\n\n* Subject with documented life expectancy of less than 12 months\n* Subject currently on the active heart transplant list or has a current Left Ventricular Assist Device or other assist device (mechanical circulatory support device).\n* Subject who have had a pre-existing CRT device\n* Subject enrolled in any other concurrent clinical trial without prior written approval from BSC Clinical Trial Manager\n* Women of childbearing potential who are or might be pregnant at time of study enrolment\n* Any contra-indication to receive a CRT-D device per local guidelines", "healthyVolunteers": false, "sex": "ALL", "minimumAge": "18 Years", "stdAges": ["ADULT", "OLDER_ADULT"], "studyPopulation": "Subjects implanted with a quadripolar NG3 or NG4 CRT-D device in conjunction with a quadripolar lead from any manufacturer will be selected based on the inclusion/exclusion criteria", "samplingMethod": "NON_PROBABILITY_SAMPLE"}, "contactsLocationsModule": {"overallOfficials": [{"name": "Jose-Ignacio Garcia-Bolao, PhD, FESC", "affiliation": "Clinica Universidad de Navarra", "role": "PRINCIPAL_INVESTIGATOR"}], "locations": [{"facility": "Providence Alaska Medical Center", "city": "Anchorage", "state": "Alaska", "zip": "99508", "country": "United States", "geoPoint": {"lat": 61.21806, "lon": -149.90028}}, {"facility": "CardioVascular Associates of Mesa", "city": "Mesa", "state": "Arizona", "zip": "85206", "country": "United States", "geoPoint": {"lat": 33.42227, "lon": -111.82264}}, {"facility": "Arrhythmia Research Group", "city": "Jonesboro", "state": "Arkansas", "zip": "72401", "country": "United States", "geoPoint": {"lat": 35.8423, "lon": -90.70428}}, {"facility": "Comprehensive Cardiovascular Medical Group", "city": "Bakersfield", "state": "California", "zip": "93309", "country": "United States", "geoPoint": {"lat": 35.37329, "lon": -119.01871}}, {"facility": "VA Loma Linda Healthcare System", "city": "Loma Linda", "state": "California", "zip": "92357", "country": "United States", "geoPoint": {"lat": 34.04835, "lon": -117.26115}}, {"facility": "Western Connecticut Health Network/ Danbury Hospital", "city": "Danbury", "state": "Connecticut", "zip": "06810", "country": "United States", "geoPoint": {"lat": 41.39482, "lon": -73.45401}}, {"facility": "Bay Area Cardiology Associates, P.A.", "city": "Brandon", "state": "Florida", "zip": "33511", "country": "United States", "geoPoint": {"lat": 27.9378, "lon": -82.28592}}, {"facility": "North Florida/South Georgia Veterans Health System", "city": "Gainesville", "state": "Florida", "zip": "32608", "country": "United States", "geoPoint": {"lat": 29.65163, "lon": -82.32483}}, {"facility": "Northeast Georgia Heart Center", "city": "Gainesville", "state": "Georgia", "zip": "30501", "country": "United States", "geoPoint": {"lat": 34.29788, "lon": -83.82407}}, {"facility": "The University of Illinois Medical Center", "city": "Chicago", "state": "Illinois", "zip": "60612", "country": "United States", "geoPoint": {"lat": 41.85003, "lon": -87.65005}}, {"facility": "Riverside Medical Center / Midwest Arrhythmia Consultants", "city": "Kankakee", "state": "Illinois", "zip": "60901", "country": "United States", "geoPoint": {"lat": 41.12003, "lon": -87.86115}}, {"facility": "Ball Memorial Hospital", "city": "Muncie", "state": "Indiana", "zip": "47303", "country": "United States", "geoPoint": {"lat": 40.19338, "lon": -85.38636}}, {"facility": "Midwest Cardiovascular Research Foundation", "city": "Davenport", "state": "Iowa", "zip": "52803", "country": "United States", "geoPoint": {"lat": 41.52364, "lon": -90.57764}}, {"facility": "Cardiovascular Institute of the South", "city": "Lafayette", "state": "Louisiana", "zip": "70503", "country": "United States", "geoPoint": {"lat": 30.22409, "lon": -92.01984}}, {"facility": "Sinai Hospital of Baltimore", "city": "Baltimore", "state": "Maryland", "zip": "21215", "country": "United States", "geoPoint": {"lat": 39.29038, "lon": -76.61219}}, {"facility": "Peninsula Cardiology Associates", "city": "Salisbury", "state": "Maryland", "zip": "21804", "country": "United States", "geoPoint": {"lat": 38.36067, "lon": -75.59937}}, {"facility": "Hurley Medical Center", "city": "Flint", "state": "Michigan", "zip": "48532", "country": "United States", "geoPoint": {"lat": 43.01253, "lon": -83.68746}}, {"facility": "Summit Medical Group, P.A.", "city": "Berkeley Heights", "state": "New Jersey", "zip": "07922", "country": "United States", "geoPoint": {"lat": 40.68343, "lon": -74.44265}}, {"facility": "Trinity Medical WNY,PC", "city": "Buffalo", "state": "New York", "zip": "14215", "country": "United States", "geoPoint": {"lat": 42.88645, "lon": -78.87837}}, {"facility": "Columbia. University Medical Center/ NY Presbyterian Hospital", "city": "New York", "state": "New York", "zip": "10032", "country": "United States", "geoPoint": {"lat": 40.71427, "lon": -74.00597}}, {"facility": "New Hanover Regional Medical Center", "city": "Wilmington", "state": "North Carolina", "zip": "28401", "country": "United States", "geoPoint": {"lat": 34.22573, "lon": -77.94471}}, {"facility": "St. Alexius Medical Center", "city": "Bismarck", "state": "North Dakota", "zip": "58501", "country": "United States", "geoPoint": {"lat": 46.80833, "lon": -100.78374}}, {"facility": "Kettering Medical Center", "city": "Kettering", "state": "Ohio", "zip": "45429", "country": "United States", "geoPoint": {"lat": 39.6895, "lon": -84.16883}}, {"facility": "Abington Memorial Hospital", "city": "Abington", "state": "Pennsylvania", "zip": "19001", "country": "United States", "geoPoint": {"lat": 40.12067, "lon": -75.11795}}, {"facility": "Regional Cardiac Arrythmia", "city": "Washington", "state": "Pennsylvania", "zip": "15301", "country": "United States", "geoPoint": {"lat": 40.17396, "lon": -80.24617}}, {"facility": "Texas Heart Rhythm", "city": "Houston", "state": "Texas", "zip": "77074", "country": "United States", "geoPoint": {"lat": 29.76328, "lon": -95.36327}}, {"facility": "McAllen Medical Heart Hospital", "city": "McAllen", "state": "Texas", "zip": "78503", "country": "United States", "geoPoint": {"lat": 26.20341, "lon": -98.23001}}, {"facility": "Cardiology Clinic of San Antonio", "city": "San Antonio", "state": "Texas", "zip": "78229", "country": "United States", "geoPoint": {"lat": 29.42412, "lon": -98.49363}}, {"facility": "Hunter Holmes McGuire VA Medical Center", "city": "Richmond", "state": "Virginia", "zip": "23249", "country": "United States", "geoPoint": {"lat": 37.55376, "lon": -77.46026}}, {"facility": "Flinders Medical Centre", "city": "Bedford Park", "state": "South Australia", "zip": "5042", "country": "Australia", "geoPoint": {"lat": -35.03333, "lon": 138.56667}}, {"facility": "Monash Medical Centre", "city": "Clayton", "state": "Victoria", "zip": "3168", "country": "Australia", "geoPoint": {"lat": -37.91667, "lon": 145.11667}}, {"facility": "Peninsula Health", "city": "Frankston", "state": "Victoria", "zip": "3199", "country": "Australia", "geoPoint": {"lat": -38.14458, "lon": 145.12291}}, {"facility": "Barwon Health Myers House Ground Floor Geelong Hospital", "city": "Geelong", "state": "Victoria", "zip": "3220", "country": "Australia", "geoPoint": {"lat": -38.14711, "lon": 144.36069}}, {"facility": "The Alfred Hospital", "city": "Melbourne", "state": "Victoria", "zip": "3004", "country": "Australia", "geoPoint": {"lat": -37.814, "lon": 144.96332}}, {"facility": "Landeskrankenhaus Salzburg Universit\u00e4tsklinikum der PMU", "city": "Salzburg", "zip": "05020", "country": "Austria", "geoPoint": {"lat": 47.79941, "lon": 13.04399}}, {"facility": "Allgemeines Krankenhaus der Stadt Wien, Univ.Klinik f\u00fcr Innere Medizin II", "city": "Vienna", "country": "Austria", "geoPoint": {"lat": 48.20849, "lon": 16.37208}}, {"facility": "Krankenhaus Nord", "city": "Vienna", "country": "Austria", "geoPoint": {"lat": 48.20849, "lon": 16.37208}}, {"facility": "Virga Jesse Ziekenhuis", "city": "Hasselt", "zip": "3500", "country": "Belgium", "geoPoint": {"lat": 50.93106, "lon": 5.33781}}, {"facility": "UCL de Mont Godinne", "city": "Yvoir", "zip": "5530", "country": "Belgium", "geoPoint": {"lat": 50.3279, "lon": 4.88059}}, {"facility": "Sunnybrook Health Sciences Centre", "city": "Toronto", "state": "Ontario", "zip": "M4N 3M5", "country": "Canada", "geoPoint": {"lat": 43.70011, "lon": -79.4163}}, {"facility": "Fleurimont Hospital (CHU de Sherbrooke)", "city": "Sherbrooke", "state": "Quebec", "zip": "J1H 5N4", "country": "Canada", "geoPoint": {"lat": 45.40008, "lon": -71.89908}}, {"facility": "Royal Alexandra Hospital - Cardiology Research CK Hui Heart Centre", "city": "Edmonton", "zip": "T5H 3V9", "country": "Canada", "geoPoint": {"lat": 53.55014, "lon": -113.46871}}, {"facility": "H\u00f4pital du Sacr\u00e9-C\u0153ur de Montr\u00e9al", "city": "Montr\u00e9al", "zip": "H4J 1C5", "country": "Canada", "geoPoint": {"lat": 45.50884, "lon": -73.58781}}, {"facility": "Faculty Hospital U sv Anny", "city": "Brno", "country": "Czechia", "geoPoint": {"lat": 49.19522, "lon": 16.60796}}, {"facility": "Kardiologicke centrum AGEL", "city": "Pardubice", "country": "Czechia", "geoPoint": {"lat": 50.04075, "lon": 15.77659}}, {"facility": "IKEM - Institut klinicke a experimentalni mediciny", "city": "Praha", "zip": "14021", "country": "Czechia", "geoPoint": {"lat": 50.08804, "lon": 14.42076}}, {"facility": "Centre Hospitalier de la Cote Basque", "city": "Bayonne", "zip": "64100", "country": "France", "geoPoint": {"lat": 43.48333, "lon": -1.48333}}, {"facility": "CHU de Besancon", "city": "Besan\u00e7on", "zip": "25030", "country": "France", "geoPoint": {"lat": 47.24878, "lon": 6.01815}}, {"facility": "CHU Brest - Hopital Cavale Blanche", "city": "Brest", "zip": "29200", "country": "France", "geoPoint": {"lat": 48.3903, "lon": -4.48628}}, {"facility": "Ch de Cannes", "city": "Cannes", "country": "France", "geoPoint": {"lat": 43.55135, "lon": 7.01275}}, {"facility": "APHP CHU Henri Mondor", "city": "Cr\u00e9teil", "zip": "94010", "country": "France", "geoPoint": {"lat": 48.78333, "lon": 2.46667}}, {"facility": "CHU Dijon", "city": "Dijon", "zip": "21000", "country": "France", "geoPoint": {"lat": 47.31667, "lon": 5.01667}}, {"facility": "Hopital Priv\u00e9 de Clairval", "city": "Marseille", "country": "France", "geoPoint": {"lat": 43.29551, "lon": 5.38958}}, {"facility": "Hospital Prive Jacques Cartier", "city": "Massy", "zip": "91300", "country": "France", "geoPoint": {"lat": 48.72692, "lon": 2.28301}}, {"facility": "CH Annecy Genevois", "city": "Metz-Tessy", "zip": "74370", "country": "France", "geoPoint": {"lat": 45.93406, "lon": 6.10826}}, {"facility": "Clinique du Mill\u00e9naire", "city": "Montpellier", "zip": "34000", "country": "France", "geoPoint": {"lat": 43.61092, "lon": 3.87723}}, {"facility": "NCN Nouvelles Cliniques Nantaises", "city": "Nantes", "zip": "44277", "country": "France", "geoPoint": {"lat": 47.21725, "lon": -1.55336}}, {"facility": "CHU Nimes Cedex", "city": "N\u00eemes", "zip": "30029", "country": "France", "geoPoint": {"lat": 43.83333, "lon": 4.35}}, {"facility": "Chru Orleans", "city": "Orl\u00e9ans", "zip": "45100", "country": "France", "geoPoint": {"lat": 47.90289, "lon": 1.90389}}, {"facility": "CHG de Pau", "city": "Pau", "zip": "64000", "country": "France", "geoPoint": {"lat": 43.3, "lon": -0.36667}}, {"facility": "CHU de Poitiers", "city": "Poitiers", "zip": "86021", "country": "France", "geoPoint": {"lat": 46.58333, "lon": 0.33333}}, {"facility": "CHU Amiens hopital sud", "city": "Salou\u00ebl", "zip": "80480", "country": "France", "geoPoint": {"lat": 49.86988, "lon": 2.2434}}, {"facility": "Clinique Pasteur", "city": "Toulouse", "zip": "31000", "country": "France", "geoPoint": {"lat": 43.60426, "lon": 1.44367}}, {"facility": "CHU TOURS - Hospital Trousseau", "city": "Tours", "zip": "37170", "country": "France", "geoPoint": {"lat": 47.38333, "lon": 0.68333}}, {"facility": "Clinique Saint Gatien", "city": "Tours", "country": "France", "geoPoint": {"lat": 47.38333, "lon": 0.68333}}, {"facility": "H\u00f4pital Nord Franche-Comt\u00e9", "city": "Trevenans", "country": "France", "geoPoint": {"lat": 47.56667, "lon": 6.86667}}, {"facility": "CH Belfort Montbeliard", "city": "Tr\u00e9venans", "zip": "90400", "country": "France", "geoPoint": {"lat": 47.56667, "lon": 6.86667}}, {"facility": "Centre Hospitalier de Valence", "city": "Valence", "zip": "26000", "country": "France", "geoPoint": {"lat": 44.93333, "lon": 4.9}}, {"facility": "Charite Universit\u00e4tsmedizin Berlin CBF", "city": "Berlin", "zip": "12203", "country": "Germany", "geoPoint": {"lat": 52.52437, "lon": 13.41053}}, {"facility": "Deutsches Herzzentrum Berlin", "city": "Berlin", "zip": "13353", "country": "Germany", "geoPoint": {"lat": 52.52437, "lon": 13.41053}}, {"facility": "Klinikum Links der Weser-Elektrophysiologie Bremen", "city": "Bremen", "zip": "28277", "country": "Germany", "geoPoint": {"lat": 53.07516, "lon": 8.80777}}, {"facility": "Augusta Krankenhaus", "city": "D\u00fcsseldorf", "zip": "40472", "country": "Germany", "geoPoint": {"lat": 51.22172, "lon": 6.77616}}, {"facility": "Universitaetsklinikum Duesseldorf", "city": "D\u00fcsseldorf", "country": "Germany", "geoPoint": {"lat": 51.22172, "lon": 6.77616}}, {"facility": "Universitares Herzentrum Hamburg/Universitaetsklinik Eppendorf", "city": "Hamburg", "zip": "20251", "country": "Germany", "geoPoint": {"lat": 53.57532, "lon": 10.01534}}, {"facility": "Universitaetsklinikum Heidelberg", "city": "Heidelberg", "zip": "69120", "country": "Germany", "geoPoint": {"lat": 49.40768, "lon": 8.69079}}, {"facility": "Oberhavel Kliniken", "city": "Hennigsdorf", "zip": "16761", "country": "Germany", "geoPoint": {"lat": 52.63598, "lon": 13.20419}}, {"facility": "Marien Hospital Herne", "city": "Herne", "zip": "44627", "country": "Germany", "geoPoint": {"lat": 51.5388, "lon": 7.22572}}, {"facility": "Universit\u00e4tsklinikum Leipzig", "city": "Leipzig", "zip": "04103", "country": "Germany", "geoPoint": {"lat": 51.33962, "lon": 12.37129}}, {"facility": "Klinikum Leverkusen gGmbH", "city": "Leverkusen", "zip": "51375", "country": "Germany", "geoPoint": {"lat": 51.0303, "lon": 6.98432}}, {"facility": "Universit\u00e4tsklinikum Schleswig-Holstein", "city": "L\u00fcbeck", "zip": "23538", "country": "Germany", "geoPoint": {"lat": 53.86893, "lon": 10.68729}}, {"facility": "Universit\u00e4t Mainz zentrum fur kardiologie", "city": "Mainz", "zip": "55131", "country": "Germany", "geoPoint": {"lat": 49.98419, "lon": 8.2791}}, {"facility": "Klinikum Mannheim GMBH", "city": "Mannheim", "zip": "68167", "country": "Germany", "geoPoint": {"lat": 49.4891, "lon": 8.46694}}, {"facility": "Kliniken Maria-Hilf GmbH", "city": "Monchengladbach", "country": "Germany", "geoPoint": {"lat": 51.18539, "lon": 6.44172}}, {"facility": "Deutsches Herzzentrum Muenchen", "city": "Munich", "zip": "80636", "country": "Germany", "geoPoint": {"lat": 48.13743, "lon": 11.57549}}, {"facility": "Krankenhaus Martha Maria", "city": "N\u00fcrnberg", "zip": "90491", "country": "Germany", "geoPoint": {"lat": 49.45421, "lon": 11.07752}}, {"facility": "Klinikum Oldenburg AoR", "city": "Oldenburg", "zip": "26133", "country": "Germany", "geoPoint": {"lat": 53.14118, "lon": 8.21467}}, {"facility": "Klinikum der Universitaet Regensburg", "city": "Regensburg", "zip": "93053", "country": "Germany", "geoPoint": {"lat": 49.01513, "lon": 12.10161}}, {"facility": "Universitaetsklinikum Wuerzburg", "city": "W\u00fcrzburg", "zip": "97080", "country": "Germany", "geoPoint": {"lat": 49.79391, "lon": 9.95121}}, {"facility": "Voc Cardiologia Ospedaliera Polocino di Bari", "city": "Bari", "country": "Italy", "geoPoint": {"lat": 41.11148, "lon": 16.8554}}, {"facility": "Magna Graecia University AUO Mater Domini di Catanzaro", "city": "Catanzaro", "country": "Italy", "geoPoint": {"lat": 38.88247, "lon": 16.60086}}, {"facility": "Azienda Ospedaliero - Universitaria di Ferrara", "city": "Ferrara", "country": "Italy", "geoPoint": {"lat": 44.83804, "lon": 11.62057}}, {"facility": "Ospedale Vito Fazzi", "city": "Lecce", "country": "Italy", "geoPoint": {"lat": 40.35481, "lon": 18.17244}}, {"facility": "Federico II University of Naples", "city": "Naples", "country": "Italy", "geoPoint": {"lat": 40.85216, "lon": 14.26811}}, {"facility": "Ospedale Monaldi", "city": "Napoli", "zip": "80021", "country": "Italy", "geoPoint": {"lat": 40.85216, "lon": 14.26811}}, {"facility": "Ospedale San Francesco", "city": "Nuoro", "country": "Italy", "geoPoint": {"lat": 40.31991, "lon": 9.32568}}, {"facility": "Azienda Ospedaliera di Padova", "city": "Padova", "country": "Italy", "geoPoint": {"lat": 45.40797, "lon": 11.88586}}, {"facility": "A.O.U. Policlinico Paolo Giaccone", "city": "Palmero", "country": "Italy", "geoPoint": {"lat": 44.96989, "lon": 7.55434}}, {"facility": "Ospedale Maria Patern\u00f2 Arezzo", "city": "Ragusa", "country": "Italy", "geoPoint": {"lat": 36.92574, "lon": 14.72443}}, {"facility": "Fondazione Policlinico Universitario Agostino Gemelli", "city": "Rome", "country": "Italy", "geoPoint": {"lat": 41.89193, "lon": 12.51133}}, {"facility": "Ospedale San Pietro Fatebenefratelli", "city": "Rome", "country": "Italy", "geoPoint": {"lat": 41.89193, "lon": 12.51133}}, {"facility": "Policlinico Casilino", "city": "Rome", "country": "Italy", "geoPoint": {"lat": 41.89193, "lon": 12.51133}}, {"facility": "Ospedale Santa Maria della Misericordia di Rovigo", "city": "Rovigo", "country": "Italy", "geoPoint": {"lat": 45.06982, "lon": 11.79022}}, {"facility": "Azienda Socio-Sanitaria Territoriale dei Sette Laghi", "city": "Varese", "zip": "21000", "country": "Italy", "geoPoint": {"lat": 45.82058, "lon": 8.82511}}, {"facility": "Noordwest Ziekenhuisgroep Alkmaar", "city": "Alkmaar", "zip": "1815 JD", "country": "Netherlands", "geoPoint": {"lat": 52.63167, "lon": 4.74861}}, {"facility": "Amphia Ziekenhuis", "city": "Breda", "zip": "4818 CK", "country": "Netherlands", "geoPoint": {"lat": 51.58656, "lon": 4.77596}}, {"facility": "Medisch Spectrum Twente", "city": "Enschede", "zip": "7512 KZ", "country": "Netherlands", "geoPoint": {"lat": 52.21833, "lon": 6.89583}}, {"facility": "UMC St. Radboud", "city": "Nijmegen", "zip": "6525 GA", "country": "Netherlands", "geoPoint": {"lat": 51.8425, "lon": 5.85278}}, {"facility": "Erasmus Medical Centre", "city": "Rotterdam", "zip": "3015CE", "country": "Netherlands", "geoPoint": {"lat": 51.9225, "lon": 4.47917}}, {"facility": "Maasstad Hospital", "city": "Rotterdam", "zip": "3079 DZ", "country": "Netherlands", "geoPoint": {"lat": 51.9225, "lon": 4.47917}}, {"facility": "Hospital da Senhora da Oliveira", "city": "Guimar\u00e3es", "country": "Portugal", "geoPoint": {"lat": 41.44443, "lon": -8.29619}}, {"facility": "Hospital Santa Maria (Centro Hospitalar de Lisboa Norte)", "city": "Lisboa", "country": "Portugal", "geoPoint": {"lat": 38.71667, "lon": -9.13333}}, {"facility": "Centro Hospitalar do Porto - Hospital de Santo Antonio", "city": "Porto", "zip": "4099-001", "country": "Portugal", "geoPoint": {"lat": 41.14961, "lon": -8.61099}}, {"facility": "The National Institute of Cardiovascular Diseases", "city": "Bratislava", "zip": "83348", "country": "Slovakia", "geoPoint": {"lat": 48.14816, "lon": 17.10674}}, {"facility": "Hospital General Universitario", "city": "Alicante", "country": "Spain", "geoPoint": {"lat": 38.34517, "lon": -0.48149}}, {"facility": "Hospital Universitari Vall d'Hebron", "city": "Barcelona", "zip": "08035", "country": "Spain", "geoPoint": {"lat": 41.38879, "lon": 2.15899}}, {"facility": "Hospital Bellvitge", "city": "Barcelona", "country": "Spain", "geoPoint": {"lat": 41.38879, "lon": 2.15899}}, {"facility": "Hospital General de Ciudad Real", "city": "Ciudad Real", "zip": "13005", "country": "Spain", "geoPoint": {"lat": 38.98626, "lon": -3.92907}}, {"facility": "Hospital Virgen De Las Nieves", "city": "Granada", "country": "Spain", "geoPoint": {"lat": 37.18817, "lon": -3.60667}}, {"facility": "Hospital Infanta Leonor", "city": "Madrid", "zip": "28031", "country": "Spain", "geoPoint": {"lat": 40.4165, "lon": -3.70256}}, {"facility": "Hospital Clinico San Carlos", "city": "Madrid", "zip": "28040", "country": "Spain", "geoPoint": {"lat": 40.4165, "lon": -3.70256}}, {"facility": "Hospital La Paz", "city": "Madrid", "zip": "28046", "country": "Spain", "geoPoint": {"lat": 40.4165, "lon": -3.70256}}, {"facility": "Clinica Universidad de Navarra", "city": "Pamplona", "country": "Spain", "geoPoint": {"lat": 42.81687, "lon": -1.64323}}, {"facility": "Hospital Universitario de Canarias", "city": "Santa Cruz De Tenerife", "zip": "38320", "country": "Spain", "geoPoint": {"lat": 28.46824, "lon": -16.25462}}, {"facility": "Hospital Universitario Marques De Valdecilla", "city": "Santander", "zip": "39011", "country": "Spain", "geoPoint": {"lat": 43.46472, "lon": -3.80444}}, {"facility": "Hospital Virgen Macarena", "city": "Sevilla", "country": "Spain", "geoPoint": {"lat": 37.38283, "lon": -5.97317}}, {"facility": "Hospital nuestra senora del prado", "city": "Talavera de la Reina", "zip": "45600", "country": "Spain", "geoPoint": {"lat": 39.96348, "lon": -4.83076}}, {"facility": "CHUV Lausanne", "city": "Lausanne", "zip": "CH-1011", "country": "Switzerland", "geoPoint": {"lat": 46.516, "lon": 6.63282}}, {"facility": "Basildon and Thurrock University Hospitals NHS Foundation Trust", "city": "Basildon", "state": "Essex", "zip": "SS16 5NL", "country": "United Kingdom", "geoPoint": {"lat": 51.56844, "lon": 0.45782}}, {"facility": "Belfast City Hospital", "city": "Belfast", "state": "Northern Ireland", "zip": "BT9 7AB", "country": "United Kingdom", "geoPoint": {"lat": 54.59682, "lon": -5.92541}}, {"facility": "Blackpool Teaching Hospitals NHS Foundation Trust'", "city": "Blackpool", "country": "United Kingdom", "geoPoint": {"lat": 53.81667, "lon": -3.05}}, {"facility": "Bristol Heart Institute", "city": "Bristol", "country": "United Kingdom", "geoPoint": {"lat": 51.45523, "lon": -2.59665}}, {"facility": "Papworth Hospital", "city": "Cambridge", "zip": "CB23 3RE", "country": "United Kingdom", "geoPoint": {"lat": 52.2, "lon": 0.11667}}, {"facility": "Addenbrookes Hospital", "city": "Cambridge", "country": "United Kingdom", "geoPoint": {"lat": 52.2, "lon": 0.11667}}, {"facility": "Golden Jubilee National Hospital", "city": "Glasgow", "country": "United Kingdom", "geoPoint": {"lat": 55.86515, "lon": -4.25763}}, {"facility": "LHCH (Liverpool Heart and Chest Hospital)", "city": "Liverpool", "country": "United Kingdom", "geoPoint": {"lat": 53.41058, "lon": -2.97794}}, {"facility": "St Bartholomews Hospital", "city": "London", "zip": "EC1A 7BE", "country": "United Kingdom", "geoPoint": {"lat": 51.50853, "lon": -0.12574}}, {"facility": "Manchester Royal Infirmary", "city": "Manchester", "country": "United Kingdom", "geoPoint": {"lat": 53.48095, "lon": -2.23743}}, {"facility": "Northampton General Hospital", "city": "Northampton", "zip": "NN1 5BD", "country": "United Kingdom", "geoPoint": {"lat": 52.25, "lon": -0.88333}}, {"facility": "Derriford Hospital", "city": "Plymouth", "country": "United Kingdom", "geoPoint": {"lat": 50.37153, "lon": -4.14305}}]}, "ipdSharingStatementModule": {"ipdSharing": "NO"}}, "resultsSection": {"participantFlowModule": {"preAssignmentDetails": "In total 2044 subjects were enrolled into the study which included 103 PMCF subjects. For 9 of those subjects (PMCF = 4) the data could not be used and 30 subjects were consent ineligible.", "groups": [{"id": "FG000", "title": "Subjects Implanted De-novo With a BSC CRT-D Together With a Quadripolar Lead From Any Manufacturer.", "description": "Subjects implanted de-novo with AUTOGEN, INOGEN, DYNAGEN, RESONATE HF, RESONATE, MOMENTUM, CHARISMA or VIGILANT Boston Scientific (BSC) Cardiac Resynchronization Therapy Defibrillators (CRT-D) had their CRT Response rate evaluated at 12 months, defined by the Milton Packer Clinical Composite Score (CCS). This endpoint combines four metrics: All-cause mortality, Heart failure events, NYHA Class, and Quality of life as measured with the patient global assessment instrument. A subset of 103 subjects implanted with Boston Scientific CRT-D were followed for 36 months to evaluate the PG (pulse generator) related Complication Free rate at 36 months. A SMART Registry subject was considered part of this PMCF (Post Market Clinical Follow Up) when enrolled in a European site, had an RESONATE HF, RESONATE, MOMENTUM, CHARISMA or VIGILANT BSC CRT-D implanted and Left Ventricular MultiSite Pacing (LV MSP) feature was enabled at any time during the initial 12 months follow up."}], "periods": [{"title": "12-Month Primary Endpoint", "milestones": [{"type": "STARTED", "achievements": [{"groupId": "FG000", "numSubjects": "2005"}]}, {"type": "COMPLETED", "achievements": [{"groupId": "FG000", "numSubjects": "1586"}]}, {"type": "NOT COMPLETED", "achievements": [{"groupId": "FG000", "numSubjects": "419"}]}], "dropWithdraws": [{"type": "Death", "reasons": [{"groupId": "FG000", "numSubjects": "152"}]}, {"type": "Withdrawal by Subject", "reasons": [{"groupId": "FG000", "numSubjects": "267"}]}]}, {"title": "Post Market Clinical Follow-Up ONLY", "milestones": [{"type": "STARTED", "achievements": [{"groupId": "FG000", "numSubjects": "103"}]}, {"type": "COMPLETED", "achievements": [{"groupId": "FG000", "numSubjects": "63"}]}, {"type": "NOT COMPLETED", "achievements": [{"groupId": "FG000", "numSubjects": "40"}]}], "dropWithdraws": [{"type": "Death", "reasons": [{"groupId": "FG000", "numSubjects": "15"}]}, {"type": "Withdrawal by Subject", "reasons": [{"groupId": "FG000", "numSubjects": "25"}]}]}]}, "baselineCharacteristicsModule": {"groups": [{"id": "BG000", "title": "Subjects Implanted De-novo With a BSC CRT-D Together With a Quadripolar Lead From Any Manufacturer.", "description": "Subjects implanted de-novo with AUTOGEN, INOGEN, DYNAGEN, RESONATE HF, RESONATE, MOMENTUM, CHARISMA or VIGILANT Boston Scientific (BSC) Cardiac Resynchronization Therapy Defibrillators (CRT-D) had their CRT Response rate evaluated at 12 months, defined by the Milton Packer Clinical Composite Score (CCS). This endpoint combines four metrics: All-cause mortality, Heart failure events, NYHA Class, and Quality of life as measured with the patient global assessment instrument. A subset of 103 subjects implanted with Boston Scientific CRT-D were followed for 36 months to evaluate the PG (pulse generator) related Complication Free rate at 36 months. A SMART Registry subject was considered part of this PMCF (Post Market Clinical Follow Up) when enrolled in a European site, had an RESONATE HF, RESONATE, MOMENTUM, CHARISMA or VIGILANT BSC CRT-D implanted and Left Ventricular MultiSite Pacing (LV MSP) feature was enabled at any time during the initial 12 months follow up."}], "denoms": [{"units": "Participants", "counts": [{"groupId": "BG000", "value": "2005"}]}], "measures": [{"title": "Age, Continuous", "paramType": "MEAN", "dispersionType": "STANDARD_DEVIATION", "unitOfMeasure": "years", "classes": [{"categories": [{"measurements": [{"groupId": "BG000", "value": "67.5", "spread": "10.4"}]}]}]}, {"title": "Sex: Female, Male", "paramType": "COUNT_OF_PARTICIPANTS", "unitOfMeasure": "Participants", "classes": [{"categories": [{"title": "Female", "measurements": [{"groupId": "BG000", "value": "462"}]}, {"title": "Male", "measurements": [{"groupId": "BG000", "value": "1543"}]}]}]}, {"title": "Race/Ethnicity, Customized", "paramType": "COUNT_OF_PARTICIPANTS", "unitOfMeasure": "Participants", "classes": [{"title": "White", "categories": [{"measurements": [{"groupId": "BG000", "value": "1230"}]}]}, {"title": "Black", "categories": [{"measurements": [{"groupId": "BG000", "value": "86"}]}]}, {"title": "Other", "categories": [{"measurements": [{"groupId": "BG000", "value": "17"}]}]}, {"title": "Race Not Disclosed", "categories": [{"measurements": [{"groupId": "BG000", "value": "672"}]}]}]}]}, "outcomeMeasuresModule": {"outcomeMeasures": [{"type": "PRIMARY", "title": "CRT Response Rate", "description": "The traditional outcome of interest when using the Clinical Composite Score (CCS) is the proportion of patients who improved. Improvement was defined as remaining alive and free of heart failure hospitalization while also demonstrating improvement in NYHA Class, patient Global Assessment, or both. Patients were considered worsened if they died, experienced a heart failure hospitalization, or had worsened NYHA Class or patient Global Assessment. Patients who neither improved nor worsened were classified as \"no change.\"", "populationDescription": "Subjects must have a complete composite score at 12 months of follow up", "reportingStatus": "POSTED", "paramType": "COUNT_OF_PARTICIPANTS", "unitOfMeasure": "Participants", "timeFrame": "12 months", "groups": [{"id": "OG000", "title": "Subjects Implanted De-novo With a BSC CRT-D Together With a Quadripolar Lead From Any Manufacturer.", "description": "Subjects implanted de-novo with AUTOGEN, INOGEN, DYNAGEN, RESONATE HF, RESONATE, MOMENTUM, CHARISMA or VIGILANT Boston Scientific (BSC) Cardiac Resynchronization Therapy Defibrillators (CRT-D) had their CRT Response rate evaluated at 12 months, defined by the Milton Packer Clinical Composite Score (CCS). This endpoint combines four metrics: All-cause mortality, Heart failure events, NYHA Class, and Quality of life as measured with the patient global assessment instrument. A subset of 103 subjects implanted with Boston Scientific CRT-D were followed for 36 months to evaluate the PG (pulse generator) related Complication Free rate at 36 months. A SMART Registry subject was considered part of this PMCF (Post Market Clinical Follow Up) when enrolled in a European site, had an RESONATE HF, RESONATE, MOMENTUM, CHARISMA or VIGILANT BSC CRT-D implanted and Left Ventricular MultiSite Pacing (LV MSP) feature was enabled at any time during the initial 12 months follow up."}], "denoms": [{"units": "Participants", "counts": [{"groupId": "OG000", "value": "1558"}]}], "classes": [{"categories": [{"title": "Improved", "measurements": [{"groupId": "OG000", "value": "918"}]}, {"title": "No Change", "measurements": [{"groupId": "OG000", "value": "312"}]}, {"title": "Worsened", "measurements": [{"groupId": "OG000", "value": "328"}]}]}]}, {"type": "PRIMARY", "title": "Percentage of Post Market Clinical Follow Up Participants Without NG4 Pulse Generator Related Complications", "description": "Complication Free rate. PG-related Complication is defined as those detectable adverse events that resulted in:\n\n* Death\n* Serious injury\n* Correction of PG failure requiring invasive intervention\n* Permanent loss of PG device function. Permanent loss of device function is defined as any Pulse Generator (PG) that reverts to Safety Core or any PG rendered unable to deliver pacing or shocks Complications that are determined to be associated with the PG will be considered PGrelated complications (PG) and count against the PMCF endpoint. Complications related to the LV, RV, RA leads will not be counted against the PMCF endpoint.", "populationDescription": "A total of 103 subjects were classified as NG4 PMCF subjects at time of enrollment, among them 4 subjects data sets were not cleaned and unable to get corrected upon the end of the study. The final analyzed count is 99 subjects.", "reportingStatus": "POSTED", "paramType": "NUMBER", "unitOfMeasure": "% of participants", "timeFrame": "36 months", "groups": [{"id": "OG000", "title": "Subjects Implanted De-novo With a BSC CRT-D Together With a Quadripolar Lead From Any Manufacturer.", "description": "Subjects implanted de-novo with AUTOGEN, INOGEN, DYNAGEN, RESONATE HF, RESONATE, MOMENTUM, CHARISMA or VIGILANT Boston Scientific (BSC) Cardiac Resynchronization Therapy Defibrillators (CRT-D) had their CRT Response rate evaluated at 12 months, defined by the Milton Packer Clinical Composite Score (CCS). This endpoint combines four metrics: All-cause mortality, Heart failure events, NYHA Class, and Quality of life as measured with the patient global assessment instrument. A subset of 103 subjects implanted with Boston Scientific CRT-D were followed for 36 months to evaluate the PG (pulse generator) related Complication Free rate at 36 months. A SMART Registry subject was considered part of this PMCF (Post Market Clinical Follow Up) when enrolled in a European site, had an RESONATE HF, RESONATE, MOMENTUM, CHARISMA or VIGILANT BSC CRT-D implanted and Left Ventricular MultiSite Pacing (LV MSP) feature was enabled at any time during the initial 12 months follow up."}], "denoms": [{"units": "Participants", "counts": [{"groupId": "OG000", "value": "99"}]}], "classes": [{"categories": [{"measurements": [{"groupId": "OG000", "value": "97.9"}]}]}]}]}, "adverseEventsModule": {"frequencyThreshold": "0", "timeFrame": "Up to 36 months", "description": "2005 enrolled subjects plus 10 consent ineligible subjects with devices were considered to be at risk of AEs", "eventGroups": [{"id": "EG000", "title": "Subjects Implanted De-novo With a BSC CRT-D Together With a Quadripolar Lead From Any Manufacturer.", "description": "Subjects implanted de-novo with AUTOGEN, INOGEN, DYNAGEN, RESONATE HF, RESONATE, MOMENTUM, CHARISMA or VIGILANT Boston Scientific (BSC) Cardiac Resynchronization Therapy Defibrillators (CRT-D) had their CRT Response rate evaluated at 12 months, defined by the Milton Packer Clinical Composite Score (CCS). This endpoint combines four metrics: All-cause mortality, Heart failure events, NYHA Class, and Quality of life as measured with the patient global assessment instrument. A subset of 103 subjects implanted with Boston Scientific CRT-D were followed for 36 months to evaluate the PG (pulse generator) related Complication Free rate at 36 months. A SMART Registry subject was considered part of this PMCF (Post Market Clinical Follow Up) when enrolled in a European site, had an RESONATE HF, RESONATE, MOMENTUM, CHARISMA or VIGILANT BSC CRT-D implanted and Left Ventricular MultiSite Pacing (LV MSP) feature was enabled at any time during the initial 12 months follow up. Any reportable adverse events (including deaths) from these 103 subjects, are represented in the mortality and adverse event sections of the results.", "deathsNumAffected": 152, "deathsNumAtRisk": 2015, "seriousNumAffected": 575, "seriousNumAtRisk": 2015, "otherNumAffected": 132, "otherNumAtRisk": 2015}], "seriousEvents": [{"term": "Hematological", "organSystem": "Blood and lymphatic system disorders", "assessmentType": "NON_SYSTEMATIC_ASSESSMENT", "stats": [{"groupId": "EG000", "numEvents": 11, "numAffected": 9, "numAtRisk": 2015}]}, {"term": "Aortic Regurgitation", "organSystem": "Cardiac disorders", "assessmentType": "NON_SYSTEMATIC_ASSESSMENT", "stats": [{"groupId": "EG000", "numEvents": 2, "numAffected": 2, "numAtRisk": 2015}]}, {"term": "Aortic Stenosis", "organSystem": "Cardiac disorders", "assessmentType": "SYSTEMATIC_ASSESSMENT", "stats": [{"groupId": "EG000", "numEvents": 4, "numAffected": 4, "numAtRisk": 2015}]}, {"term": "Arrhythmia-Other", "organSystem": "Cardiac disorders", "assessmentType": "SYSTEMATIC_ASSESSMENT", "stats": [{"groupId": "EG000", "numEvents": 1, "numAffected": 1, "numAtRisk": 2015}]}, {"term": "Atrial Fibrillation (AF)", "organSystem": "Cardiac disorders", "assessmentType": "SYSTEMATIC_ASSESSMENT", "stats": [{"groupId": "EG000", "numEvents": 43, "numAffected": 43, "numAtRisk": 2015}]}, {"term": "Atrial Flutter", "organSystem": "Cardiac disorders", "assessmentType": "SYSTEMATIC_ASSESSMENT", "stats": [{"groupId": "EG000", "numEvents": 10, "numAffected": 10, "numAtRisk": 2015}]}, {"term": "Atrial Tachycardia/Other SVT (e.g. AVRT, AVNRT, EAT)", "organSystem": "Cardiac disorders", "assessmentType": "SYSTEMATIC_ASSESSMENT", "stats": [{"groupId": "EG000", "numEvents": 2, "numAffected": 2, "numAtRisk": 2015}]}, {"term": "Cardiac Arrest", "organSystem": "Cardiac disorders", "assessmentType": "SYSTEMATIC_ASSESSMENT", "stats": [{"groupId": "EG000", "numEvents": 13, "numAffected": 13, "numAtRisk": 2015}]}, {"term": "Cardiac Medication Complication - Heart Failure", "organSystem": "Cardiac disorders", "assessmentType": "SYSTEMATIC_ASSESSMENT", "stats": [{"groupId": "EG000", "numEvents": 1, "numAffected": 1, "numAtRisk": 2015}]}, {"term": "Cardiogenic Shock", "organSystem": "Cardiac disorders", "assessmentType": "SYSTEMATIC_ASSESSMENT", "stats": [{"groupId": "EG000", "numEvents": 10, "numAffected": 10, "numAtRisk": 2015}]}, {"term": "Chest Pain - Heart Failure", "organSystem": "Cardiac disorders", "assessmentType": "SYSTEMATIC_ASSESSMENT", "stats": [{"groupId": "EG000", "numEvents": 1, "numAffected": 1, "numAtRisk": 2015}]}, {"term": "Dyspnea - Heart Failure", "organSystem": "Cardiac disorders", "assessmentType": "SYSTEMATIC_ASSESSMENT", "stats": [{"groupId": "EG000", "numEvents": 40, "numAffected": 36, "numAtRisk": 2015}]}, {"term": "Gastrointestinal - Heart Failure", "organSystem": "Cardiac disorders", "assessmentType": "SYSTEMATIC_ASSESSMENT", "stats": [{"groupId": "EG000", "numEvents": 2, "numAffected": 2, "numAtRisk": 2015}]}, {"term": "Heart Failure Patient Condition - Cardiovascular - OTHER", "organSystem": "Cardiac disorders", "assessmentType": "SYSTEMATIC_ASSESSMENT", "stats": [{"groupId": "EG000", "numEvents": 9, "numAffected": 9, "numAtRisk": 2015}]}, {"term": "Heart Failure Symptoms - Unspecified", "organSystem": "Cardiac disorders", "assessmentType": "SYSTEMATIC_ASSESSMENT", "stats": [{"groupId": "EG000", "numEvents": 74, "numAffected": 63, "numAtRisk": 2015}]}, {"term": "Hypotension - Heart Failure", "organSystem": "Cardiac disorders", "assessmentType": "SYSTEMATIC_ASSESSMENT", "stats": [{"groupId": "EG000", "numEvents": 1, "numAffected": 1, "numAtRisk": 2015}]}, {"term": "Incessant VT/ VT Storm", "organSystem": "Cardiac disorders", "assessmentType": "SYSTEMATIC_ASSESSMENT", "stats": [{"groupId": "EG000", "numEvents": 4, "numAffected": 4, "numAtRisk": 2015}]}, {"term": "Intracardiac thrombus", "organSystem": "Cardiac disorders", "assessmentType": "SYSTEMATIC_ASSESSMENT", "stats": [{"groupId": "EG000", "numEvents": 1, "numAffected": 1, "numAtRisk": 2015}]}, {"term": "Mitral Regurgitation", "organSystem": "Cardiac disorders", "assessmentType": "SYSTEMATIC_ASSESSMENT", "stats": [{"groupId": "EG000", "numEvents": 3, "numAffected": 3, "numAtRisk": 2015}]}, {"term": "Multi-system Failure - Heart Failure", "organSystem": "Cardiac disorders", "assessmentType": "SYSTEMATIC_ASSESSMENT", "stats": [{"groupId": "EG000", "numEvents": 6, "numAffected": 6, "numAtRisk": 2015}]}, {"term": "Multiple Heart Failure Symptoms", "organSystem": "Cardiac disorders", "assessmentType": "SYSTEMATIC_ASSESSMENT", "stats": [{"groupId": "EG000", "numEvents": 108, "numAffected": 84, "numAtRisk": 2015}]}, {"term": "Nonsustained ventricular tachycardia (NSVT)", "organSystem": "Cardiac disorders", "assessmentType": "SYSTEMATIC_ASSESSMENT", "stats": [{"groupId": "EG000", "numEvents": 2, "numAffected": 2, "numAtRisk": 2015}]}, {"term": "Palpitations", "organSystem": "Cardiac disorders", "assessmentType": "SYSTEMATIC_ASSESSMENT", "stats": [{"groupId": "EG000", "numEvents": 6, "numAffected": 5, "numAtRisk": 2015}]}, {"term": "Patient Condition - Cardiovascular - OTHER", "organSystem": "Cardiac disorders", "assessmentType": "SYSTEMATIC_ASSESSMENT", "stats": [{"groupId": "EG000", "numEvents": 6, "numAffected": 5, "numAtRisk": 2015}]}, {"term": "Pericardial effusion - unrelated procedure/device", "organSystem": "Cardiac disorders", "assessmentType": "SYSTEMATIC_ASSESSMENT", "stats": [{"groupId": "EG000", "numEvents": 4, "numAffected": 4, "numAtRisk": 2015}]}, {"term": "Peripheral edema - Heart Failure", "organSystem": "Cardiac disorders", "assessmentType": "SYSTEMATIC_ASSESSMENT", "stats": [{"groupId": "EG000", "numEvents": 6, "numAffected": 6, "numAtRisk": 2015}]}, {"term": "Pleural Effusion - Heart Failure", "organSystem": "Cardiac disorders", "assessmentType": "SYSTEMATIC_ASSESSMENT", "stats": [{"groupId": "EG000", "numEvents": 1, "numAffected": 1, "numAtRisk": 2015}]}, {"term": "Premature Ventricular Contractions (PVC)", "organSystem": "Cardiac disorders", "assessmentType": "SYSTEMATIC_ASSESSMENT", "stats": [{"groupId": "EG000", "numEvents": 3, "numAffected": 3, "numAtRisk": 2015}]}, {"term": "Pulmonary Edema - Heart Failure", "organSystem": "Cardiac disorders", "assessmentType": "SYSTEMATIC_ASSESSMENT", "stats": [{"groupId": "EG000", "numEvents": 6, "numAffected": 6, "numAtRisk": 2015}]}, {"term": "Pulseless Electrical Activity (PEA)", "organSystem": "Cardiac disorders", "assessmentType": "SYSTEMATIC_ASSESSMENT", "stats": [{"groupId": "EG000", "numEvents": 1, "numAffected": 1, "numAtRisk": 2015}]}, {"term": "Renal Failure/Insufficiency - Heart Failure", "organSystem": "Cardiac disorders", "assessmentType": "SYSTEMATIC_ASSESSMENT", "stats": [{"groupId": "EG000", "numEvents": 4, "numAffected": 4, "numAtRisk": 2015}]}, {"term": "Syncope - Heart Failure", "organSystem": "Cardiac disorders", "assessmentType": "SYSTEMATIC_ASSESSMENT", "stats": [{"groupId": "EG000", "numEvents": 3, "numAffected": 3, "numAtRisk": 2015}]}, {"term": "Valvular Damage/Valvular insufficiency", "organSystem": "Cardiac disorders", "assessmentType": "SYSTEMATIC_ASSESSMENT", "stats": [{"groupId": "EG000", "numEvents": 2, "numAffected": 2, "numAtRisk": 2015}]}, {"term": "Ventricular Fibrillation (VF)", "organSystem": "Cardiac disorders", "assessmentType": "SYSTEMATIC_ASSESSMENT", "stats": [{"groupId": "EG000", "numEvents": 10, "numAffected": 9, "numAtRisk": 2015}]}, {"term": "Ventricular Tachycardia (VT)/Monomorphic VT", "organSystem": "Cardiac disorders", "assessmentType": "SYSTEMATIC_ASSESSMENT", "stats": [{"groupId": "EG000", "numEvents": 40, "numAffected": 27, "numAtRisk": 2015}]}, {"term": "Endocrine", "organSystem": "Endocrine disorders", "assessmentType": "SYSTEMATIC_ASSESSMENT", "stats": [{"groupId": "EG000", "numEvents": 8, "numAffected": 8, "numAtRisk": 2015}]}, {"term": "Gastrointestinal", "organSystem": "Gastrointestinal disorders", "assessmentType": "SYSTEMATIC_ASSESSMENT", "stats": [{"groupId": "EG000", "numEvents": 44, "numAffected": 30, "numAtRisk": 2015}]}, {"term": "Adverse Reaction - Medication", "organSystem": "General disorders", "assessmentType": "SYSTEMATIC_ASSESSMENT", "stats": [{"groupId": "EG000", "numEvents": 4, "numAffected": 4, "numAtRisk": 2015}]}, {"term": "Chest Pain - Other", "organSystem": "General disorders", "assessmentType": "SYSTEMATIC_ASSESSMENT", "stats": [{"groupId": "EG000", "numEvents": 7, "numAffected": 7, "numAtRisk": 2015}]}, {"term": "Death", "organSystem": "General disorders", "assessmentType": "SYSTEMATIC_ASSESSMENT", "stats": [{"groupId": "EG000", "numEvents": 34, "numAffected": 34, "numAtRisk": 2015}]}, {"term": "Dizziness", "organSystem": "General disorders", "assessmentType": "NON_SYSTEMATIC_ASSESSMENT", "stats": [{"groupId": "EG000", "numEvents": 3, "numAffected": 3, "numAtRisk": 2015}]}, {"term": "Fatigue/Weakness", "organSystem": "General disorders", "assessmentType": "SYSTEMATIC_ASSESSMENT", "stats": [{"groupId": "EG000", "numEvents": 2, "numAffected": 2, "numAtRisk": 2015}]}, {"term": "Head, eyes, ears, nose, throat (HEENT)", "organSystem": "General disorders", "assessmentType": "SYSTEMATIC_ASSESSMENT", "stats": [{"groupId": "EG000", "numEvents": 4, "numAffected": 3, "numAtRisk": 2015}]}, {"term": "Multi-System Failure", "organSystem": "General disorders", "assessmentType": "SYSTEMATIC_ASSESSMENT", "stats": [{"groupId": "EG000", "numEvents": 5, "numAffected": 5, "numAtRisk": 2015}]}, {"term": "Multiple Symptoms", "organSystem": "General disorders", "assessmentType": "SYSTEMATIC_ASSESSMENT", "stats": [{"groupId": "EG000", "numEvents": 4, "numAffected": 4, "numAtRisk": 2015}]}, {"term": "Patient Condition - Non-Cardiovascular - OTHER", "organSystem": "General disorders", "assessmentType": "SYSTEMATIC_ASSESSMENT", "stats": [{"groupId": "EG000", "numEvents": 3, "numAffected": 3, "numAtRisk": 2015}]}, {"term": "Physical Trauma", "organSystem": "General disorders", "assessmentType": "SYSTEMATIC_ASSESSMENT", "stats": [{"groupId": "EG000", "numEvents": 19, "numAffected": 17, "numAtRisk": 2015}]}, {"term": "Syncope", "organSystem": "General disorders", "assessmentType": "SYSTEMATIC_ASSESSMENT", "stats": [{"groupId": "EG000", "numEvents": 6, "numAffected": 6, "numAtRisk": 2015}]}, {"term": "Immune", "organSystem": "Immune system disorders", "assessmentType": "SYSTEMATIC_ASSESSMENT", "stats": [{"groupId": "EG000", "numEvents": 1, "numAffected": 1, "numAtRisk": 2015}]}, {"term": "Fever and/or Virus", "organSystem": "Infections and infestations", "assessmentType": "SYSTEMATIC_ASSESSMENT", "stats": [{"groupId": "EG000", "numEvents": 1, "numAffected": 1, "numAtRisk": 2015}]}, {"term": "Infection (> 30 days post implant)", "organSystem": "Infections and infestations", "assessmentType": "SYSTEMATIC_ASSESSMENT", "stats": [{"groupId": "EG000", "numEvents": 10, "numAffected": 10, "numAtRisk": 2015}]}, {"term": "Localized Infection", "organSystem": "Infections and infestations", "assessmentType": "SYSTEMATIC_ASSESSMENT", "stats": [{"groupId": "EG000", "numEvents": 8, "numAffected": 7, "numAtRisk": 2015}]}, {"term": "System Infection", "organSystem": "Infections and infestations", "assessmentType": "SYSTEMATIC_ASSESSMENT", "stats": [{"groupId": "EG000", "numEvents": 22, "numAffected": 20, "numAtRisk": 2015}]}, {"term": "Hematoma - pocket (\u2264 30 days post-implant)", "organSystem": "Injury, poisoning and procedural complications", "assessmentType": "SYSTEMATIC_ASSESSMENT", "stats": [{"groupId": "EG000", "numEvents": 5, "numAffected": 4, "numAtRisk": 2015}]}, {"term": "Pneumothorax", "organSystem": "Injury, poisoning and procedural complications", "assessmentType": "SYSTEMATIC_ASSESSMENT", "stats": [{"groupId": "EG000", "numEvents": 2, "numAffected": 2, "numAtRisk": 2015}]}, {"term": "Post Surgical wound discomfort/bruising/swelling", "organSystem": "Injury, poisoning and procedural complications", "assessmentType": "SYSTEMATIC_ASSESSMENT", "stats": [{"groupId": "EG000", "numEvents": 2, "numAffected": 2, "numAtRisk": 2015}]}, {"term": "Post -Surgical infection (\u2264 30 days post implant)", "organSystem": "Injury, poisoning and procedural complications", "assessmentType": "SYSTEMATIC_ASSESSMENT", "stats": [{"groupId": "EG000", "numEvents": 2, "numAffected": 2, "numAtRisk": 2015}]}, {"term": "Post-surgical pocket hemorrhage/bleeding/drainage", "organSystem": "Injury, poisoning and procedural complications", "assessmentType": "SYSTEMATIC_ASSESSMENT", "stats": [{"groupId": "EG000", "numEvents": 1, "numAffected": 1, "numAtRisk": 2015}]}, {"term": "Procedure - PG System - Other", "organSystem": "Injury, poisoning and procedural complications", "assessmentType": "SYSTEMATIC_ASSESSMENT", "stats": [{"groupId": "EG000", "numEvents": 1, "numAffected": 1, "numAtRisk": 2015}]}, {"term": "Unrelated procedure/device - OTHER", "organSystem": "Injury, poisoning and procedural complications", "assessmentType": "SYSTEMATIC_ASSESSMENT", "stats": [{"groupId": "EG000", "numEvents": 1, "numAffected": 1, "numAtRisk": 2015}]}, {"term": "Venous occlusion", "organSystem": "Injury, poisoning and procedural complications", "assessmentType": "SYSTEMATIC_ASSESSMENT", "stats": [{"groupId": "EG000", "numEvents": 1, "numAffected": 1, "numAtRisk": 2015}]}, {"term": "Musculoskeletal", "organSystem": "Musculoskeletal and connective tissue disorders", "assessmentType": "SYSTEMATIC_ASSESSMENT", "stats": [{"groupId": "EG000", "numEvents": 12, "numAffected": 11, "numAtRisk": 2015}]}, {"term": "Cancer", "organSystem": "Neoplasms benign, malignant and unspecified (incl cysts and polyps)", "assessmentType": "SYSTEMATIC_ASSESSMENT", "stats": [{"groupId": "EG000", "numEvents": 22, "numAffected": 15, "numAtRisk": 2015}]}, {"term": "Neurological", "organSystem": "Nervous system disorders", "assessmentType": "SYSTEMATIC_ASSESSMENT", "stats": [{"groupId": "EG000", "numEvents": 15, "numAffected": 15, "numAtRisk": 2015}]}, {"term": "Conductor Coil Fracture - RA", "organSystem": "Product Issues", "assessmentType": "SYSTEMATIC_ASSESSMENT", "stats": [{"groupId": "EG000", "numEvents": 2, "numAffected": 2, "numAtRisk": 2015}]}, {"term": "Conductor Coil Fracture - RV", "organSystem": "Product Issues", "assessmentType": "SYSTEMATIC_ASSESSMENT", "stats": [{"groupId": "EG000", "numEvents": 1, "numAffected": 1, "numAtRisk": 2015}]}, {"term": "Dislodgement - Elevated Threshold - RA", "organSystem": "Product Issues", "assessmentType": "SYSTEMATIC_ASSESSMENT", "stats": [{"groupId": "EG000", "numEvents": 1, "numAffected": 1, "numAtRisk": 2015}]}, {"term": "Dislodgement - Elevated threshold - LV", "organSystem": "Product Issues", "assessmentType": "SYSTEMATIC_ASSESSMENT", "stats": [{"groupId": "EG000", "numEvents": 4, "numAffected": 3, "numAtRisk": 2015}]}, {"term": "Dislodgement - Elevated threshold - RV", "organSystem": "Product Issues", "assessmentType": "SYSTEMATIC_ASSESSMENT", "stats": [{"groupId": "EG000", "numEvents": 1, "numAffected": 1, "numAtRisk": 2015}]}, {"term": "Dislodgement - Extracardiac stimulation - LV", "organSystem": "Product Issues", "assessmentType": "SYSTEMATIC_ASSESSMENT", "stats": [{"groupId": "EG000", "numEvents": 3, "numAffected": 3, "numAtRisk": 2015}]}, {"term": "Dislodgement - Extracardiac stimulation - RV", "organSystem": "Product Issues", "assessmentType": "SYSTEMATIC_ASSESSMENT", "stats": [{"groupId": "EG000", "numEvents": 1, "numAffected": 1, "numAtRisk": 2015}]}, {"term": "Dislodgement - Multiple signs - LV", "organSystem": "Product Issues", "assessmentType": "SYSTEMATIC_ASSESSMENT", "stats": [{"groupId": "EG000", "numEvents": 3, "numAffected": 3, "numAtRisk": 2015}]}, {"term": "Dislodgement - Multiple signs - RV", "organSystem": "Product Issues", "assessmentType": "SYSTEMATIC_ASSESSMENT", "stats": [{"groupId": "EG000", "numEvents": 3, "numAffected": 2, "numAtRisk": 2015}]}, {"term": "Dislodgement - Multiple signs- RA", "organSystem": "Product Issues", "assessmentType": "SYSTEMATIC_ASSESSMENT", "stats": [{"groupId": "EG000", "numEvents": 2, "numAffected": 2, "numAtRisk": 2015}]}, {"term": "Dislodgement - No reported signs - LV", "organSystem": "Product Issues", "assessmentType": "SYSTEMATIC_ASSESSMENT", "stats": [{"groupId": "EG000", "numEvents": 6, "numAffected": 6, "numAtRisk": 2015}]}, {"term": "Dislodgement - No reported signs - RA", "organSystem": "Product Issues", "assessmentType": "SYSTEMATIC_ASSESSMENT", "stats": [{"groupId": "EG000", "numEvents": 4, "numAffected": 4, "numAtRisk": 2015}]}, {"term": "Dislodgement - No reported signs - RV", "organSystem": "Product Issues", "assessmentType": "SYSTEMATIC_ASSESSMENT", "stats": [{"groupId": "EG000", "numEvents": 4, "numAffected": 4, "numAtRisk": 2015}]}, {"term": "Dislodgement - Unable to Capture - LV", "organSystem": "Product Issues", "assessmentType": "SYSTEMATIC_ASSESSMENT", "stats": [{"groupId": "EG000", "numEvents": 3, "numAffected": 3, "numAtRisk": 2015}]}, {"term": "Dislodgement - Unable to capture - RV", "organSystem": "Product Issues", "assessmentType": "SYSTEMATIC_ASSESSMENT", "stats": [{"groupId": "EG000", "numEvents": 5, "numAffected": 5, "numAtRisk": 2015}]}, {"term": "Electrode Damaged - RA", "organSystem": "Product Issues", "assessmentType": "SYSTEMATIC_ASSESSMENT", "stats": [{"groupId": "EG000", "numEvents": 1, "numAffected": 1, "numAtRisk": 2015}]}, {"term": "Elevated Threshold - LV", "organSystem": "Product Issues", "assessmentType": "NON_SYSTEMATIC_ASSESSMENT", "stats": [{"groupId": "EG000", "numEvents": 1, "numAffected": 1, "numAtRisk": 2015}]}, {"term": "Elevated Threshold - RA", "organSystem": "Product Issues", "assessmentType": "SYSTEMATIC_ASSESSMENT", "stats": [{"groupId": "EG000", "numEvents": 2, "numAffected": 2, "numAtRisk": 2015}]}, {"term": "Elevated Threshold - RV 2140 - Extracardiac Stimulation - RV", "organSystem": "Product Issues", "assessmentType": "SYSTEMATIC_ASSESSMENT", "stats": [{"groupId": "EG000", "numEvents": 5, "numAffected": 5, "numAtRisk": 2015}]}, {"term": "Extracardiac Stimulation - LV", "organSystem": "Product Issues", "assessmentType": "SYSTEMATIC_ASSESSMENT", "stats": [{"groupId": "EG000", "numEvents": 7, "numAffected": 6, "numAtRisk": 2015}]}, {"term": "Helix damaged - RA", "organSystem": "Product Issues", "assessmentType": "SYSTEMATIC_ASSESSMENT", "stats": [{"groupId": "EG000", "numEvents": 1, "numAffected": 1, "numAtRisk": 2015}]}, {"term": "High Out of Range Impedance - LV", "organSystem": "Product Issues", "assessmentType": "SYSTEMATIC_ASSESSMENT", "stats": [{"groupId": "EG000", "numEvents": 1, "numAffected": 1, "numAtRisk": 2015}]}, {"term": "Impedance Out of Range", "organSystem": "Product Issues", "assessmentType": "SYSTEMATIC_ASSESSMENT", "stats": [{"groupId": "EG000", "numEvents": 1, "numAffected": 1, "numAtRisk": 2015}]}, {"term": "Inappropriate Tachy Therapy - SVT", "organSystem": "Product Issues", "assessmentType": "SYSTEMATIC_ASSESSMENT", "stats": [{"groupId": "EG000", "numEvents": 2, "numAffected": 2, "numAtRisk": 2015}]}, {"term": "Inappropriate tachy therapy - SVT", "organSystem": "Product Issues", "assessmentType": "SYSTEMATIC_ASSESSMENT", "stats": [{"groupId": "EG000", "numEvents": 3, "numAffected": 3, "numAtRisk": 2015}]}, {"term": "Inappropriate tachy therapy - Other", "organSystem": "Product Issues", "assessmentType": "SYSTEMATIC_ASSESSMENT", "stats": [{"groupId": "EG000", "numEvents": 1, "numAffected": 1, "numAtRisk": 2015}]}, {"term": "Other Lead Related", "organSystem": "Product Issues", "assessmentType": "SYSTEMATIC_ASSESSMENT", "stats": [{"groupId": "EG000", "numEvents": 1, "numAffected": 1, "numAtRisk": 2015}]}, {"term": "PG System diagnosis - OTHER", "organSystem": "Product Issues", "assessmentType": "SYSTEMATIC_ASSESSMENT", "stats": [{"groupId": "EG000", "numEvents": 1, "numAffected": 1, "numAtRisk": 2015}]}, {"term": "PG System - Patient Related - OTHER", "organSystem": "Product Issues", "assessmentType": "SYSTEMATIC_ASSESSMENT", "stats": [{"groupId": "EG000", "numEvents": 3, "numAffected": 3, "numAtRisk": 2015}]}, {"term": "Unable to Capture - LV", "organSystem": "Product Issues", "assessmentType": "SYSTEMATIC_ASSESSMENT", "stats": [{"groupId": "EG000", "numEvents": 1, "numAffected": 1, "numAtRisk": 2015}]}, {"term": "Unable to Capture - RV", "organSystem": "Product Issues", "assessmentType": "SYSTEMATIC_ASSESSMENT", "stats": [{"groupId": "EG000", "numEvents": 2, "numAffected": 2, "numAtRisk": 2015}]}, {"term": "Unable to Capture - RA", "organSystem": "Product Issues", "assessmentType": "SYSTEMATIC_ASSESSMENT", "stats": [{"groupId": "EG000", "numEvents": 1, "numAffected": 1, "numAtRisk": 2015}]}, {"term": "Psychological", "organSystem": "Psychiatric disorders", "assessmentType": "SYSTEMATIC_ASSESSMENT", "stats": [{"groupId": "EG000", "numEvents": 2, "numAffected": 2, "numAtRisk": 2015}]}, {"term": "Genitourinary", "organSystem": "Renal and urinary disorders", "assessmentType": "SYSTEMATIC_ASSESSMENT", "stats": [{"groupId": "EG000", "numEvents": 12, "numAffected": 10, "numAtRisk": 2015}]}, {"term": "Renal", "organSystem": "Renal and urinary disorders", "assessmentType": "SYSTEMATIC_ASSESSMENT", "stats": [{"groupId": "EG000", "numEvents": 36, "numAffected": 30, "numAtRisk": 2015}]}, {"term": "Adverse Reaction - Respiratory", "organSystem": "Respiratory, thoracic and mediastinal disorders", "assessmentType": "SYSTEMATIC_ASSESSMENT", "stats": [{"groupId": "EG000", "numEvents": 1, "numAffected": 1, "numAtRisk": 2015}]}, {"term": "COPD Exacerbation", "organSystem": "Respiratory, thoracic and mediastinal disorders", "assessmentType": "SYSTEMATIC_ASSESSMENT", "stats": [{"groupId": "EG000", "numEvents": 5, "numAffected": 4, "numAtRisk": 2015}]}, {"term": "Dyspnea", "organSystem": "Respiratory, thoracic and mediastinal disorders", "assessmentType": "SYSTEMATIC_ASSESSMENT", "stats": [{"groupId": "EG000", "numEvents": 4, "numAffected": 4, "numAtRisk": 2015}]}, {"term": "Pleural Effusion - unrelated procedure/device", "organSystem": "Respiratory, thoracic and mediastinal disorders", "assessmentType": "SYSTEMATIC_ASSESSMENT", "stats": [{"groupId": "EG000", "numEvents": 2, "numAffected": 2, "numAtRisk": 2015}]}, {"term": "Pneumothorax - unrelated procedure/device", "organSystem": "Respiratory, thoracic and mediastinal disorders", "assessmentType": "SYSTEMATIC_ASSESSMENT", "stats": [{"groupId": "EG000", "numEvents": 2, "numAffected": 1, "numAtRisk": 2015}]}, {"term": "Pulmonary", "organSystem": "Respiratory, thoracic and mediastinal disorders", "assessmentType": "SYSTEMATIC_ASSESSMENT", "stats": [{"groupId": "EG000", "numEvents": 47, "numAffected": 35, "numAtRisk": 2015}]}, {"term": "Integumentary", "organSystem": "Skin and subcutaneous tissue disorders", "assessmentType": "SYSTEMATIC_ASSESSMENT", "stats": [{"groupId": "EG000", "numEvents": 4, "numAffected": 4, "numAtRisk": 2015}]}, {"term": "Skin burns", "organSystem": "Skin and subcutaneous tissue disorders", "assessmentType": "SYSTEMATIC_ASSESSMENT", "stats": [{"groupId": "EG000", "numEvents": 1, "numAffected": 1, "numAtRisk": 2015}]}, {"term": "Cerebrovascular Accident (CVA)", "organSystem": "Vascular disorders", "assessmentType": "SYSTEMATIC_ASSESSMENT", "stats": [{"groupId": "EG000", "numEvents": 3, "numAffected": 3, "numAtRisk": 2015}]}, {"term": "Cerebrovascular accident (CVA) - ischemic", "organSystem": "Vascular disorders", "assessmentType": "SYSTEMATIC_ASSESSMENT", "stats": [{"groupId": "EG000", "numEvents": 6, "numAffected": 6, "numAtRisk": 2015}]}, {"term": "Chest Pain - Ischemic", "organSystem": "Vascular disorders", "assessmentType": "SYSTEMATIC_ASSESSMENT", "stats": [{"groupId": "EG000", "numEvents": 6, "numAffected": 6, "numAtRisk": 2015}]}, {"term": "Coronary Artery Disease", "organSystem": "Vascular disorders", "assessmentType": "SYSTEMATIC_ASSESSMENT", "stats": [{"groupId": "EG000", "numEvents": 17, "numAffected": 16, "numAtRisk": 2015}]}, {"term": "Deep Vein Thrombosis (DVT)", "organSystem": "Vascular disorders", "assessmentType": "SYSTEMATIC_ASSESSMENT", "stats": [{"groupId": "EG000", "numEvents": 3, "numAffected": 3, "numAtRisk": 2015}]}, {"term": "Hypotension/Orthostatic Hypotension", "organSystem": "Vascular disorders", "assessmentType": "SYSTEMATIC_ASSESSMENT", "stats": [{"groupId": "EG000", "numEvents": 4, "numAffected": 4, "numAtRisk": 2015}]}, {"term": "Myocardial Infarction", "organSystem": "Vascular disorders", "assessmentType": "SYSTEMATIC_ASSESSMENT", "stats": [{"groupId": "EG000", "numEvents": 10, "numAffected": 9, "numAtRisk": 2015}]}, {"term": "Peripheral Vascular Disease", "organSystem": "Vascular disorders", "assessmentType": "SYSTEMATIC_ASSESSMENT", "stats": [{"groupId": "EG000", "numEvents": 12, "numAffected": 11, "numAtRisk": 2015}]}, {"term": "Pulmonary Embolism (PE)", "organSystem": "Vascular disorders", "assessmentType": "SYSTEMATIC_ASSESSMENT", "stats": [{"groupId": "EG000", "numEvents": 5, "numAffected": 5, "numAtRisk": 2015}]}, {"term": "Transient Ischemic Attack (TIA)", "organSystem": "Vascular disorders", "assessmentType": "SYSTEMATIC_ASSESSMENT", "stats": [{"groupId": "EG000", "numEvents": 4, "numAffected": 3, "numAtRisk": 2015}]}], "otherEvents": [{"term": "Atrial (Type I) Flutter", "organSystem": "Cardiac disorders", "assessmentType": "NON_SYSTEMATIC_ASSESSMENT", "stats": [{"groupId": "EG000", "numEvents": 2, "numAffected": 2, "numAtRisk": 2015}]}, {"term": "Atrial Fibrillation (AF)", "organSystem": "Cardiac disorders", "assessmentType": "SYSTEMATIC_ASSESSMENT", "stats": [{"groupId": "EG000", "numEvents": 18, "numAffected": 16, "numAtRisk": 2015}]}, {"term": "Atrial Flutter", "organSystem": "Cardiac disorders", "assessmentType": "SYSTEMATIC_ASSESSMENT", "stats": [{"groupId": "EG000", "numEvents": 3, "numAffected": 3, "numAtRisk": 2015}]}, {"term": "Atrial Tachycardia/Other SVT (e.g. AVRT, AVNRT, EAT)", "organSystem": "Cardiac disorders", "assessmentType": "SYSTEMATIC_ASSESSMENT", "stats": [{"groupId": "EG000", "numEvents": 3, "numAffected": 3, "numAtRisk": 2015}]}, {"term": "Dyspnea - Heart Failure", "organSystem": "Cardiac disorders", "assessmentType": "SYSTEMATIC_ASSESSMENT", "stats": [{"groupId": "EG000", "numEvents": 16, "numAffected": 13, "numAtRisk": 2015}]}, {"term": "Heart Failure Patient Condition - Cardiovascular - OTHER", "organSystem": "Cardiac disorders", "assessmentType": "SYSTEMATIC_ASSESSMENT", "stats": [{"groupId": "EG000", "numEvents": 3, "numAffected": 2, "numAtRisk": 2015}]}, {"term": "Heart Failure Symptoms - Unspecified", "organSystem": "Cardiac disorders", "assessmentType": "SYSTEMATIC_ASSESSMENT", "stats": [{"groupId": "EG000", "numEvents": 9, "numAffected": 6, "numAtRisk": 2015}]}, {"term": "Intracardiac thrombus", "organSystem": "Cardiac disorders", "assessmentType": "SYSTEMATIC_ASSESSMENT", "stats": [{"groupId": "EG000", "numEvents": 1, "numAffected": 1, "numAtRisk": 2015}]}, {"term": "Mitral Regurgitation", "organSystem": "Cardiac disorders", "assessmentType": "SYSTEMATIC_ASSESSMENT", "stats": [{"groupId": "EG000", "numEvents": 1, "numAffected": 1, "numAtRisk": 2015}]}, {"term": "Multiple Heart Failure Symptoms", "organSystem": "Cardiac disorders", "assessmentType": "SYSTEMATIC_ASSESSMENT", "stats": [{"groupId": "EG000", "numEvents": 8, "numAffected": 7, "numAtRisk": 2015}]}, {"term": "Patient Condition - Cardiovascular - OTHER", "organSystem": "Cardiac disorders", "assessmentType": "SYSTEMATIC_ASSESSMENT", "stats": [{"groupId": "EG000", "numEvents": 1, "numAffected": 1, "numAtRisk": 2015}]}, {"term": "Pericardial Effusion - Heart Failure", "organSystem": "Cardiac disorders", "assessmentType": "SYSTEMATIC_ASSESSMENT", "stats": [{"groupId": "EG000", "numEvents": 1, "numAffected": 1, "numAtRisk": 2015}]}, {"term": "Peripheral edema - Heart Failure", "organSystem": "Cardiac disorders", "assessmentType": "SYSTEMATIC_ASSESSMENT", "stats": [{"groupId": "EG000", "numEvents": 1, "numAffected": 1, "numAtRisk": 2015}]}, {"term": "Premature Ventricular Contractions (PVC)", "organSystem": "Cardiac disorders", "assessmentType": "SYSTEMATIC_ASSESSMENT", "stats": [{"groupId": "EG000", "numEvents": 2, "numAffected": 2, "numAtRisk": 2015}]}, {"term": "Torsades de Pointes", "organSystem": "Cardiac disorders", "assessmentType": "SYSTEMATIC_ASSESSMENT", "stats": [{"groupId": "EG000", "numEvents": 1, "numAffected": 1, "numAtRisk": 2015}]}, {"term": "Ventricular Fibrillation (VF)", "organSystem": "Cardiac disorders", "assessmentType": "SYSTEMATIC_ASSESSMENT", "stats": [{"groupId": "EG000", "numEvents": 7, "numAffected": 5, "numAtRisk": 2015}]}, {"term": "Ventricular Tachycardia (VT)/Monomorphic VT", "organSystem": "Cardiac disorders", "assessmentType": "SYSTEMATIC_ASSESSMENT", "stats": [{"groupId": "EG000", "numEvents": 17, "numAffected": 17, "numAtRisk": 2015}]}, {"term": "Chest Pain - Other", "organSystem": "General disorders", "assessmentType": "SYSTEMATIC_ASSESSMENT", "stats": [{"groupId": "EG000", "numEvents": 3, "numAffected": 3, "numAtRisk": 2015}]}, {"term": "Head, eyes, ears, nose, throat (HEENT)", "organSystem": "General disorders", "assessmentType": "SYSTEMATIC_ASSESSMENT", "stats": [{"groupId": "EG000", "numEvents": 1, "numAffected": 1, "numAtRisk": 2015}]}, {"term": "Syncope", "organSystem": "General disorders", "assessmentType": "SYSTEMATIC_ASSESSMENT", "stats": [{"groupId": "EG000", "numEvents": 2, "numAffected": 2, "numAtRisk": 2015}]}, {"term": "Vasovagal Reaction", "organSystem": "General disorders", "assessmentType": "SYSTEMATIC_ASSESSMENT", "stats": [{"groupId": "EG000", "numEvents": 1, "numAffected": 1, "numAtRisk": 2015}]}, {"term": "Infection (> 30 days post implant)", "organSystem": "Infections and infestations", "assessmentType": "SYSTEMATIC_ASSESSMENT", "stats": [{"groupId": "EG000", "numEvents": 1, "numAffected": 1, "numAtRisk": 2015}]}, {"term": "System Infection", "organSystem": "Infections and infestations", "assessmentType": "SYSTEMATIC_ASSESSMENT", "stats": [{"groupId": "EG000", "numEvents": 1, "numAffected": 1, "numAtRisk": 2015}]}, {"term": "Post Surgical wound discomfort/bruising/swelling", "organSystem": "Injury, poisoning and procedural complications", "assessmentType": "SYSTEMATIC_ASSESSMENT", "stats": [{"groupId": "EG000", "numEvents": 1, "numAffected": 1, "numAtRisk": 2015}]}, {"term": "Post-surgical pocket hemorrhage/bleeding/drainage", "organSystem": "Injury, poisoning and procedural complications", "assessmentType": "SYSTEMATIC_ASSESSMENT", "stats": [{"groupId": "EG000", "numEvents": 1, "numAffected": 1, "numAtRisk": 2015}]}, {"term": "Thromboembolic events", "organSystem": "Injury, poisoning and procedural complications", "assessmentType": "SYSTEMATIC_ASSESSMENT", "stats": [{"groupId": "EG000", "numEvents": 1, "numAffected": 1, "numAtRisk": 2015}]}, {"term": "Venous occlusion", "organSystem": "Injury, poisoning and procedural complications", "assessmentType": "SYSTEMATIC_ASSESSMENT", "stats": [{"groupId": "EG000", "numEvents": 1, "numAffected": 1, "numAtRisk": 2015}]}, {"term": "Cancer", "organSystem": "Neoplasms benign, malignant and unspecified (incl cysts and polyps)", "assessmentType": "SYSTEMATIC_ASSESSMENT", "stats": [{"groupId": "EG000", "numEvents": 1, "numAffected": 1, "numAtRisk": 2015}]}, {"term": "Conductor Coil Fracture - RA", "organSystem": "Product Issues", "assessmentType": "SYSTEMATIC_ASSESSMENT", "stats": [{"groupId": "EG000", "numEvents": 1, "numAffected": 1, "numAtRisk": 2015}]}, {"term": "Dislodgement - Elevated threshold - RV", "organSystem": "Product Issues", "assessmentType": "SYSTEMATIC_ASSESSMENT", "stats": [{"groupId": "EG000", "numEvents": 1, "numAffected": 1, "numAtRisk": 2015}]}, {"term": "Dislodgement - Multiple signs - LV", "organSystem": "Pregnancy, puerperium and perinatal conditions", "assessmentType": "SYSTEMATIC_ASSESSMENT", "stats": [{"groupId": "EG000", "numEvents": 2, "numAffected": 2, "numAtRisk": 2015}]}, {"term": "Dislodgement - No reported signs - LV", "organSystem": "Product Issues", "assessmentType": "SYSTEMATIC_ASSESSMENT", "stats": [{"groupId": "EG000", "numEvents": 1, "numAffected": 1, "numAtRisk": 2015}]}, {"term": "Elevated Threshold - LV", "organSystem": "Product Issues", "assessmentType": "SYSTEMATIC_ASSESSMENT", "stats": [{"groupId": "EG000", "numEvents": 1, "numAffected": 1, "numAtRisk": 2015}]}, {"term": "Elevated Threshold - RA", "organSystem": "Product Issues", "assessmentType": "SYSTEMATIC_ASSESSMENT", "stats": [{"groupId": "EG000", "numEvents": 1, "numAffected": 1, "numAtRisk": 2015}]}, {"term": "Elevated Threshold - RV 2140 - Extracardiac Stimulation - RV", "organSystem": "Product Issues", "assessmentType": "SYSTEMATIC_ASSESSMENT", "stats": [{"groupId": "EG000", "numEvents": 2, "numAffected": 2, "numAtRisk": 2015}]}, {"term": "Extracardiac Stimulation - LV", "organSystem": "Product Issues", "assessmentType": "SYSTEMATIC_ASSESSMENT", "stats": [{"groupId": "EG000", "numEvents": 21, "numAffected": 20, "numAtRisk": 2015}]}, {"term": "Inappropriate Tachy Therapy - SVT", "organSystem": "Product Issues", "assessmentType": "SYSTEMATIC_ASSESSMENT", "stats": [{"groupId": "EG000", "numEvents": 1, "numAffected": 1, "numAtRisk": 2015}]}, {"term": "Inappropriate tachy therapy - SVT", "organSystem": "Product Issues", "assessmentType": "SYSTEMATIC_ASSESSMENT", "stats": [{"groupId": "EG000", "numEvents": 4, "numAffected": 4, "numAtRisk": 2015}]}, {"term": "Inappropriate tachy therapy - NSR", "organSystem": "Product Issues", "assessmentType": "SYSTEMATIC_ASSESSMENT", "stats": [{"groupId": "EG000", "numEvents": 2, "numAffected": 2, "numAtRisk": 2015}]}, {"term": "Inappropriate tachy therapy - Other", "organSystem": "Product Issues", "assessmentType": "SYSTEMATIC_ASSESSMENT", "stats": [{"groupId": "EG000", "numEvents": 1, "numAffected": 1, "numAtRisk": 2015}]}, {"term": "Other - PG System", "organSystem": "Product Issues", "assessmentType": "NON_SYSTEMATIC_ASSESSMENT", "stats": [{"groupId": "EG000", "numEvents": 1, "numAffected": 1, "numAtRisk": 2015}]}, {"term": "Oversensing - RA", "organSystem": "Product Issues", "assessmentType": "SYSTEMATIC_ASSESSMENT", "stats": [{"groupId": "EG000", "numEvents": 1, "numAffected": 1, "numAtRisk": 2015}]}, {"term": "Pacemaker Mediated Tachycardia (PMT)", "organSystem": "Product Issues", "assessmentType": "SYSTEMATIC_ASSESSMENT", "stats": [{"groupId": "EG000", "numEvents": 5, "numAffected": 5, "numAtRisk": 2015}]}, {"term": "Renal", "organSystem": "Renal and urinary disorders", "assessmentType": "SYSTEMATIC_ASSESSMENT", "stats": [{"groupId": "EG000", "numEvents": 1, "numAffected": 1, "numAtRisk": 2015}]}, {"term": "Pulmonary", "organSystem": "Respiratory, thoracic and mediastinal disorders", "assessmentType": "SYSTEMATIC_ASSESSMENT", "stats": [{"groupId": "EG000", "numEvents": 2, "numAffected": 1, "numAtRisk": 2015}]}, {"term": "Hypotension/Orthostatic Hypotension", "organSystem": "Vascular disorders", "assessmentType": "SYSTEMATIC_ASSESSMENT", "stats": [{"groupId": "EG000", "numEvents": 2, "numAffected": 2, "numAtRisk": 2015}]}]}, "moreInfoModule": {"limitationsAndCaveats": {"description": "Limitations include a lack of a control group, but a non-randomized observational study with 2005 subjects is appropriate to meet the study's objectives to obtain \"real world\" therapy outcome. Due to COVID-19, there was an increase in missed visits/withdrawals, the impact to the data was minimal, 75.8% of 12-month visits were before March 2020 and there was sufficient data to power the 36-month analysis."}, "certainAgreement": {"piSponsorEmployee": false, "restrictionType": "OTHER", "restrictiveAgreement": true, "otherDetails": "The only disclosure restriction on the PI is that the sponsor can review results communications prior to public release and can embargo communications regarding trial results for a period that is less than or equal to 60 days from the time submitted to the sponsor for review. Sponsor may extend the review period for another 90 days to take steps to protect its intellectual property interests, or to remove any language detrimental to Sponsor's intellectual property interests."}, "pointOfContact": {"title": "Clinical Trial Manager", "organization": "Boston Scientific", "email": "Sara.Veraghtert@bsci.com", "phone": "1-800-227-3422"}}}, "documentSection": {"largeDocumentModule": {"largeDocs": [{"typeAbbrev": "Prot_SAP", "hasProtocol": true, "hasSap": true, "hasIcf": false, "label": "Study Protocol and Statistical Analysis Plan", "date": "2017-02-06", "uploadDate": "2022-10-11T04:54", "filename": "Prot_SAP_000.pdf", "size": 2950745}]}}, "derivedSection": {"miscInfoModule": {"versionHolder": "2024-06-24"}, "conditionBrowseModule": {"meshes": [{"id": "D000006333", "term": "Heart Failure"}], "ancestors": [{"id": "D000006331", "term": "Heart Diseases"}, {"id": "D000002318", "term": "Cardiovascular Diseases"}], "browseLeaves": [{"id": "M9421", "name": "Heart Failure", "asFound": "Heart Failure", "relevance": "HIGH"}, {"id": "M9419", "name": "Heart Diseases", "relevance": "LOW"}], "browseBranches": [{"abbrev": "BC14", "name": "Heart and Blood Diseases"}, {"abbrev": "All", "name": "All Conditions"}]}}, "hasResults": true}