{"protocolSection": {"identificationModule": {"nctId": "NCT00916929", "orgStudyIdInfo": {"id": "40006062/D"}, "organization": {"fullName": "Abbott Medical Devices", "class": "INDUSTRY"}, "briefTitle": "Detect Fluid Early From Intra-thoracic Impedance Monitoring", "officialTitle": "Detect Fluid Early From Intra-thoracic Impedance Monitoring", "acronym": "DEFEAT-PE"}, "statusModule": {"statusVerifiedDate": "2019-02", "overallStatus": "COMPLETED", "expandedAccessInfo": {"hasExpandedAccess": false}, "startDateStruct": {"date": "2009-05"}, "primaryCompletionDateStruct": {"date": "2011-02", "type": "ACTUAL"}, "completionDateStruct": {"date": "2012-03", "type": "ACTUAL"}, "studyFirstSubmitDate": "2009-06-08", "studyFirstSubmitQcDate": "2009-06-08", "studyFirstPostDateStruct": {"date": "2009-06-10", "type": "ESTIMATED"}, "resultsFirstSubmitDate": "2012-12-18", "resultsFirstSubmitQcDate": "2013-05-14", "resultsFirstPostDateStruct": {"date": "2013-06-24", "type": "ESTIMATED"}, "lastUpdateSubmitDate": "2019-02-01", "lastUpdatePostDateStruct": {"date": "2019-02-19", "type": "ACTUAL"}}, "sponsorCollaboratorsModule": {"responsibleParty": {"type": "SPONSOR"}, "leadSponsor": {"name": "Abbott Medical Devices", "class": "INDUSTRY"}}, "oversightModule": {"oversightHasDmc": false}, "descriptionModule": {"briefSummary": "To demonstrate the safety and effectiveness of the Impedance Monitoring Feature in St Jude Medical cardiac devices."}, "conditionsModule": {"conditions": ["Heart Failure"]}, "designModule": {"studyType": "INTERVENTIONAL", "phases": ["NA"], "designInfo": {"allocation": "NON_RANDOMIZED", "interventionModel": "PARALLEL", "primaryPurpose": "DIAGNOSTIC", "maskingInfo": {"masking": "TRIPLE", "whoMasked": ["PARTICIPANT", "CARE_PROVIDER", "INVESTIGATOR"]}}, "enrollmentInfo": {"count": 162, "type": "ACTUAL"}}, "armsInterventionsModule": {"armGroups": [{"label": "Implantable Cardioverter Defibrillator (ICD)", "type": "OTHER", "description": "Impedance Monitoring Feature in an Implantable Cardioverter Defibrillator (ICD).", "interventionNames": ["Device: Impedance Monitoring Feature"]}, {"label": "Cardiac Resynchronization Therapy (CRT-D)", "type": "OTHER", "description": "Impedance Monitoring Feature in a Cardiac Resynchronization Therapy (CRT-D) device.", "interventionNames": ["Device: Impedance Monitoring Feature"]}], "interventions": [{"type": "DEVICE", "name": "Impedance Monitoring Feature", "description": "Algorithm in cardiac device that measures intra-thoracic impedance from the implanted leads", "armGroupLabels": ["Cardiac Resynchronization Therapy (CRT-D)", "Implantable Cardioverter Defibrillator (ICD)"]}]}, "outcomesModule": {"primaryOutcomes": [{"measure": "False Positive Rate", "description": "False Positive Rate is the the number of departures from the device's programmed threshold that are unrelated to a heart failure event. The False Positive Rate per patient year of follow up should be less than 1.5.", "timeFrame": "6-months"}], "secondaryOutcomes": [{"measure": "Sensitivity", "description": "Sensitivity is defined as the ability of the algorithm to detect heart failure events. Sensitivity is calculated as the number of heart failure events detected by the algorithm (true positives) divided by the total number of heart failure events (true positives + false positives).", "timeFrame": "6-months"}]}, "eligibilityModule": {"eligibilityCriteria": "Inclusion Criteria:\n\n* Must have a St. Jude Medical (SJM) ICD or CRT-D for at least 31 days\n* Must have had an episode of acute decompensated heart failure (ADHF) within the past 6 months\n\nExclusion Criteria:\n\n* History of kidney disease requiring hemodialysis\n* Refractory end stage heart failure", "healthyVolunteers": false, "sex": "ALL", "minimumAge": "18 Years", "stdAges": ["ADULT", "OLDER_ADULT"]}, "contactsLocationsModule": {"overallOfficials": [{"name": "Edwin K Heist, MD, PhD", "affiliation": "Massachusetts General Hospital", "role": "STUDY_CHAIR"}], "locations": [{"facility": "University of Alabama at Birmingham", "city": "Birmingham", "state": "Alabama", "zip": "35249", "country": "United States", "geoPoint": {"lat": 33.52066, "lon": -86.80249}}, {"facility": "Arizona Arrhythmia Research Center", "city": "Phoenix", "state": "Arizona", "zip": "85016", "country": "United States", "geoPoint": {"lat": 33.44838, "lon": -112.07404}}, {"facility": "Arkansas Cardiology, PA", "city": "Little Rock", "state": "Arkansas", "zip": "72005", "country": "United States", "geoPoint": {"lat": 34.74648, "lon": -92.28959}}, {"facility": "Little Rock Cardiology Clinic, PA", "city": "Little Rock", "state": "Arkansas", "zip": "72211", "country": "United States", "geoPoint": {"lat": 34.74648, "lon": -92.28959}}, {"facility": "Glendale Memorial Hospital and MC", "city": "Glendale", "state": "California", "zip": "91204", "country": "United States", "geoPoint": {"lat": 34.14251, "lon": -118.25508}}, {"facility": "Cardiac Rhythm Specialists, Inc", "city": "Northridge", "state": "California", "zip": "91325", "country": "United States", "geoPoint": {"lat": 34.22834, "lon": -118.53675}}, {"facility": "Colorado Cardiac Alliance, LLC", "city": "Colorado Springs", "state": "Colorado", "zip": "80907", "country": "United States", "geoPoint": {"lat": 38.83388, "lon": -104.82136}}, {"facility": "Shands Jacksonville", "city": "Jacksonville", "state": "Florida", "zip": "32209", "country": "United States", "geoPoint": {"lat": 30.33218, "lon": -81.65565}}, {"facility": "Watson Clinic Center", "city": "Lakeland", "state": "Florida", "zip": "33805", "country": "United States", "geoPoint": {"lat": 28.03947, "lon": -81.9498}}, {"facility": "Orlando Heart Center", "city": "Orlando", "state": "Florida", "zip": "32806", "country": "United States", "geoPoint": {"lat": 28.53834, "lon": -81.37924}}, {"facility": "Tallahassee Research Institute", "city": "Tallahassee", "state": "Florida", "zip": "32308", "country": "United States", "geoPoint": {"lat": 30.43826, "lon": -84.28073}}, {"facility": "Iowa Heart Center", "city": "West Des Moines", "state": "Iowa", "zip": "50266", "country": "United States", "geoPoint": {"lat": 41.57721, "lon": -93.71133}}, {"facility": "Massachusetts General Hospital", "city": "Boston", "state": "Massachusetts", "zip": "02114", "country": "United States", "geoPoint": {"lat": 42.35843, "lon": -71.05977}}, {"facility": "Cardiology Consultants of East Michigan", "city": "Flint", "state": "Michigan", "zip": "48532", "country": "United States", "geoPoint": {"lat": 43.01253, "lon": -83.68746}}, {"facility": "Thoracic Cardiovascular HC Found. (Sparrow Research)", "city": "Lansing", "state": "Michigan", "zip": "48910", "country": "United States", "geoPoint": {"lat": 42.73253, "lon": -84.55553}}, {"facility": "Hattiesburg Clinic", "city": "Hattiesburg", "state": "Mississippi", "zip": "39401", "country": "United States", "geoPoint": {"lat": 31.32712, "lon": -89.29034}}, {"facility": "North Mississippi Medical Center", "city": "Tupelo", "state": "Mississippi", "zip": "38801", "country": "United States", "geoPoint": {"lat": 34.25807, "lon": -88.70464}}, {"facility": "Deborah Heart and Lung Center", "city": "Browns Mills", "state": "New Jersey", "zip": "08015", "country": "United States", "geoPoint": {"lat": 39.97261, "lon": -74.58293}}, {"facility": "Associated Cardiovascular Consultants", "city": "Cherry Hill", "state": "New Jersey", "zip": "08034", "country": "United States", "geoPoint": {"lat": 39.93484, "lon": -75.03073}}, {"facility": "New York Presbyterian Hospital / Cornell University", "city": "New York", "state": "New York", "zip": "10021", "country": "United States", "geoPoint": {"lat": 40.71427, "lon": -74.00597}}, {"facility": "Mid Carolina Cardiology", "city": "Charlotte", "state": "North Carolina", "zip": "28204", "country": "United States", "geoPoint": {"lat": 35.22709, "lon": -80.84313}}, {"facility": "The Cleveland Clinic Foundation", "city": "Cleveland", "state": "Ohio", "zip": "44195", "country": "United States", "geoPoint": {"lat": 41.4995, "lon": -81.69541}}, {"facility": "Ohio State University", "city": "Columbus", "state": "Ohio", "zip": "43210", "country": "United States", "geoPoint": {"lat": 39.96118, "lon": -82.99879}}, {"facility": "Mercy Hospital Fairfield", "city": "Fairfield", "state": "Ohio", "zip": "45014", "country": "United States", "geoPoint": {"lat": 39.34589, "lon": -84.5605}}, {"facility": "Saint Vincent Consultants in Cardiovascular Diseases", "city": "Erie", "state": "Pennsylvania", "zip": "16502", "country": "United States", "geoPoint": {"lat": 42.12922, "lon": -80.08506}}, {"facility": "Hospital of the University of PA", "city": "Philadelphia", "state": "Pennsylvania", "zip": "19104", "country": "United States", "geoPoint": {"lat": 39.95233, "lon": -75.16379}}, {"facility": "Thomas Jefferson University Hospital", "city": "Philadelphia", "state": "Pennsylvania", "zip": "19107", "country": "United States", "geoPoint": {"lat": 39.95233, "lon": -75.16379}}, {"facility": "York Hospital", "city": "York", "state": "Pennsylvania", "zip": "17403", "country": "United States", "geoPoint": {"lat": 39.9626, "lon": -76.72774}}, {"facility": "Medical University of South Carolina", "city": "Charleston", "state": "South Carolina", "zip": "29425", "country": "United States", "geoPoint": {"lat": 32.77657, "lon": -79.93092}}, {"facility": "Methodist University Hospital", "city": "Memphis", "state": "Tennessee", "zip": "38104", "country": "United States", "geoPoint": {"lat": 35.14953, "lon": -90.04898}}, {"facility": "St Thomas Hospital", "city": "Nashville", "state": "Tennessee", "zip": "37205", "country": "United States", "geoPoint": {"lat": 36.16589, "lon": -86.78444}}, {"facility": "South Texas Cardiovascular Consultants", "city": "San Antonio", "state": "Texas", "zip": "78201", "country": "United States", "geoPoint": {"lat": 29.42412, "lon": -98.49363}}, {"facility": "Sentara Norfolk General Hospital", "city": "Norfolk", "state": "Virginia", "zip": "23507", "country": "United States", "geoPoint": {"lat": 36.84681, "lon": -76.28522}}, {"facility": "The Hope Heart Institute", "city": "Bellevue", "state": "Washington", "zip": "98004", "country": "United States", "geoPoint": {"lat": 47.61038, "lon": -122.20068}}]}}, "resultsSection": {"participantFlowModule": {"recruitmentDetails": "Patient enrollment began on June 9, 2009 and ended on June 30, 2010. All patients had to be implanted at least 31 days prior to enrollment with a legally marketed St Jude Medical device capable of enabling the impedance monitoring feature.", "groups": [{"id": "FG000", "title": "Implantable Cardioverter Defibrillator (ICD) Device", "description": "Impedance Monitoring Feature: Implantable Cardioverter Defibrillator (ICD) algorithm measures impedance from 2 vectors: right ventricle to can and right ventricle to coil"}, {"id": "FG001", "title": "Cardiac Resynchronization Therapy (CRT-D) Device", "description": "Impedance Monitoring Feature: Cardiac Resynchronization Therapy device algorithm measures impedance from 2 vectors: left ventricle to can and right ventricle to coil."}], "periods": [{"title": "Overall Study", "milestones": [{"type": "STARTED", "achievements": [{"groupId": "FG000", "numSubjects": "80"}, {"groupId": "FG001", "numSubjects": "82"}]}, {"type": "COMPLETED", "achievements": [{"groupId": "FG000", "numSubjects": "70"}, {"groupId": "FG001", "numSubjects": "53"}]}, {"type": "NOT COMPLETED", "achievements": [{"groupId": "FG000", "numSubjects": "10"}, {"groupId": "FG001", "numSubjects": "29"}]}], "dropWithdraws": [{"type": "Lost to Follow-up", "reasons": [{"groupId": "FG000", "numSubjects": "1"}, {"groupId": "FG001", "numSubjects": "3"}]}, {"type": "Death", "reasons": [{"groupId": "FG000", "numSubjects": "5"}, {"groupId": "FG001", "numSubjects": "10"}]}, {"type": "Withdrawal by Subject", "reasons": [{"groupId": "FG000", "numSubjects": "1"}, {"groupId": "FG001", "numSubjects": "5"}]}, {"type": "Left ventricular epicardial lead", "reasons": [{"groupId": "FG000", "numSubjects": "1"}, {"groupId": "FG001", "numSubjects": "2"}]}, {"type": "Transferred to hospice care", "reasons": [{"groupId": "FG000", "numSubjects": "1"}, {"groupId": "FG001", "numSubjects": "1"}]}, {"type": "System explant", "reasons": [{"groupId": "FG000", "numSubjects": "1"}, {"groupId": "FG001", "numSubjects": "0"}]}, {"type": "Moved to another state", "reasons": [{"groupId": "FG000", "numSubjects": "0"}, {"groupId": "FG001", "numSubjects": "1"}]}, {"type": "Device unable to process impedance data", "reasons": [{"groupId": "FG000", "numSubjects": "0"}, {"groupId": "FG001", "numSubjects": "7"}]}]}]}, "baselineCharacteristicsModule": {"groups": [{"id": "BG000", "title": "ICD Device", "description": "Impedance Monitoring Feature: Implantable Cardioverter Defibrillator (ICD) algorithm measures impedance from 2 vectors: right ventricle to can and right ventricle to coil"}, {"id": "BG001", "title": "CRT-D Device", "description": "Impedance Monitoring Feature: Cardiac Resynchronization Therapy (CRT-D) algorithm measures impedance from 2 vectors: left ventricle to can and right ventricle to coil."}, {"id": "BG002", "title": "Total", "description": "Total of all reporting groups"}], "denoms": [{"units": "Participants", "counts": [{"groupId": "BG000", "value": "80"}, {"groupId": "BG001", "value": "82"}, {"groupId": "BG002", "value": "162"}]}], "measures": [{"title": "Age, Categorical", "paramType": "COUNT_OF_PARTICIPANTS", "unitOfMeasure": "Participants", "classes": [{"categories": [{"title": "<=18 years", "measurements": [{"groupId": "BG000", "value": "0"}, {"groupId": "BG001", "value": "0"}, {"groupId": "BG002", "value": "0"}]}, {"title": "Between 18 and 65 years", "measurements": [{"groupId": "BG000", "value": "44"}, {"groupId": "BG001", "value": "36"}, {"groupId": "BG002", "value": "80"}]}, {"title": ">=65 years", "measurements": [{"groupId": "BG000", "value": "36"}, {"groupId": "BG001", "value": "46"}, {"groupId": "BG002", "value": "82"}]}]}]}, {"title": "Age, Continuous", "paramType": "MEAN", "dispersionType": "STANDARD_DEVIATION", "unitOfMeasure": "years", "classes": [{"categories": [{"measurements": [{"groupId": "BG000", "value": "61", "spread": "14"}, {"groupId": "BG001", "value": "66", "spread": "13"}, {"groupId": "BG002", "value": "64", "spread": "13"}]}]}]}, {"title": "Sex: Female, Male", "paramType": "COUNT_OF_PARTICIPANTS", "unitOfMeasure": "Participants", "classes": [{"categories": [{"title": "Female", "measurements": [{"groupId": "BG000", "value": "32"}, {"groupId": "BG001", "value": "13"}, {"groupId": "BG002", "value": "45"}]}, {"title": "Male", "measurements": [{"groupId": "BG000", "value": "48"}, {"groupId": "BG001", "value": "69"}, {"groupId": "BG002", "value": "117"}]}]}]}, {"title": "Region of Enrollment", "paramType": "NUMBER", "unitOfMeasure": "participants", "classes": [{"title": "United States", "categories": [{"measurements": [{"groupId": "BG000", "value": "80"}, {"groupId": "BG001", "value": "82"}, {"groupId": "BG002", "value": "162"}]}]}]}]}, "outcomeMeasuresModule": {"outcomeMeasures": [{"type": "PRIMARY", "title": "False Positive Rate", "description": "False Positive Rate is the the number of departures from the device's programmed threshold that are unrelated to a heart failure event. The False Positive Rate per patient year of follow up should be less than 1.5.", "populationDescription": "All patients participating in the study were included in the analysis with a total of 82 patients in each arm. Of the 82 patients implanted with ICD, 2 were upgraded to CRT-D. These 2 patients were censored from the ICD cohort and included in the CRT-D cohort at the time of upgrade based on as-treated analysis principle resulting.", "reportingStatus": "POSTED", "paramType": "NUMBER", "dispersionType": "95% Confidence Interval", "unitOfMeasure": "departures from device threshold", "timeFrame": "6-months", "groups": [{"id": "OG000", "title": "Cardiac Resynchronization Therapy (CRT-D) Device", "description": "Algorithm in cardiac device that measures intra-thoracic impedance from the implanted leads"}, {"id": "OG001", "title": "Implantable Cardioverter Defibrillator (ICD) Device", "description": "Algorithm in cardiac device that measures intra-thoracic impedance from implanted leads"}], "denoms": [{"units": "Participants", "counts": [{"groupId": "OG000", "value": "84"}, {"groupId": "OG001", "value": "80"}]}], "classes": [{"categories": [{"measurements": [{"groupId": "OG000", "value": "1.8", "lowerLimit": "1.8", "upperLimit": "2.17"}, {"groupId": "OG001", "value": "1.49", "lowerLimit": "1.49", "upperLimit": "1.8"}]}]}], "analyses": [{"groupIds": ["OG000", "OG001"], "groupDescription": "For each patient cohort, the hypothesis is formally expressed as follows:\n\nH0: Expected False Positive Rate \u22651.5 per patient-year of follow-up Ha: Expected False Positive Rate \\<1.5 per patient-year of follow-up\n\nThe null hypothesis is rejected at the 5% significance level if the 95% upper confidence limit (UCL) for expected FPR is less than 1.5 per patient-year of follow-up.", "nonInferiorityType": "SUPERIORITY_OR_OTHER", "statisticalMethod": "exact method", "statisticalComment": "95% Upper Confidence Limit of objective performance criteria", "paramType": "rate per patient year of follow up", "paramValue": "1.5", "ciPctValue": "95"}]}, {"type": "SECONDARY", "title": "Sensitivity", "description": "Sensitivity is defined as the ability of the algorithm to detect heart failure events. Sensitivity is calculated as the number of heart failure events detected by the algorithm (true positives) divided by the total number of heart failure events (true positives + false positives).", "populationDescription": "All patients enrolled in the study were included in this analysis with a total of 82 patients in each group. Of the 82 patients implanted with ICD, 2 were upgraded to CRT-D during data collection period. These 2 patients were censored from ICD cohort and included in CRT-D cohort at the time of upgrade based on as-treated analysis principle.", "reportingStatus": "POSTED", "paramType": "NUMBER", "dispersionType": "95% Confidence Interval", "unitOfMeasure": "percentage of true positives", "timeFrame": "6-months", "groups": [{"id": "OG000", "title": "Cardiac Resynchronizaiton Therapy (CRT-D) Device", "description": "Algorithm in cardiac device that measures intra-thoracic impedance from the implanted leads"}, {"id": "OG001", "title": "Implantable Cardioverter Defibrillator (ICD) Device", "description": "Algorithm in cardiac device that measures intra-thoracic impedance from the implanted leads"}], "denoms": [{"units": "Participants", "counts": [{"groupId": "OG000", "value": "84"}, {"groupId": "OG001", "value": "80"}]}], "classes": [{"categories": [{"measurements": [{"groupId": "OG000", "value": "40", "lowerLimit": "26", "upperLimit": "40"}, {"groupId": "OG001", "value": "30.8", "lowerLimit": "16.3", "upperLimit": "30.8"}]}]}], "analyses": [{"groupIds": ["OG000", "OG001"], "groupDescription": "For each patient cohort, the hypothesis is formally expressed as follows:\n\nH0: Sensitivity \u2264 50% Ha: Sensitivity \\> 50%\n\nThe desired outcome was to reject the null hypothesis at the 5% significance level. The null hypothesis is rejected at the 5% significance level if the 95% lower confidence limit (LCL) for sensitivity is greater than 50%.", "nonInferiorityType": "SUPERIORITY_OR_OTHER", "statisticalMethod": "exact method", "paramType": "sensitivity", "paramValue": "50", "ciPctValue": "95", "ciNumSides": "ONE_SIDED", "ciLowerLimit": "50", "dispersionType": "STANDARD_ERROR_OF_MEAN", "dispersionValue": "5"}]}]}, "adverseEventsModule": {"frequencyThreshold": "1", "timeFrame": "755.98 patient months for CRT-D cohort; 902.37 patient months for ICD cohort", "eventGroups": [{"id": "EG000", "title": "CRT-D Device", "description": "Impedance Monitoring Feature: Cardiac Resynchronization Therapy (CRT-D) algorithm measures impedance from 2 vectors: left ventricle to can and right ventricle to coil", "seriousNumAffected": 2, "seriousNumAtRisk": 82, "otherNumAffected": 6, "otherNumAtRisk": 82}, {"id": "EG001", "title": "ICD Device", "description": "Impedance Monitoring Feature: Implantable Cardioverter Defibrillator (ICD) algorithm measures impedance from 2 vectors: right ventricle to can and right ventricle to coil", "seriousNumAffected": 3, "seriousNumAtRisk": 80, "otherNumAffected": 8, "otherNumAtRisk": 80}], "seriousEvents": [{"term": "Device Migration", "organSystem": "Cardiac disorders", "assessmentType": "SYSTEMATIC_ASSESSMENT", "stats": [{"groupId": "EG000", "numEvents": 1, "numAffected": 1, "numAtRisk": 82}, {"groupId": "EG001", "numEvents": 0, "numAffected": 0, "numAtRisk": 80}]}, {"term": "Loss of Capture (LV lead related)", "organSystem": "Cardiac disorders", "assessmentType": "SYSTEMATIC_ASSESSMENT", "stats": [{"groupId": "EG000", "numEvents": 1, "numAffected": 1, "numAtRisk": 82}, {"groupId": "EG001", "numEvents": 0, "numAffected": 0, "numAtRisk": 80}]}, {"term": "Lead dislodgement / migration (RV lead related)", "organSystem": "Cardiac disorders", "assessmentType": "SYSTEMATIC_ASSESSMENT", "stats": [{"groupId": "EG000", "numEvents": 0, "numAffected": 0, "numAtRisk": 82}, {"groupId": "EG001", "numEvents": 1, "numAffected": 1, "numAtRisk": 80}]}, {"term": "Infection (system related)", "organSystem": "Cardiac disorders", "assessmentType": "SYSTEMATIC_ASSESSMENT", "stats": [{"groupId": "EG000", "numEvents": 0, "numAffected": 0, "numAtRisk": 82}, {"groupId": "EG001", "numEvents": 2, "numAffected": 2, "numAtRisk": 80}]}], "otherEvents": [{"term": "Elevated Pacing Threshold (LV lead related)", "organSystem": "Cardiac disorders", "assessmentType": "SYSTEMATIC_ASSESSMENT", "stats": [{"groupId": "EG000", "numEvents": 1, "numAffected": 1, "numAtRisk": 82}, {"groupId": "EG001", "numEvents": 0, "numAffected": 0, "numAtRisk": 80}]}, {"term": "Phrenic Nerve / Diaphragmatic Stimulation (LV lead related)", "organSystem": "Cardiac disorders", "assessmentType": "SYSTEMATIC_ASSESSMENT", "stats": [{"groupId": "EG000", "numEvents": 1, "numAffected": 1, "numAtRisk": 82}, {"groupId": "EG001", "numEvents": 0, "numAffected": 0, "numAtRisk": 80}]}, {"term": "Twiddler Syndrome", "organSystem": "Cardiac disorders", "assessmentType": "SYSTEMATIC_ASSESSMENT", "stats": [{"groupId": "EG000", "numEvents": 1, "numAffected": 1, "numAtRisk": 82}, {"groupId": "EG001", "numEvents": 0, "numAffected": 0, "numAtRisk": 80}]}, {"term": "Therapy for Non Ventricular Rhythm", "organSystem": "Cardiac disorders", "assessmentType": "SYSTEMATIC_ASSESSMENT", "stats": [{"groupId": "EG000", "numEvents": 3, "numAffected": 3, "numAtRisk": 82}, {"groupId": "EG001", "numEvents": 8, "numAffected": 6, "numAtRisk": 80}]}, {"term": "Bleeding / Hematoma", "organSystem": "Cardiac disorders", "assessmentType": "SYSTEMATIC_ASSESSMENT", "stats": [{"groupId": "EG000", "numEvents": 0, "numAffected": 0, "numAtRisk": 82}, {"groupId": "EG001", "numEvents": 1, "numAffected": 1, "numAtRisk": 80}]}, {"term": "Unable to Turn Impedance Data Collection on", "organSystem": "Cardiac disorders", "assessmentType": "SYSTEMATIC_ASSESSMENT", "stats": [{"groupId": "EG000", "numEvents": 0, "numAffected": 0, "numAtRisk": 82}, {"groupId": "EG001", "numEvents": 1, "numAffected": 1, "numAtRisk": 80}]}]}, "moreInfoModule": {"limitationsAndCaveats": {"description": "There were no limitations of the trial."}, "certainAgreement": {"piSponsorEmployee": false, "restrictionType": "LTE60", "restrictiveAgreement": true}, "pointOfContact": {"title": "Tamara Shipman", "organization": "St Jude Medical", "email": "tshipman@sjm.com", "phone": "408 522-6410"}}}, "derivedSection": {"miscInfoModule": {"versionHolder": "2024-06-24"}, "conditionBrowseModule": {"meshes": [{"id": "D000006333", "term": "Heart Failure"}], "ancestors": [{"id": "D000006331", "term": "Heart Diseases"}, {"id": "D000002318", "term": "Cardiovascular Diseases"}], "browseLeaves": [{"id": "M9421", "name": "Heart Failure", "asFound": "Heart Failure", "relevance": "HIGH"}, {"id": "M9419", "name": "Heart Diseases", "relevance": "LOW"}], "browseBranches": [{"abbrev": "BC14", "name": "Heart and Blood Diseases"}, {"abbrev": "All", "name": "All Conditions"}]}}, "hasResults": true}