{"protocolSection": {"identificationModule": {"nctId": "NCT02064868", "orgStudyIdInfo": {"id": "CRLX030A3301"}, "secondaryIdInfos": [{"id": "2013-002513-35", "type": "EUDRACT_NUMBER"}], "organization": {"fullName": "Novartis", "class": "INDUSTRY"}, "briefTitle": "Effect of Serelaxin Versus Standard of Care in Acute Heart Failure (AHF) Patients", "officialTitle": "A Multicenter, Prospective, Randomized, Open-label Study to Assess the Effect of Serelaxin Versus Standard of Care in Acute Heart Failure (AHF) Patients", "acronym": "RELAX-AHF-EU"}, "statusModule": {"statusVerifiedDate": "2018-12", "overallStatus": "TERMINATED", "whyStopped": "Study was terminated based on results from pivotal adult AHF study CRLX030A2301", "expandedAccessInfo": {"hasExpandedAccess": false}, "startDateStruct": {"date": "2014-01-31", "type": "ACTUAL"}, "primaryCompletionDateStruct": {"date": "2017-03-26", "type": "ACTUAL"}, "completionDateStruct": {"date": "2017-04-25", "type": "ACTUAL"}, "studyFirstSubmitDate": "2014-02-14", "studyFirstSubmitQcDate": "2014-02-14", "studyFirstPostDateStruct": {"date": "2014-02-17", "type": "ESTIMATED"}, "resultsFirstSubmitDate": "2018-04-24", "resultsFirstSubmitQcDate": "2018-12-18", "resultsFirstPostDateStruct": {"date": "2019-03-22", "type": "ACTUAL"}, "lastUpdateSubmitDate": "2018-12-18", "lastUpdatePostDateStruct": {"date": "2019-03-22", "type": "ACTUAL"}}, "sponsorCollaboratorsModule": {"responsibleParty": {"type": "SPONSOR"}, "leadSponsor": {"name": "Novartis Pharmaceuticals", "class": "INDUSTRY"}}, "oversightModule": {"oversightHasDmc": true}, "descriptionModule": {"briefSummary": "This was a multinational, multicenter, randomized, open-label study to confirm and expand the efficacy, safety and tolerability evidence of 48 hours intravenous infusion of serelaxin (30 micrograms/kg/day) when added to Standard of Care (SoC) in patients admitted to hospital for Acute Heart Failure (AHF).", "detailedDescription": "This study was aimed at generating clinical evidence, especially on the short term period (in-hospital and at 30 days) to complement existing and future serelaxin data sets in Acute Heart Failure (AHF)."}, "conditionsModule": {"conditions": ["Acute Heart Failure (AHF)"], "keywords": ["AHF,", "RLX030,", "SOC,", "WHF,", "RELAX-AHF-EU", "Renal Impairment"]}, "designModule": {"studyType": "INTERVENTIONAL", "phases": ["PHASE3"], "designInfo": {"allocation": "RANDOMIZED", "interventionModel": "PARALLEL", "primaryPurpose": "TREATMENT", "maskingInfo": {"masking": "NONE"}}, "enrollmentInfo": {"count": 2666, "type": "ACTUAL"}}, "armsInterventionsModule": {"armGroups": [{"label": "Serelaxin + Standard of Care", "type": "EXPERIMENTAL", "description": "Serelaxin (30 \u00b5g/kg/day) as continuous 48 hour intravenous infusion plus standard of care.", "interventionNames": ["Drug: Serelaxin", "Drug: Standard of Care"]}, {"label": "Standard of Care (SOC)", "type": "OTHER", "description": "All patients were required to receive standard of care background heart failure (HF) management during the study, according to local guidelines/international standards. This treatment can include but is not limited to intravenous and/or oral diuretics, angiotensin-converting enzyme (ACE) inhibitors/angiotensin receptor antagonists, beta blockers and aldosterone receptor antagonists, etc.", "interventionNames": ["Drug: Standard of Care"]}], "interventions": [{"type": "DRUG", "name": "Serelaxin", "description": "30 \u00b5g/kg/day IV infusion", "armGroupLabels": ["Serelaxin + Standard of Care"], "otherNames": ["RLX030"]}, {"type": "DRUG", "name": "Standard of Care", "description": "This treatment can include but is not limited to intravenous and/or oral diuretics, angiotensin-converting enzyme (ACE) inhibitors/angiotensin receptor antagonists, beta blockers and aldosterone receptor antagonists, etc.", "armGroupLabels": ["Serelaxin + Standard of Care", "Standard of Care (SOC)"]}]}, "outcomesModule": {"primaryOutcomes": [{"measure": "Percentage of Participants With Worsening Heart Failure (WHF) / All Cause of Deaths Through Day 5", "description": "In-hospital WHF through Day 5 post-randomization included worsening signs and/or symptoms of heart failure that required an intensification of intravenous therapy for heart failure or mechanical ventilation, renal or circulatory support. A central event adjudication committee was appointed to oversee the WHF primary endpoint adjudication.", "timeFrame": "5 days"}], "secondaryOutcomes": [{"measure": "Percentage of Participants With In-hospital Worsening Heart Failure/All-Cause Death/Readmission for Heart Failure Through Day 14", "description": "WHF/death/readmission for heart failure through Day 14. WHF/deaths through Day 5 were adjudicated and confirmed by the Clinical Endpoint Committee, WHF/deaths after Day 5 through Day 14 and readmission through Day 14 were as reported by the investigators.", "timeFrame": "14 days"}, {"measure": "Percentage of Participants With Persistent Sign or Symptoms of Heart Failure / Non-Improvement at Any Post Baseline Visit Through Day 5", "description": "Persistent or non-improvement in any signs or symptoms of HF at any post baseline visit up to Day 5.", "timeFrame": "5 days"}, {"measure": "Percentage of Participants With Renal Deterioration at Any Post Baseline Visit Through Day 14", "description": "Renal deterioration is defined as \\> or = 0.3 mg/dL increase from screening in serum creatinine.", "timeFrame": "14 days"}, {"measure": "Length of Index Hospital Stay", "description": "Length of stay (in hours) is defined as the index hospitalization discharge date and time minus the index hospitalization start date and time.", "timeFrame": "30 Days"}, {"measure": "Percentage of Participants With Adverse Events as Assessment of Safety and Tolerability of Serelaxin in AHF Patients", "timeFrame": "Adverse Events (AE): 5 Days / Serious Adverse Events (SAE): 14 days / All cause deaths 30 days"}, {"measure": "Change From Baseline in Health-related Quality of Life Index Value, Assessed by EuroQoL EQ-5D-5L Questionnaire.", "description": "EQ-5D-5L is a questionnaire designed to assess health status in adults consisting of 5 dimensions (mobility, self-care, usual activities, pain/discomfort, anxiety/depression). The results were converted into a single index value using UK as the reference country for all countries. Range -0.3 (worst possible state) to 1 (best possible state).", "timeFrame": "Baseline, Day 5, Day 14"}]}, "eligibilityModule": {"eligibilityCriteria": "Inclusion Criteria:\n\n* Systolic blood pressure \u2265 125 mmHg\n* Admitted for Acute Heart Failure (AHF)\n* Received intravenous furosemide (or equivalent) at any time between presentation and the start of screening\n* eGFR on admission: \u2265 25 and \u226475 mL/min/1.73 m\\^2\n\nExclusion Criteria:\n\n* Dyspnea (non-cardiac causes)\n* T \\> 38.5\u00b0C\n* Clinical evidence of acute coronary syndrome currently or within 30 days prior to enrollment.\n* Significant left ventricular outflow obstruction, uncorrected, such as obstructive hypertrophic cardiomyopathy or severe aortic stenosis (i.e., aortic valve area \\<1.0 cm\\^2 or mean gradient \\>50 mmHg on prior or current echocardiogram), severe aortic regurgitation and severe mitral stenosis.\n* AHF due to significant arrhythmias\n* Acute myocarditis or hypertrophic obstructive, restrictive, or constrictive cardiomyopathy (does not include restrictive mitral filling patterns seen on Doppler echocardiographic assessments of diastolic function).", "healthyVolunteers": false, "sex": "ALL", "minimumAge": "18 Years", "stdAges": ["ADULT", "OLDER_ADULT"]}, "contactsLocationsModule": {"overallOfficials": [{"name": "Novartis Pharmaceuticals", "affiliation": "Novartis Pharmaceuticals", "role": "STUDY_DIRECTOR"}], "locations": [{"facility": "Novartis Investigative Site", "city": "Feldkirch", "zip": "A-6807", "country": "Austria", "geoPoint": {"lat": 47.23306, "lon": 9.6}}, {"facility": "Novartis Investigative Site", "city": "Graz", "zip": "8020", "country": "Austria", "geoPoint": {"lat": 47.06667, "lon": 15.45}}, {"facility": "Novartis Investigative Site", "city": "Linz", "zip": "A-4020", "country": "Austria", "geoPoint": {"lat": 48.30639, "lon": 14.28611}}, {"facility": "Novartis Investigative Site", "city": "Salzburg", "zip": "5010", "country": "Austria", "geoPoint": {"lat": 47.79941, "lon": 13.04399}}, {"facility": "Novartis Investigative Site", "city": "Salzburg", "zip": "A-5020", "country": "Austria", "geoPoint": {"lat": 47.79941, "lon": 13.04399}}, {"facility": "Novartis Investigative Site", "city": "St. Poelten", "zip": "3100", "country": "Austria", "geoPoint": {"lat": 48.2, "lon": 15.63333}}, {"facility": "Novartis Investigative Site", "city": "Vienna", "zip": "1130", "country": "Austria", "geoPoint": {"lat": 48.20849, "lon": 16.37208}}, {"facility": "Novartis Investigative Site", "city": "Vienna", "zip": "A-1020", "country": "Austria", "geoPoint": {"lat": 48.20849, "lon": 16.37208}}, {"facility": "Novartis Investigative Site", "city": "Wien", "zip": "A-1160", "country": "Austria", "geoPoint": {"lat": 48.20849, "lon": 16.37208}}, {"facility": "Novartis Investigative Site", "city": "Aalst", "zip": "9300", "country": "Belgium", "geoPoint": {"lat": 50.93604, "lon": 4.0355}}, {"facility": "Novartis Investigative Site", "city": "Brugge", "zip": "8000", "country": "Belgium", "geoPoint": {"lat": 51.20892, "lon": 3.22424}}, {"facility": "Novartis Investigative Site", "city": "Brussel", "zip": "1090", "country": "Belgium", "geoPoint": {"lat": 50.85045, "lon": 4.34878}}, {"facility": "Novartis Investigative Site", "city": "Gent", "zip": "9000", "country": "Belgium", "geoPoint": {"lat": 51.05, "lon": 3.71667}}, {"facility": "Novartis Investigative Site", "city": "Hasselt", "zip": "3500", "country": "Belgium", "geoPoint": {"lat": 50.93106, "lon": 5.33781}}, {"facility": "Novartis Investigative Site", "city": "Leuven", "zip": "3000", "country": "Belgium", "geoPoint": {"lat": 50.87959, "lon": 4.70093}}, {"facility": "Novartis Investigative Site", "city": "Liege", "zip": "4000", "country": "Belgium", "geoPoint": {"lat": 50.63373, "lon": 5.56749}}, {"facility": "Novartis Investigative Site", "city": "Lodelinsart", "zip": "6042", "country": "Belgium", "geoPoint": {"lat": 50.43138, "lon": 4.44886}}, {"facility": "Novartis Investigative Site", "city": "Mol", "zip": "2400", "country": "Belgium", "geoPoint": {"lat": 51.19188, "lon": 5.11662}}, {"facility": "Novartis Investigative Site", "city": "Mons", "zip": "7000", "country": "Belgium", "geoPoint": {"lat": 50.45413, "lon": 3.95229}}, {"facility": "Novartis Investigative Site", "city": "Roeselare", "zip": "8800", "country": "Belgium", "geoPoint": {"lat": 50.94653, "lon": 3.12269}}, {"facility": "Novartis Investigative Site", "city": "Ronse", "zip": "9600", "country": "Belgium", "geoPoint": {"lat": 50.74574, "lon": 3.6005}}, {"facility": "Novartis Investigative Site", "city": "Turnhout", "zip": "2300", "country": "Belgium", "geoPoint": {"lat": 51.32254, "lon": 4.94471}}, {"facility": "Novartis Investigative Site", "city": "Gabrovo", "zip": "5300", "country": "Bulgaria", "geoPoint": {"lat": 42.87472, "lon": 25.33417}}, {"facility": "Novartis Investigative Site", "city": "Plovdiv", "zip": "4000", "country": "Bulgaria", "geoPoint": {"lat": 42.15, "lon": 24.75}}, {"facility": "Novartis Investigative Site", "city": "Ruse", "zip": "7002", "country": "Bulgaria", "geoPoint": {"lat": 43.85639, "lon": 25.97083}}, {"facility": "Novartis Investigative Site", "city": "Sliven", "zip": "8800", "country": "Bulgaria", "geoPoint": {"lat": 42.68583, "lon": 26.32917}}, {"facility": "Novartis Investigative Site", "city": "Sofia", "zip": "1233", "country": "Bulgaria", "geoPoint": {"lat": 42.69751, "lon": 23.32415}}, {"facility": "Novartis Investigative Site", "city": "Sofia", "zip": "1431", "country": "Bulgaria", "geoPoint": {"lat": 42.69751, "lon": 23.32415}}, {"facility": "Novartis Investigative Site", "city": "Veliko Tarnovo", "zip": "5000", "country": "Bulgaria", "geoPoint": {"lat": 43.08124, "lon": 25.62904}}, {"facility": "Novartis Investigative Site", "city": "Varazdin", "state": "HRV", "zip": "42000", "country": "Croatia", "geoPoint": {"lat": 46.30444, "lon": 16.33778}}, {"facility": "Novartis Investigative Site", "city": "Zagreb", "zip": "10000", "country": "Croatia", "geoPoint": {"lat": 45.81444, "lon": 15.97798}}, {"facility": "Novartis Investigative Site", "city": "Brno", "state": "Czech Republic", "zip": "656 91", "country": "Czechia", "geoPoint": {"lat": 49.19522, "lon": 16.60796}}, {"facility": "Novartis Investigative Site", "city": "Decin II", "state": "Czech Republic", "zip": "405 99", "country": "Czechia"}, {"facility": "Novartis Investigative Site", "city": "Karvina-Raj", "state": "Czech Republic", "zip": "73412", "country": "Czechia"}, {"facility": "Novartis Investigative Site", "city": "Kromeriz", "state": "Czech Republic", "zip": "767 55", "country": "Czechia", "geoPoint": {"lat": 49.29785, "lon": 17.39312}}, {"facility": "Novartis Investigative Site", "city": "Melnik", "state": "Czech Republic", "zip": "27601", "country": "Czechia", "geoPoint": {"lat": 50.3505, "lon": 14.47411}}, {"facility": "Novartis Investigative Site", "city": "Pisek", "state": "Czech Republic", "zip": "39701", "country": "Czechia", "geoPoint": {"lat": 49.3088, "lon": 14.1475}}, {"facility": "Novartis Investigative Site", "city": "Svitavy", "state": "Czech Republic", "zip": "568 25", "country": "Czechia", "geoPoint": {"lat": 49.75594, "lon": 16.46829}}, {"facility": "Novartis Investigative Site", "city": "Tabor", "state": "Czech Republic", "zip": "39003", "country": "Czechia", "geoPoint": {"lat": 49.41441, "lon": 14.6578}}, {"facility": "Novartis Investigative Site", "city": "Trebic", "state": "Czech Republic", "zip": "674 01", "country": "Czechia", "geoPoint": {"lat": 49.21492, "lon": 15.88166}}, {"facility": "Novartis Investigative Site", "city": "Plzen", "zip": "301 00", "country": "Czechia", "geoPoint": {"lat": 49.74747, "lon": 13.37759}}, {"facility": "Novartis Investigative Site", "city": "Prague 5", "zip": "150 06", "country": "Czechia", "geoPoint": {"lat": 50.08804, "lon": 14.42076}}, {"facility": "Novartis Investigative Site", "city": "Tallinn", "zip": "13419", "country": "Estonia", "geoPoint": {"lat": 59.43696, "lon": 24.75353}}, {"facility": "Novartis Investigative Site", "city": "Tartu", "zip": "51014", "country": "Estonia", "geoPoint": {"lat": 58.38062, "lon": 26.72509}}, {"facility": "Novartis Investigative Site", "city": "Turku", "zip": "20520", "country": "Finland", "geoPoint": {"lat": 60.45148, "lon": 22.26869}}, {"facility": "Novartis Investigative Site", "city": "Marseille cedex 20", "state": "Bouches Du Rhone", "zip": "13915", "country": "France", "geoPoint": {"lat": 43.29551, "lon": 5.38958}}, {"facility": "Novartis Investigative Site", "city": "Nancy", "state": "Cedex", "zip": "54035", "country": "France", "geoPoint": {"lat": 48.68439, "lon": 6.18496}}, {"facility": "Novartis Investigative Site", "city": "Abbeville", "zip": "80100", "country": "France", "geoPoint": {"lat": 50.1, "lon": 1.83333}}, {"facility": "Novartis Investigative Site", "city": "Agen Cedex 9", "zip": "47923", "country": "France", "geoPoint": {"lat": 44.2, "lon": 0.63333}}, {"facility": "Novartis Investigative Site", "city": "Amiens cedex 1", "zip": "80054", "country": "France", "geoPoint": {"lat": 49.9, "lon": 2.3}}, {"facility": "Novartis Investigative Site", "city": "Avignon", "zip": "84000", "country": "France", "geoPoint": {"lat": 43.94834, "lon": 4.80892}}, {"facility": "Novartis Investigative Site", "city": "Belfort", "zip": "90 016", "country": "France", "geoPoint": {"lat": 47.63333, "lon": 6.86667}}, {"facility": "Novartis Investigative Site", "city": "Besancon Cedex", "zip": "25030", "country": "France", "geoPoint": {"lat": 47.24878, "lon": 6.01815}}, {"facility": "Novartis Investigative Site", "city": "Brest", "zip": "29200", "country": "France", "geoPoint": {"lat": 48.3903, "lon": -4.48628}}, {"facility": "Novartis Investigative Site", "city": "Bron", "zip": "69677", "country": "France", "geoPoint": {"lat": 45.73333, "lon": 4.91667}}, {"facility": "Novartis Investigative Site", "city": "Chalon sur Sa\u00f4ne", "zip": "71321", "country": "France", "geoPoint": {"lat": 46.78333, "lon": 4.85}}, {"facility": "Novartis Investigative Site", "city": "Chambray-l\u00e8s-Tours", "zip": "37170", "country": "France", "geoPoint": {"lat": 47.33537, "lon": 0.70286}}, {"facility": "Novartis Investigative Site", "city": "Chateauroux", "zip": "36000", "country": "France", "geoPoint": {"lat": 46.81667, "lon": 1.7}}, {"facility": "Novartis Investigative Site", "city": "Clermont-Ferrand", "zip": "63003", "country": "France", "geoPoint": {"lat": 45.77966, "lon": 3.08628}}, {"facility": "Novartis Investigative Site", "city": "Corbeil Essonnes", "zip": "91100", "country": "France", "geoPoint": {"lat": 48.60603, "lon": 2.48757}}, {"facility": "Novartis Investigative Site", "city": "Dunkerque", "zip": "59385", "country": "France", "geoPoint": {"lat": 51.03297, "lon": 2.377}}, {"facility": "Novartis Investigative Site", "city": "La Seyne sur mer", "zip": "83500", "country": "France", "geoPoint": {"lat": 43.09818, "lon": 5.88471}}, {"facility": "Novartis Investigative Site", "city": "Le Coudray", "zip": "28630", "country": "France", "geoPoint": {"lat": 48.42115, "lon": 1.50057}}, {"facility": "Novartis Investigative Site", "city": "Le Mans Cedex 09", "zip": "72037", "country": "France", "geoPoint": {"lat": 48.0, "lon": 0.2}}, {"facility": "Novartis Investigative Site", "city": "Lens", "zip": "62307", "country": "France", "geoPoint": {"lat": 50.43302, "lon": 2.82791}}, {"facility": "Novartis Investigative Site", "city": "Limoges Cedex", "zip": "87042", "country": "France", "geoPoint": {"lat": 45.83153, "lon": 1.25781}}, {"facility": "Novartis Investigative Site", "city": "Lorient Cedex", "zip": "56322", "country": "France", "geoPoint": {"lat": 47.75, "lon": -3.36667}}, {"facility": "Novartis Investigative Site", "city": "Metz", "zip": "57085", "country": "France", "geoPoint": {"lat": 49.11911, "lon": 6.17269}}, {"facility": "Novartis Investigative Site", "city": "Montauban", "zip": "82013", "country": "France", "geoPoint": {"lat": 44.01667, "lon": 1.35}}, {"facility": "Novartis Investigative Site", "city": "Montauban", "zip": "82017", "country": "France", "geoPoint": {"lat": 44.01667, "lon": 1.35}}, {"facility": "Novartis Investigative Site", "city": "Montpellier", "zip": "34295", "country": "France", "geoPoint": {"lat": 43.61092, "lon": 3.87723}}, {"facility": "Novartis Investigative Site", "city": "Mulhouse cedex", "zip": "68070", "country": "France", "geoPoint": {"lat": 47.75, "lon": 7.33333}}, {"facility": "Novartis Investigative Site", "city": "Nimes Cedex 09", "zip": "30029", "country": "France", "geoPoint": {"lat": 43.83333, "lon": 4.35}}, {"facility": "Novartis Investigative Site", "city": "Niort", "zip": "79021", "country": "France", "geoPoint": {"lat": 46.32313, "lon": -0.45877}}, {"facility": "Novartis Investigative Site", "city": "Orleans", "zip": "45100", "country": "France", "geoPoint": {"lat": 47.90289, "lon": 1.90389}}, {"facility": "Novartis Investigative Site", "city": "Paris cedex 10", "zip": "75010", "country": "France", "geoPoint": {"lat": 48.85341, "lon": 2.3488}}, {"facility": "Novartis Investigative Site", "city": "Paris", "zip": "75013", "country": "France", "geoPoint": {"lat": 48.85341, "lon": 2.3488}}, {"facility": "Novartis Investigative Site", "city": "Paris", "zip": "75015", "country": "France", "geoPoint": {"lat": 48.85341, "lon": 2.3488}}, {"facility": "Novartis Investigative Site", "city": "Pau", "zip": "64000", "country": "France", "geoPoint": {"lat": 43.3, "lon": -0.36667}}, {"facility": "Novartis Investigative Site", "city": "Poitiers", "zip": "86021", "country": "France", "geoPoint": {"lat": 46.58333, "lon": 0.33333}}, {"facility": "Novartis Investigative Site", "city": "P\u00e9rigueux", "zip": "24019", "country": "France", "geoPoint": {"lat": 45.18333, "lon": 0.71667}}, {"facility": "Novartis Investigative Site", "city": "Rennes Cedex 9", "zip": "35033", "country": "France", "geoPoint": {"lat": 48.11198, "lon": -1.67429}}, {"facility": "Novartis Investigative Site", "city": "Saint Brieuc", "zip": "22027", "country": "France", "geoPoint": {"lat": 48.51513, "lon": -2.76838}}, {"facility": "Novartis Investigative Site", "city": "St Michel", "zip": "16470", "country": "France", "geoPoint": {"lat": 49.91952, "lon": 4.13278}}, {"facility": "Novartis Investigative Site", "city": "St Priest en Jarez Cedex", "zip": "42277", "country": "France", "geoPoint": {"lat": 45.47501, "lon": 4.37614}}, {"facility": "Novartis Investigative Site", "city": "Strasbourg Cedex", "zip": "67091", "country": "France", "geoPoint": {"lat": 48.58392, "lon": 7.74553}}, {"facility": "Novartis Investigative Site", "city": "Troyes", "zip": "10003", "country": "France", "geoPoint": {"lat": 48.3, "lon": 4.08333}}, {"facility": "Novartis Investigative Site", "city": "Vienne", "zip": "38209", "country": "France", "geoPoint": {"lat": 45.51667, "lon": 4.86667}}, {"facility": "Novartis Investigative Site", "city": "Flensburg", "state": "Schleswig Holstein", "zip": "24939", "country": "Germany", "geoPoint": {"lat": 54.78431, "lon": 9.43961}}, {"facility": "Novartis Investigative Site", "city": "Arnstadt", "zip": "99310", "country": "Germany", "geoPoint": {"lat": 50.84048, "lon": 10.95198}}, {"facility": "Novartis Investigative Site", "city": "Bad Berka", "zip": "99438", "country": "Germany", "geoPoint": {"lat": 50.89982, "lon": 11.28245}}, {"facility": "Novartis Investigative Site", "city": "Bad Oeynhausen", "zip": "32545", "country": "Germany", "geoPoint": {"lat": 52.20699, "lon": 8.80365}}, {"facility": "Novartis Investigative Site", "city": "Baden-Baden", "zip": "76532", "country": "Germany", "geoPoint": {"lat": 48.7606, "lon": 8.23975}}, {"facility": "Novartis Investigative Site", "city": "Berlin", "zip": "10405", "country": "Germany", "geoPoint": {"lat": 52.52437, "lon": 13.41053}}, {"facility": "Novartis Investigative Site", "city": "Berlin", "zip": "12203", "country": "Germany", "geoPoint": {"lat": 52.52437, "lon": 13.41053}}, {"facility": "Novartis Investigative Site", "city": "Berlin", "zip": "12526", "country": "Germany", "geoPoint": {"lat": 52.52437, "lon": 13.41053}}, {"facility": "Novartis Investigative Site", "city": "Berlin", "zip": "12683", "country": "Germany", "geoPoint": {"lat": 52.52437, "lon": 13.41053}}, {"facility": "Novartis Investigative Site", "city": "Berlin", "zip": "13187", "country": "Germany", "geoPoint": {"lat": 52.52437, "lon": 13.41053}}, {"facility": "Novartis Investigative Site", "city": "Bernburg", "zip": "06406", "country": "Germany", "geoPoint": {"lat": 51.79464, "lon": 11.7401}}, {"facility": "Novartis Investigative Site", "city": "Bochum", "zip": "44791", "country": "Germany", "geoPoint": {"lat": 51.48165, "lon": 7.21648}}, {"facility": "Novartis Investigative Site", "city": "Buchholz in der Nordheide", "zip": "21244", "country": "Germany", "geoPoint": {"lat": 53.32641, "lon": 9.86812}}, {"facility": "Novartis Investigative Site", "city": "Chemnitz", "zip": "09113", "country": "Germany", "geoPoint": {"lat": 50.8357, "lon": 12.92922}}, {"facility": "Novartis Investigative Site", "city": "Chemnitz", "zip": "09117", "country": "Germany", "geoPoint": {"lat": 50.8357, "lon": 12.92922}}, {"facility": "Novartis Investigative Site", "city": "Dorsten", "zip": "46282", "country": "Germany", "geoPoint": {"lat": 51.66166, "lon": 6.96514}}, {"facility": "Novartis Investigative Site", "city": "Dortmund", "zip": "44263", "country": "Germany", "geoPoint": {"lat": 51.51494, "lon": 7.466}}, {"facility": "Novartis Investigative Site", "city": "Dortmund", "zip": "44309", "country": "Germany", "geoPoint": {"lat": 51.51494, "lon": 7.466}}, {"facility": "Novartis Investigative Site", "city": "Dortmund", "zip": "44379", "country": "Germany", "geoPoint": {"lat": 51.51494, "lon": 7.466}}, {"facility": "Novartis Investigative Site", "city": "Dresden", "zip": "01307", "country": "Germany", "geoPoint": {"lat": 51.05089, "lon": 13.73832}}, {"facility": "Novartis Investigative Site", "city": "Duisburg", "zip": "47137", "country": "Germany", "geoPoint": {"lat": 51.43247, "lon": 6.76516}}, {"facility": "Novartis Investigative Site", "city": "Duisburg", "zip": "47228", "country": "Germany", "geoPoint": {"lat": 51.43247, "lon": 6.76516}}, {"facility": "Novartis Investigative Site", "city": "D\u00fcssledorf", "zip": "40217", "country": "Germany", "geoPoint": {"lat": 51.22172, "lon": 6.77616}}, {"facility": "Novartis Investigative Site", "city": "Erfurt", "zip": "99089", "country": "Germany", "geoPoint": {"lat": 50.9787, "lon": 11.03283}}, {"facility": "Novartis Investigative Site", "city": "Erfurt", "zip": "99097", "country": "Germany", "geoPoint": {"lat": 50.9787, "lon": 11.03283}}, {"facility": "Novartis Investigative Site", "city": "Erlangen", "zip": "91054", "country": "Germany", "geoPoint": {"lat": 49.59099, "lon": 11.00783}}, {"facility": "Novartis Investigative Site", "city": "Eschwege", "zip": "37269", "country": "Germany", "geoPoint": {"lat": 51.18386, "lon": 10.05329}}, {"facility": "Novartis Investigative Site", "city": "Esslingen", "zip": "73730", "country": "Germany", "geoPoint": {"lat": 48.73961, "lon": 9.30473}}, {"facility": "Novartis Investigative Site", "city": "Frankfurt", "zip": "60316", "country": "Germany", "geoPoint": {"lat": 50.11552, "lon": 8.68417}}, {"facility": "Novartis Investigative Site", "city": "Frankfurt", "zip": "65929", "country": "Germany", "geoPoint": {"lat": 50.11552, "lon": 8.68417}}, {"facility": "Novartis Investigative Site", "city": "Friesoythe", "zip": "26169", "country": "Germany", "geoPoint": {"lat": 53.0226, "lon": 7.85764}}, {"facility": "Novartis Investigative Site", "city": "Gera", "zip": "07548", "country": "Germany", "geoPoint": {"lat": 50.88029, "lon": 12.08187}}, {"facility": "Novartis Investigative Site", "city": "Gotha", "zip": "99867", "country": "Germany", "geoPoint": {"lat": 50.94823, "lon": 10.70193}}, {"facility": "Novartis Investigative Site", "city": "Greifswald", "zip": "17475", "country": "Germany", "geoPoint": {"lat": 54.09311, "lon": 13.38786}}, {"facility": "Novartis Investigative Site", "city": "Guetersloh", "zip": "33332", "country": "Germany"}, {"facility": "Novartis Investigative Site", "city": "Hamburg", "zip": "22457", "country": "Germany", "geoPoint": {"lat": 53.57532, "lon": 10.01534}}, {"facility": "Novartis Investigative Site", "city": "Heidelberg", "zip": "69120", "country": "Germany", "geoPoint": {"lat": 49.40768, "lon": 8.69079}}, {"facility": "Novartis Investigative Site", "city": "Heidenheim", "zip": "89522", "country": "Germany", "geoPoint": {"lat": 48.67798, "lon": 10.15162}}, {"facility": "Novartis Investigative Site", "city": "Hennigsdorf", "zip": "16761", "country": "Germany", "geoPoint": {"lat": 52.63598, "lon": 13.20419}}, {"facility": "Novartis Investigative Site", "city": "Herford", "zip": "32049", "country": "Germany", "geoPoint": {"lat": 52.11457, "lon": 8.67343}}, {"facility": "Novartis Investigative Site", "city": "Hoyerswerda", "zip": "02977", "country": "Germany", "geoPoint": {"lat": 51.43787, "lon": 14.23549}}, {"facility": "Novartis Investigative Site", "city": "Kaufbeuren", "zip": "87600", "country": "Germany", "geoPoint": {"lat": 47.88238, "lon": 10.62192}}, {"facility": "Novartis Investigative Site", "city": "Koblenz", "zip": "56073", "country": "Germany", "geoPoint": {"lat": 50.35357, "lon": 7.57883}}, {"facility": "Novartis Investigative Site", "city": "Koeln-Nippes", "zip": "50733", "country": "Germany", "geoPoint": {"lat": 50.93333, "lon": 6.95}}, {"facility": "Novartis Investigative Site", "city": "Langen", "zip": "63225", "country": "Germany", "geoPoint": {"lat": 49.98955, "lon": 8.66852}}, {"facility": "Novartis Investigative Site", "city": "Lemgo", "zip": "32657", "country": "Germany", "geoPoint": {"lat": 52.02786, "lon": 8.89901}}, {"facility": "Novartis Investigative Site", "city": "Leverkusen", "zip": "51379", "country": "Germany", "geoPoint": {"lat": 51.0303, "lon": 6.98432}}, {"facility": "Novartis Investigative Site", "city": "L\u00fcneburg", "zip": "21339", "country": "Germany", "geoPoint": {"lat": 53.2509, "lon": 10.41409}}, {"facility": "Novartis Investigative Site", "city": "Mannheim", "zip": "68167", "country": "Germany", "geoPoint": {"lat": 49.4891, "lon": 8.46694}}, {"facility": "Novartis Investigative Site", "city": "Marburg", "zip": "35039", "country": "Germany", "geoPoint": {"lat": 50.80904, "lon": 8.77069}}, {"facility": "Novartis Investigative Site", "city": "Marl", "zip": "45768", "country": "Germany", "geoPoint": {"lat": 51.65671, "lon": 7.09038}}, {"facility": "Novartis Investigative Site", "city": "Memmingen", "zip": "87700", "country": "Germany", "geoPoint": {"lat": 47.98372, "lon": 10.18527}}, {"facility": "Novartis Investigative Site", "city": "Moenchengladbach", "zip": "41063", "country": "Germany", "geoPoint": {"lat": 51.18539, "lon": 6.44172}}, {"facility": "Novartis Investigative Site", "city": "Muelheim", "zip": "45468", "country": "Germany"}, {"facility": "Novartis Investigative Site", "city": "Muenchen", "zip": "81379", "country": "Germany", "geoPoint": {"lat": 51.60698, "lon": 13.31243}}, {"facility": "Novartis Investigative Site", "city": "Neum\u00fcnster", "zip": "24534", "country": "Germany", "geoPoint": {"lat": 54.07477, "lon": 9.98195}}, {"facility": "Novartis Investigative Site", "city": "Neunkirchen", "zip": "66538", "country": "Germany", "geoPoint": {"lat": 49.34449, "lon": 7.18045}}, {"facility": "Novartis Investigative Site", "city": "Neuss", "zip": "41464", "country": "Germany", "geoPoint": {"lat": 51.19807, "lon": 6.68504}}, {"facility": "Novartis Investigative Site", "city": "Neustadt A.d. Aisch", "zip": "91413", "country": "Germany"}, {"facility": "Novartis Investigative Site", "city": "Neuwied", "zip": "56564", "country": "Germany", "geoPoint": {"lat": 50.4336, "lon": 7.47057}}, {"facility": "Novartis Investigative Site", "city": "N\u00fcrnberg", "zip": "90419", "country": "Germany", "geoPoint": {"lat": 49.45421, "lon": 11.07752}}, {"facility": "Novartis Investigative Site", "city": "Ribnitz-Damgarten", "zip": "18311", "country": "Germany", "geoPoint": {"lat": 54.2422, "lon": 12.45666}}, {"facility": "Novartis Investigative Site", "city": "Rostock", "zip": "18057", "country": "Germany", "geoPoint": {"lat": 54.0887, "lon": 12.14049}}, {"facility": "Novartis Investigative Site", "city": "Rotenburg", "zip": "27356", "country": "Germany", "geoPoint": {"lat": 53.11125, "lon": 9.41082}}, {"facility": "Novartis Investigative Site", "city": "Schoenebeck", "zip": "39218", "country": "Germany"}, {"facility": "Novartis Investigative Site", "city": "Schwabach", "zip": "91126", "country": "Germany", "geoPoint": {"lat": 49.33047, "lon": 11.02346}}, {"facility": "Novartis Investigative Site", "city": "Schwalmstadt", "zip": "34613", "country": "Germany", "geoPoint": {"lat": 50.93333, "lon": 9.21667}}, {"facility": "Novartis Investigative Site", "city": "Singen", "zip": "78224", "country": "Germany", "geoPoint": {"lat": 47.75935, "lon": 8.8403}}, {"facility": "Novartis Investigative Site", "city": "Soest", "zip": "59494", "country": "Germany", "geoPoint": {"lat": 51.57558, "lon": 8.10619}}, {"facility": "Novartis Investigative Site", "city": "Sonneberg", "zip": "96515", "country": "Germany", "geoPoint": {"lat": 50.3592, "lon": 11.17463}}, {"facility": "Novartis Investigative Site", "city": "Speyer", "zip": "67346", "country": "Germany", "geoPoint": {"lat": 49.32083, "lon": 8.43111}}, {"facility": "Novartis Investigative Site", "city": "Stade", "zip": "21682", "country": "Germany", "geoPoint": {"lat": 53.59337, "lon": 9.47629}}, {"facility": "Novartis Investigative Site", "city": "Stadtlohn", "zip": "48703", "country": "Germany", "geoPoint": {"lat": 51.99399, "lon": 6.91918}}, {"facility": "Novartis Investigative Site", "city": "Stuttgart", "zip": "70376", "country": "Germany", "geoPoint": {"lat": 48.78232, "lon": 9.17702}}, {"facility": "Novartis Investigative Site", "city": "Suhl", "zip": "98527", "country": "Germany", "geoPoint": {"lat": 50.60911, "lon": 10.69401}}, {"facility": "Novartis Investigative Site", "city": "Torgau", "zip": "04860", "country": "Germany", "geoPoint": {"lat": 51.56016, "lon": 12.99617}}, {"facility": "Novartis Investigative Site", "city": "Trier", "zip": "54292", "country": "Germany", "geoPoint": {"lat": 49.75565, "lon": 6.63935}}, {"facility": "Novartis Investigative Site", "city": "Tuebingen", "zip": "72076", "country": "Germany", "geoPoint": {"lat": 48.52266, "lon": 9.05222}}, {"facility": "Novartis Investigative Site", "city": "Ulm", "zip": "89081", "country": "Germany", "geoPoint": {"lat": 48.39841, "lon": 9.99155}}, {"facility": "Novartis Investigative Site", "city": "Vechta", "zip": "49377", "country": "Germany", "geoPoint": {"lat": 52.72632, "lon": 8.28598}}, {"facility": "Novartis Investigative Site", "city": "Wesel", "zip": "46483", "country": "Germany", "geoPoint": {"lat": 51.6669, "lon": 6.62037}}, {"facility": "Novartis Investigative Site", "city": "Witten", "zip": "58455", "country": "Germany", "geoPoint": {"lat": 51.44362, "lon": 7.35258}}, {"facility": "Novartis Investigative Site", "city": "Worms", "zip": "67550", "country": "Germany", "geoPoint": {"lat": 49.63278, "lon": 8.35916}}, {"facility": "Novartis Investigative Site", "city": "Wuerzburg", "zip": "97078", "country": "Germany", "geoPoint": {"lat": 49.79391, "lon": 9.95121}}, {"facility": "Novartis Investigative Site", "city": "Wuppertal", "zip": "42109", "country": "Germany", "geoPoint": {"lat": 51.27027, "lon": 7.16755}}, {"facility": "Novartis Investigative Site", "city": "Wurzen", "zip": "04808", "country": "Germany", "geoPoint": {"lat": 51.3707, "lon": 12.73939}}, {"facility": "Novartis Investigative Site", "city": "Alexandroupolis", "state": "Evros", "zip": "681 00", "country": "Greece", "geoPoint": {"lat": 40.84995, "lon": 25.87644}}, {"facility": "Novartis Investigative Site", "city": "Voula", "state": "GR", "zip": "166 73", "country": "Greece", "geoPoint": {"lat": 37.84221, "lon": 23.77651}}, {"facility": "Novartis Investigative Site", "city": "Athens", "zip": "115 21", "country": "Greece", "geoPoint": {"lat": 37.97945, "lon": 23.71622}}, {"facility": "Novartis Investigative Site", "city": "Athens", "zip": "115 27", "country": "Greece", "geoPoint": {"lat": 37.97945, "lon": 23.71622}}, {"facility": "Novartis Investigative Site", "city": "Athens", "zip": "115 28", "country": "Greece", "geoPoint": {"lat": 37.97945, "lon": 23.71622}}, {"facility": "Novartis Investigative Site", "city": "Volos", "zip": "GR 38222", "country": "Greece", "geoPoint": {"lat": 39.36103, "lon": 22.94248}}, {"facility": "Novartis Investigative Site", "city": "Budapest", "zip": "1096", "country": "Hungary", "geoPoint": {"lat": 47.49801, "lon": 19.03991}}, {"facility": "Novartis Investigative Site", "city": "Budapest", "zip": "H 1096", "country": "Hungary", "geoPoint": {"lat": 47.49801, "lon": 19.03991}}, {"facility": "Novartis Investigative Site", "city": "Budapest", "zip": "H-1032", "country": "Hungary", "geoPoint": {"lat": 47.49801, "lon": 19.03991}}, {"facility": "Novartis Investigative Site", "city": "Budapest", "zip": "H-1115", "country": "Hungary", "geoPoint": {"lat": 47.49801, "lon": 19.03991}}, {"facility": "Novartis Investigative Site", "city": "Debrecen", "zip": "4032", "country": "Hungary", "geoPoint": {"lat": 47.53333, "lon": 21.63333}}, {"facility": "Novartis Investigative Site", "city": "Eger", "zip": "H-3300", "country": "Hungary", "geoPoint": {"lat": 47.90265, "lon": 20.37329}}, {"facility": "Novartis Investigative Site", "city": "Gyor", "zip": "H-9023", "country": "Hungary", "geoPoint": {"lat": 47.68333, "lon": 17.63512}}, {"facility": "Novartis Investigative Site", "city": "Kalocsa", "zip": "6300", "country": "Hungary", "geoPoint": {"lat": 46.52639, "lon": 18.98583}}, {"facility": "Novartis Investigative Site", "city": "Kecskemet", "zip": "6000", "country": "Hungary", "geoPoint": {"lat": 46.90618, "lon": 19.69128}}, {"facility": "Novartis Investigative Site", "city": "Kistarcsa", "zip": "2143", "country": "Hungary", "geoPoint": {"lat": 47.54757, "lon": 19.26247}}, {"facility": "Novartis Investigative Site", "city": "Mako", "zip": "6900", "country": "Hungary", "geoPoint": {"lat": 46.21667, "lon": 20.48333}}, {"facility": "Novartis Investigative Site", "city": "Szeged", "zip": "H-6725", "country": "Hungary", "geoPoint": {"lat": 46.253, "lon": 20.14824}}, {"facility": "Novartis Investigative Site", "city": "Szolnok", "zip": "5004", "country": "Hungary", "geoPoint": {"lat": 47.18333, "lon": 20.2}}, {"facility": "Novartis Investigative Site", "city": "Reykjavik", "zip": "IS-101", "country": "Iceland", "geoPoint": {"lat": 64.13548, "lon": -21.89541}}, {"facility": "Novartis Investigative Site", "city": "San Benedetto del Tronto", "state": "AP", "zip": "63039", "country": "Italy", "geoPoint": {"lat": 42.9568, "lon": 13.87676}}, {"facility": "Novartis Investigative Site", "city": "Arezzo", "state": "AR", "zip": "52100", "country": "Italy", "geoPoint": {"lat": 43.46276, "lon": 11.88068}}, {"facility": "Novartis Investigative Site", "city": "Acquaviva delle Fonti", "state": "BA", "zip": "70021", "country": "Italy", "geoPoint": {"lat": 40.89704, "lon": 16.8433}}, {"facility": "Novartis Investigative Site", "city": "Altamura", "state": "BA", "zip": "70022", "country": "Italy", "geoPoint": {"lat": 40.82664, "lon": 16.54952}}, {"facility": "Novartis Investigative Site", "city": "Cassano delle Murge", "state": "BA", "zip": "70020", "country": "Italy", "geoPoint": {"lat": 40.89112, "lon": 16.76531}}, {"facility": "Novartis Investigative Site", "city": "Treviglio", "state": "BG", "zip": "24047", "country": "Italy", "geoPoint": {"lat": 45.52081, "lon": 9.59102}}, {"facility": "Novartis Investigative Site", "city": "Cagliari", "state": "CA", "zip": "09134", "country": "Italy", "geoPoint": {"lat": 39.23054, "lon": 9.11917}}, {"facility": "Novartis Investigative Site", "city": "Catania", "state": "CT", "zip": "95100", "country": "Italy", "geoPoint": {"lat": 37.49223, "lon": 15.07041}}, {"facility": "Novartis Investigative Site", "city": "Lodi", "state": "LO", "zip": "26900", "country": "Italy", "geoPoint": {"lat": 45.30989, "lon": 9.50085}}, {"facility": "Novartis Investigative Site", "city": "Latina", "state": "LT", "zip": "04100", "country": "Italy", "geoPoint": {"lat": 41.46614, "lon": 12.9043}}, {"facility": "Novartis Investigative Site", "city": "Messina", "state": "ME", "zip": "98125", "country": "Italy", "geoPoint": {"lat": 38.19394, "lon": 15.55256}}, {"facility": "Novartis Investigative Site", "city": "Cernusco sul Naviglio", "state": "MI", "zip": "20063", "country": "Italy", "geoPoint": {"lat": 45.52526, "lon": 9.33297}}, {"facility": "Novartis Investigative Site", "city": "Legnano", "state": "MI", "zip": "20025", "country": "Italy", "geoPoint": {"lat": 45.59788, "lon": 8.91506}}, {"facility": "Novartis Investigative Site", "city": "Matera", "state": "Mount", "zip": "75100", "country": "Italy", "geoPoint": {"lat": 40.66599, "lon": 16.60463}}, {"facility": "Novartis Investigative Site", "city": "Piacenza", "state": "PC", "zip": "29100", "country": "Italy", "geoPoint": {"lat": 45.05242, "lon": 9.69342}}, {"facility": "Novartis Investigative Site", "city": "Pordenone", "state": "PN", "zip": "33170", "country": "Italy", "geoPoint": {"lat": 45.95689, "lon": 12.66051}}, {"facility": "Novartis Investigative Site", "city": "Reggio Emilia", "state": "RE", "zip": "42123", "country": "Italy", "geoPoint": {"lat": 44.69825, "lon": 10.63125}}, {"facility": "Novartis Investigative Site", "city": "Scandiano", "state": "RE", "zip": "42019", "country": "Italy", "geoPoint": {"lat": 44.5983, "lon": 10.69558}}, {"facility": "Novartis Investigative Site", "city": "Roma", "state": "RM", "zip": "00135", "country": "Italy", "geoPoint": {"lat": 41.89193, "lon": 12.51133}}, {"facility": "Novartis Investigative Site", "city": "Roma", "state": "RM", "zip": "00152", "country": "Italy", "geoPoint": {"lat": 41.89193, "lon": 12.51133}}, {"facility": "Novartis Investigative Site", "city": "Roma", "state": "RM", "zip": "00177", "country": "Italy", "geoPoint": {"lat": 41.89193, "lon": 12.51133}}, {"facility": "Novartis Investigative Site", "city": "Roma", "state": "RM", "zip": "00189", "country": "Italy", "geoPoint": {"lat": 41.89193, "lon": 12.51133}}, {"facility": "Novartis Investigative Site", "city": "Siena", "state": "SI", "zip": "53100", "country": "Italy", "geoPoint": {"lat": 43.31822, "lon": 11.33064}}, {"facility": "Novartis Investigative Site", "city": "Siracusa", "state": "SR", "zip": "96100", "country": "Italy", "geoPoint": {"lat": 37.08415, "lon": 15.27628}}, {"facility": "Novartis Investigative Site", "city": "Sassari", "state": "SS", "zip": "07100", "country": "Italy", "geoPoint": {"lat": 40.72586, "lon": 8.55552}}, {"facility": "Novartis Investigative Site", "city": "Orbassano", "state": "TO", "zip": "10043", "country": "Italy", "geoPoint": {"lat": 45.00547, "lon": 7.53813}}, {"facility": "Novartis Investigative Site", "city": "Torino", "state": "TO", "zip": "10153", "country": "Italy", "geoPoint": {"lat": 45.07049, "lon": 7.68682}}, {"facility": "Novartis Investigative Site", "city": "Torino", "state": "TO", "zip": "10154", "country": "Italy", "geoPoint": {"lat": 45.07049, "lon": 7.68682}}, {"facility": "Novartis Investigative Site", "city": "Busto Arsizio", "state": "VA", "zip": "21052", "country": "Italy", "geoPoint": {"lat": 45.61128, "lon": 8.84914}}, {"facility": "Novartis Investigative Site", "city": "Chioggia", "state": "VE", "zip": "30015", "country": "Italy", "geoPoint": {"lat": 45.21857, "lon": 12.27774}}, {"facility": "Novartis Investigative Site", "city": "Vicenza", "state": "VI", "zip": "36100", "country": "Italy", "geoPoint": {"lat": 45.54672, "lon": 11.5475}}, {"facility": "Novartis Investigative Site", "city": "Verona", "state": "VR", "zip": "37134", "country": "Italy", "geoPoint": {"lat": 45.4299, "lon": 10.98444}}, {"facility": "Novartis Investigative Site", "city": "Vibo Valentia", "state": "VV", "zip": "89900", "country": "Italy", "geoPoint": {"lat": 38.67618, "lon": 16.10094}}, {"facility": "Novartis Investigative Site", "city": "Pozzuoli", "zip": "80078", "country": "Italy", "geoPoint": {"lat": 40.84394, "lon": 14.0952}}, {"facility": "Novartis Investigative Site", "city": "Daugavpils", "zip": "LV-5417", "country": "Latvia", "geoPoint": {"lat": 55.88333, "lon": 26.53333}}, {"facility": "Novartis Investigative Site", "city": "Kaunas", "state": "LTU", "zip": "LT-50161", "country": "Lithuania", "geoPoint": {"lat": 54.90272, "lon": 23.90961}}, {"facility": "Novartis Investigative Site", "city": "Kaunas", "state": "LT", "zip": "LT-45130", "country": "Lithuania", "geoPoint": {"lat": 54.90272, "lon": 23.90961}}, {"facility": "Novartis Investigative Site", "city": "Klaipeda", "zip": "92288", "country": "Lithuania", "geoPoint": {"lat": 55.70888, "lon": 21.14311}}, {"facility": "Novartis Investigative Site", "city": "Vilnius", "zip": "LT-08661", "country": "Lithuania", "geoPoint": {"lat": 54.68916, "lon": 25.2798}}, {"facility": "Novartis Investigative Site", "city": "Krakow", "state": "POL", "zip": "31-121", "country": "Poland", "geoPoint": {"lat": 50.06143, "lon": 19.93658}}, {"facility": "Novartis Investigative Site", "city": "Bilgoraj", "zip": "23-400", "country": "Poland", "geoPoint": {"lat": 50.54114, "lon": 22.72204}}, {"facility": "Novartis Investigative Site", "city": "Gdansk", "zip": "80 952", "country": "Poland", "geoPoint": {"lat": 54.35205, "lon": 18.64637}}, {"facility": "Novartis Investigative Site", "city": "Grodzisk Mazowiecki", "zip": "05-825", "country": "Poland", "geoPoint": {"lat": 52.10387, "lon": 20.6337}}, {"facility": "Novartis Investigative Site", "city": "Kielce", "zip": "25-317", "country": "Poland", "geoPoint": {"lat": 50.87033, "lon": 20.62752}}, {"facility": "Novartis Investigative Site", "city": "Krakow", "zip": "30-901", "country": "Poland", "geoPoint": {"lat": 50.06143, "lon": 19.93658}}, {"facility": "Novartis Investigative Site", "city": "Krakow", "zip": "31 501", "country": "Poland", "geoPoint": {"lat": 50.06143, "lon": 19.93658}}, {"facility": "Novartis Investigative Site", "city": "Lubin", "zip": "59-301", "country": "Poland", "geoPoint": {"lat": 51.40089, "lon": 16.20149}}, {"facility": "Novartis Investigative Site", "city": "Lublin", "zip": "20-718", "country": "Poland", "geoPoint": {"lat": 51.25, "lon": 22.56667}}, {"facility": "Novartis Investigative Site", "city": "Oswiecim", "zip": "32-600", "country": "Poland", "geoPoint": {"lat": 50.03437, "lon": 19.21037}}, {"facility": "Novartis Investigative Site", "city": "Rzeszow", "zip": "35-241", "country": "Poland", "geoPoint": {"lat": 50.04132, "lon": 21.99901}}, {"facility": "Novartis Investigative Site", "city": "Tarnobrzeg", "zip": "39-400", "country": "Poland", "geoPoint": {"lat": 50.57304, "lon": 21.67937}}, {"facility": "Novartis Investigative Site", "city": "Tarnow", "zip": "33-100", "country": "Poland", "geoPoint": {"lat": 50.01381, "lon": 20.98698}}, {"facility": "Novartis Investigative Site", "city": "Walbrzych", "zip": "58-309", "country": "Poland", "geoPoint": {"lat": 50.77141, "lon": 16.28432}}, {"facility": "Novartis Investigative Site", "city": "Almada", "zip": "2801 951", "country": "Portugal", "geoPoint": {"lat": 38.67902, "lon": -9.1569}}, {"facility": "Novartis Investigative Site", "city": "Barreiro", "zip": "2834-003", "country": "Portugal", "geoPoint": {"lat": 38.66314, "lon": -9.0724}}, {"facility": "Novartis Investigative Site", "city": "Braga", "zip": "4710243", "country": "Portugal", "geoPoint": {"lat": 41.55032, "lon": -8.42005}}, {"facility": "Novartis Investigative Site", "city": "Lisboa", "zip": "1495-005", "country": "Portugal", "geoPoint": {"lat": 38.71667, "lon": -9.13333}}, {"facility": "Novartis Investigative Site", "city": "Lisboa", "zip": "1500 650", "country": "Portugal", "geoPoint": {"lat": 38.71667, "lon": -9.13333}}, {"facility": "Novartis Investigative Site", "city": "Matosinhos", "zip": "4454-509", "country": "Portugal", "geoPoint": {"lat": 41.18207, "lon": -8.68908}}, {"facility": "Novartis Investigative Site", "city": "Setubal", "zip": "2910-446", "country": "Portugal", "geoPoint": {"lat": 38.5244, "lon": -8.8882}}, {"facility": "Novartis Investigative Site", "city": "Vila Franca de Xira", "zip": "2600-009", "country": "Portugal", "geoPoint": {"lat": 38.95525, "lon": -8.98966}}, {"facility": "Novartis Investigative Site", "city": "Bucuresti", "state": "District 4", "zip": "4204179", "country": "Romania", "geoPoint": {"lat": 44.42802, "lon": 26.09665}}, {"facility": "Novartis Investigative Site", "city": "Bucharest", "state": "Jud Cluj", "zip": "010825", "country": "Romania", "geoPoint": {"lat": 44.43225, "lon": 26.10626}}, {"facility": "Novartis Investigative Site", "city": "Craiova", "state": "Jud. Iasi", "zip": "200642", "country": "Romania", "geoPoint": {"lat": 44.31667, "lon": 23.8}}, {"facility": "Novartis Investigative Site", "city": "Bucharest", "zip": "022322", "country": "Romania", "geoPoint": {"lat": 44.43225, "lon": 26.10626}}, {"facility": "Novartis Investigative Site", "city": "Sibiu", "zip": "550245", "country": "Romania", "geoPoint": {"lat": 45.8, "lon": 24.15}}, {"facility": "Novartis Investigative Site", "city": "Tirgoviste", "zip": "130095", "country": "Romania"}, {"facility": "Novartis Investigative Site", "city": "Chelyabinsk", "zip": "454000", "country": "Russian Federation", "geoPoint": {"lat": 55.15402, "lon": 61.42915}}, {"facility": "Novartis Investigative Site", "city": "Chelyabinsk", "zip": "454092", "country": "Russian Federation", "geoPoint": {"lat": 55.15402, "lon": 61.42915}}, {"facility": "Novartis Investigative Site", "city": "Chita", "zip": "672039", "country": "Russian Federation", "geoPoint": {"lat": 52.03171, "lon": 113.50087}}, {"facility": "Novartis Investigative Site", "city": "Gatchina", "zip": "188300", "country": "Russian Federation", "geoPoint": {"lat": 59.57639, "lon": 30.12833}}, {"facility": "Novartis Investigative Site", "city": "Izhevsk", "zip": "426009", "country": "Russian Federation", "geoPoint": {"lat": 56.84976, "lon": 53.20448}}, {"facility": "Novartis Investigative Site", "city": "Kazan", "zip": "420012", "country": "Russian Federation", "geoPoint": {"lat": 55.78874, "lon": 49.12214}}, {"facility": "Novartis Investigative Site", "city": "Kazan", "zip": "420103", "country": "Russian Federation", "geoPoint": {"lat": 55.78874, "lon": 49.12214}}, {"facility": "Novartis Investigative Site", "city": "Kirov", "zip": "610027", "country": "Russian Federation", "geoPoint": {"lat": 58.59665, "lon": 49.66007}}, {"facility": "Novartis Investigative Site", "city": "Krasnoyarsk", "zip": "660022", "country": "Russian Federation", "geoPoint": {"lat": 56.01839, "lon": 92.86717}}, {"facility": "Novartis Investigative Site", "city": "Moscow", "zip": "115280", "country": "Russian Federation", "geoPoint": {"lat": 55.75222, "lon": 37.61556}}, {"facility": "Novartis Investigative Site", "city": "Moscow", "zip": "117997", "country": "Russian Federation", "geoPoint": {"lat": 55.75222, "lon": 37.61556}}, {"facility": "Novartis Investigative Site", "city": "Moscow", "zip": "121359", "country": "Russian Federation", "geoPoint": {"lat": 55.75222, "lon": 37.61556}}, {"facility": "Novartis Investigative Site", "city": "Moscow", "zip": "127473", "country": "Russian Federation", "geoPoint": {"lat": 55.75222, "lon": 37.61556}}, {"facility": "Novartis Investigative Site", "city": "Moscow", "zip": "127994", "country": "Russian Federation", "geoPoint": {"lat": 55.75222, "lon": 37.61556}}, {"facility": "Novartis Investigative Site", "city": "Novosibirsk", "zip": "630003", "country": "Russian Federation", "geoPoint": {"lat": 55.0415, "lon": 82.9346}}, {"facility": "Novartis Investigative Site", "city": "Penza", "zip": "440026", "country": "Russian Federation", "geoPoint": {"lat": 53.20066, "lon": 45.00464}}, {"facility": "Novartis Investigative Site", "city": "Petrozavodsk", "zip": "185031", "country": "Russian Federation", "geoPoint": {"lat": 61.78491, "lon": 34.34691}}, {"facility": "Novartis Investigative Site", "city": "Rostov-on-Don", "zip": "344068", "country": "Russian Federation", "geoPoint": {"lat": 47.23135, "lon": 39.72328}}, {"facility": "Novartis Investigative Site", "city": "Ryazan", "zip": "390026", "country": "Russian Federation", "geoPoint": {"lat": 54.6269, "lon": 39.6916}}, {"facility": "Novartis Investigative Site", "city": "Saint-Petersburg", "zip": "194044", "country": "Russian Federation", "geoPoint": {"lat": 59.93863, "lon": 30.31413}}, {"facility": "Novartis Investigative Site", "city": "Saratov", "zip": "410028", "country": "Russian Federation", "geoPoint": {"lat": 51.54056, "lon": 46.00861}}, {"facility": "Novartis Investigative Site", "city": "St.-Petersburg", "zip": "194044", "country": "Russian Federation", "geoPoint": {"lat": 59.93863, "lon": 30.31413}}, {"facility": "Novartis Investigative Site", "city": "Tyumen", "zip": "625023", "country": "Russian Federation", "geoPoint": {"lat": 57.15222, "lon": 65.52722}}, {"facility": "Novartis Investigative Site", "city": "Ufa", "zip": "450071", "country": "Russian Federation", "geoPoint": {"lat": 54.74306, "lon": 55.96779}}, {"facility": "Novartis Investigative Site", "city": "Vladivostok", "zip": "690002", "country": "Russian Federation", "geoPoint": {"lat": 43.10562, "lon": 131.87353}}, {"facility": "Novartis Investigative Site", "city": "Volgograd", "zip": "400008", "country": "Russian Federation", "geoPoint": {"lat": 48.71939, "lon": 44.50183}}, {"facility": "Novartis Investigative Site", "city": "Yaroslavl", "zip": "150047", "country": "Russian Federation", "geoPoint": {"lat": 57.62987, "lon": 39.87368}}, {"facility": "Novartis Investigative Site", "city": "Zelenograd, Moscow Region", "zip": "124489", "country": "Russian Federation"}, {"facility": "Novartis Investigative Site", "city": "Belgrade", "zip": "11 000", "country": "Serbia", "geoPoint": {"lat": 44.80401, "lon": 20.46513}}, {"facility": "Novartis Investigative Site", "city": "Belgrade", "zip": "11000", "country": "Serbia", "geoPoint": {"lat": 44.80401, "lon": 20.46513}}, {"facility": "Novartis Investigative Site", "city": "Belgrade", "zip": "11080", "country": "Serbia", "geoPoint": {"lat": 44.80401, "lon": 20.46513}}, {"facility": "Novartis Investigative Site", "city": "Kamenica", "zip": "21204", "country": "Serbia", "geoPoint": {"lat": 44.343, "lon": 19.72333}}, {"facility": "Novartis Investigative Site", "city": "Niska Banja", "zip": "18205", "country": "Serbia", "geoPoint": {"lat": 43.29507, "lon": 22.0057}}, {"facility": "Novartis Investigative Site", "city": "Nis", "zip": "18000", "country": "Serbia", "geoPoint": {"lat": 43.32472, "lon": 21.90333}}, {"facility": "Novartis Investigative Site", "city": "Dunajska Streda", "state": "Slovak Republic", "zip": "92901", "country": "Slovakia", "geoPoint": {"lat": 47.99268, "lon": 17.61211}}, {"facility": "Novartis Investigative Site", "city": "Skalica", "state": "Slovak Republic", "zip": "909 82", "country": "Slovakia", "geoPoint": {"lat": 48.8449, "lon": 17.22635}}, {"facility": "Novartis Investigative Site", "city": "Zvolen", "state": "Slovak Republic", "zip": "96001", "country": "Slovakia", "geoPoint": {"lat": 48.57442, "lon": 19.15324}}, {"facility": "Novartis Investigative Site", "city": "Brezno", "zip": "97701", "country": "Slovakia", "geoPoint": {"lat": 48.80431, "lon": 19.63631}}, {"facility": "Novartis Investigative Site", "city": "Poprad", "zip": "05845", "country": "Slovakia", "geoPoint": {"lat": 49.06144, "lon": 20.29798}}, {"facility": "Novartis Investigative Site", "city": "Trencin", "zip": "91171", "country": "Slovakia", "geoPoint": {"lat": 48.89452, "lon": 18.04436}}, {"facility": "Novartis Investigative Site", "city": "Celje", "zip": "3000", "country": "Slovenia", "geoPoint": {"lat": 46.23092, "lon": 15.26044}}, {"facility": "Novartis Investigative Site", "city": "Jesenice", "zip": "4270", "country": "Slovenia", "geoPoint": {"lat": 46.43056, "lon": 14.06694}}, {"facility": "Novartis Investigative Site", "city": "Ljubljana", "zip": "1000", "country": "Slovenia", "geoPoint": {"lat": 46.05108, "lon": 14.50513}}, {"facility": "Novartis Investigative Site", "city": "Murska Sobota", "zip": "9000", "country": "Slovenia", "geoPoint": {"lat": 46.6625, "lon": 16.16639}}, {"facility": "Novartis Investigative Site", "city": "Granada", "state": "Andalucia", "zip": "18012", "country": "Spain", "geoPoint": {"lat": 37.18817, "lon": -3.60667}}, {"facility": "Novartis Investigative Site", "city": "Granada", "state": "Andalucia", "zip": "18014", "country": "Spain", "geoPoint": {"lat": 37.18817, "lon": -3.60667}}, {"facility": "Novartis Investigative Site", "city": "Malaga", "state": "Andalucia", "zip": "29010", "country": "Spain", "geoPoint": {"lat": 36.72016, "lon": -4.42034}}, {"facility": "Novartis Investigative Site", "city": "Sanlucar de Barrameda", "state": "Andalucia", "zip": "11540", "country": "Spain", "geoPoint": {"lat": 36.77808, "lon": -6.3515}}, {"facility": "Novartis Investigative Site", "city": "Sevilla", "state": "Andalucia", "zip": "41009", "country": "Spain", "geoPoint": {"lat": 37.38283, "lon": -5.97317}}, {"facility": "Novartis Investigative Site", "city": "Sevilla", "state": "Andalucia", "zip": "41013", "country": "Spain", "geoPoint": {"lat": 37.38283, "lon": -5.97317}}, {"facility": "Novartis Investigative Site", "city": "Sevilla", "state": "Andalucia", "zip": "41014", "country": "Spain", "geoPoint": {"lat": 37.38283, "lon": -5.97317}}, {"facility": "Novartis Investigative Site", "city": "Oviedo", "state": "Asturias", "zip": "33006", "country": "Spain", "geoPoint": {"lat": 43.36029, "lon": -5.84476}}, {"facility": "Novartis Investigative Site", "city": "Villamartin", "state": "Cadiz", "zip": "11650", "country": "Spain", "geoPoint": {"lat": 36.85979, "lon": -5.64485}}, {"facility": "Novartis Investigative Site", "city": "Toledo", "state": "Castilla La Mancha", "zip": "45071", "country": "Spain", "geoPoint": {"lat": 39.8581, "lon": -4.02263}}, {"facility": "Novartis Investigative Site", "city": "Salamanca", "state": "Castilla Y Leon", "zip": "37007", "country": "Spain", "geoPoint": {"lat": 40.96882, "lon": -5.66388}}, {"facility": "Novartis Investigative Site", "city": "Soria", "state": "Castilla Y Leon", "zip": "42005", "country": "Spain", "geoPoint": {"lat": 41.76401, "lon": -2.46883}}, {"facility": "Novartis Investigative Site", "city": "Lleida", "state": "Cataluna", "zip": "25198", "country": "Spain", "geoPoint": {"lat": 41.61674, "lon": 0.62218}}, {"facility": "Novartis Investigative Site", "city": "Barcelona", "state": "Catalunya", "zip": "08036", "country": "Spain", "geoPoint": {"lat": 41.38879, "lon": 2.15899}}, {"facility": "Novartis Investigative Site", "city": "Terrassa", "state": "Catalunya", "zip": "08227", "country": "Spain", "geoPoint": {"lat": 41.56667, "lon": 2.01667}}, {"facility": "Novartis Investigative Site", "city": "Alicante", "state": "Comunidad Valenciana", "zip": "03010", "country": "Spain", "geoPoint": {"lat": 38.34517, "lon": -0.48149}}, {"facility": "Novartis Investigative Site", "city": "Alicante", "state": "Comunidad Valenciana", "zip": "03550", "country": "Spain", "geoPoint": {"lat": 38.34517, "lon": -0.48149}}, {"facility": "Novartis Investigative Site", "city": "Alzira", "state": "Comunidad Valenciana", "zip": "46600", "country": "Spain", "geoPoint": {"lat": 39.15, "lon": -0.43333}}, {"facility": "Novartis Investigative Site", "city": "Valencia", "state": "Comunidad Valenciana", "zip": "46010", "country": "Spain", "geoPoint": {"lat": 39.46975, "lon": -0.37739}}, {"facility": "Novartis Investigative Site", "city": "Valencia", "state": "Comunidad Valenciana", "zip": "46014", "country": "Spain", "geoPoint": {"lat": 39.46975, "lon": -0.37739}}, {"facility": "Novartis Investigative Site", "city": "Valencia", "state": "Comunidad Valenciana", "zip": "46015", "country": "Spain", "geoPoint": {"lat": 39.46975, "lon": -0.37739}}, {"facility": "Novartis Investigative Site", "city": "Valencia", "state": "Comunidad Valenciana", "zip": "46017", "country": "Spain", "geoPoint": {"lat": 39.46975, "lon": -0.37739}}, {"facility": "Novartis Investigative Site", "city": "Caceres", "state": "Extremadura", "zip": "10003", "country": "Spain", "geoPoint": {"lat": 39.47649, "lon": -6.37224}}, {"facility": "Novartis Investigative Site", "city": "La Coruna", "state": "Galicia", "zip": "15006", "country": "Spain", "geoPoint": {"lat": 43.37135, "lon": -8.396}}, {"facility": "Novartis Investigative Site", "city": "Santiago de Compostela", "state": "Galicia", "zip": "15706", "country": "Spain", "geoPoint": {"lat": 42.88052, "lon": -8.54569}}, {"facility": "Novartis Investigative Site", "city": "Las Palmas de Gran Canaria", "state": "Las Palmas De G.C", "zip": "35010", "country": "Spain", "geoPoint": {"lat": 28.09973, "lon": -15.41343}}, {"facility": "Novartis Investigative Site", "city": "Alcorcon", "state": "Madrid", "zip": "28922", "country": "Spain", "geoPoint": {"lat": 40.34582, "lon": -3.82487}}, {"facility": "Novartis Investigative Site", "city": "Fuenlabrada", "state": "Madrid", "zip": "28942", "country": "Spain", "geoPoint": {"lat": 40.28419, "lon": -3.79415}}, {"facility": "Novartis Investigative Site", "city": "Cartagena", "state": "Murcia", "zip": "30202", "country": "Spain", "geoPoint": {"lat": 37.60512, "lon": -0.98623}}, {"facility": "Novartis Investigative Site", "city": "El Palmar", "state": "Murcia", "zip": "30120", "country": "Spain", "geoPoint": {"lat": 37.93939, "lon": -1.16095}}, {"facility": "Novartis Investigative Site", "city": "Bilbao", "state": "Pais Vasco", "zip": "48013", "country": "Spain", "geoPoint": {"lat": 43.26271, "lon": -2.92528}}, {"facility": "Novartis Investigative Site", "city": "Galdakano", "state": "Pais Vasco", "zip": "48960", "country": "Spain"}, {"facility": "Novartis Investigative Site", "city": "La Laguna", "state": "Santa Cruz De Tenerife", "zip": "38320", "country": "Spain", "geoPoint": {"lat": 28.4853, "lon": -16.32014}}, {"facility": "Novartis Investigative Site", "city": "Manises", "state": "Valencia", "zip": "46940", "country": "Spain", "geoPoint": {"lat": 39.49139, "lon": -0.46349}}, {"facility": "Novartis Investigative Site", "city": "Leon", "zip": "24080", "country": "Spain", "geoPoint": {"lat": 42.60003, "lon": -5.57032}}, {"facility": "Novartis Investigative Site", "city": "Madrid", "zip": "28006", "country": "Spain", "geoPoint": {"lat": 40.4165, "lon": -3.70256}}, {"facility": "Novartis Investigative Site", "city": "Madrid", "zip": "28040", "country": "Spain", "geoPoint": {"lat": 40.4165, "lon": -3.70256}}, {"facility": "Novartis Investigative Site", "city": "Murcia", "zip": "30003", "country": "Spain", "geoPoint": {"lat": 37.98704, "lon": -1.13004}}, {"facility": "Novartis Investigative Site", "city": "Zaragoza", "zip": "50009", "country": "Spain", "geoPoint": {"lat": 41.65606, "lon": -0.87734}}, {"facility": "Novartis Investigative Site", "city": "Basel", "zip": "4031", "country": "Switzerland", "geoPoint": {"lat": 47.55839, "lon": 7.57327}}, {"facility": "Novartis Investigative Site", "city": "Geneve 14", "zip": "1211", "country": "Switzerland", "geoPoint": {"lat": 46.20222, "lon": 6.14569}}, {"facility": "Novartis Investigative Site", "city": "Liestal", "zip": "4410", "country": "Switzerland", "geoPoint": {"lat": 47.48455, "lon": 7.73446}}, {"facility": "Novartis Investigative Site", "city": "Lugano", "zip": "6903", "country": "Switzerland", "geoPoint": {"lat": 46.01008, "lon": 8.96004}}, {"facility": "Novartis Investigative Site", "city": "Durham", "state": "County Durham", "zip": "DH1 5TW", "country": "United Kingdom", "geoPoint": {"lat": 54.77676, "lon": -1.57566}}, {"facility": "Novartis Investigative Site", "city": "Dorchester", "state": "Dorset", "zip": "DT1 2JY", "country": "United Kingdom", "geoPoint": {"lat": 50.71667, "lon": -2.43333}}, {"facility": "Novartis Investigative Site", "city": "Peterborough", "state": "GBR", "zip": "PE3 6DA", "country": "United Kingdom", "geoPoint": {"lat": 52.57364, "lon": -0.24777}}, {"facility": "Novartis Investigative Site", "city": "Gateshead", "state": "Tyne And Wear", "zip": "NE9 6SX", "country": "United Kingdom", "geoPoint": {"lat": 54.96209, "lon": -1.60168}}, {"facility": "Novartis Investigative Site", "city": "Barnet", "zip": "EN5 3DJ", "country": "United Kingdom", "geoPoint": {"lat": 51.65, "lon": -0.2}}, {"facility": "Novartis Investigative Site", "city": "Cardiff", "zip": "CF14 4XW", "country": "United Kingdom", "geoPoint": {"lat": 51.48, "lon": -3.18}}, {"facility": "Novartis Investigative Site", "city": "Dundee", "zip": "DD1 9SY", "country": "United Kingdom", "geoPoint": {"lat": 56.46913, "lon": -2.97489}}, {"facility": "Novartis Investigative Site", "city": "Liverpool", "zip": "L9 7AL", "country": "United Kingdom", "geoPoint": {"lat": 53.41058, "lon": -2.97794}}, {"facility": "Novartis Investigative Site", "city": "London", "zip": "SW17 ORE", "country": "United Kingdom", "geoPoint": {"lat": 51.50853, "lon": -0.12574}}, {"facility": "Novartis Investigative Site", "city": "Swindon", "zip": "SN3 6BB", "country": "United Kingdom", "geoPoint": {"lat": 51.55797, "lon": -1.78116}}]}, "referencesModule": {"references": [{"pmid": "35184572", "type": "DERIVED", "citation": "Grand J, Miger K, Sajadieh A, Kober L, Torp-Pedersen C, Ertl G, Lopez-Sendon J, Pietro Maggioni A, Teerlink JR, Sato N, Gimpelewicz C, Metra M, Holbro T, Nielsen OW. Blood Pressure Drops During Hospitalization for Acute Heart Failure Treated With Serelaxin: A Patient-Level Analysis of 4 Randomized Controlled Trials. Circ Heart Fail. 2022 Apr;15(4):e009199. doi: 10.1161/CIRCHEARTFAILURE.121.009199. Epub 2022 Feb 21."}, {"pmid": "34514815", "type": "DERIVED", "citation": "Grand J, Miger K, Sajadieh A, Kober L, Torp-Pedersen C, Ertl G, Lopez-Sendon J, Pietro Maggioni A, Teerlink JR, Sato N, Gimpelewicz C, Metra M, Holbro T, Nielsen OW. Systolic Blood Pressure and Outcome in Patients Admitted With Acute Heart Failure: An Analysis of Individual Patient Data From 4 Randomized Clinical Trials. J Am Heart Assoc. 2021 Sep 21;10(18):e022288. doi: 10.1161/JAHA.121.022288. Epub 2021 Sep 13."}]}}, "resultsSection": {"participantFlowModule": {"preAssignmentDetails": "The initial target was to randomize 3183 patients. This study was prematurely terminated (due to the neutral read-out of study RELAX-AHF-2) after 2666 patients were randomized. 16 patients had not qualified for randomization but were inadvertently randomized. These 16 patients did not enter the treatment phase and were not counted as started.", "groups": [{"id": "FG000", "title": "Serelaxin + Standard of Care", "description": "Serelaxin (30 \u00b5g/kg/day) as continuous 48 hour intravenous infusion plus standard of care."}, {"id": "FG001", "title": "Standard of Care (SOC)", "description": "All patients were required to receive standard of care background heart failure (HF) management during the study, according to local guidelines/international standards. This treatment can include but is not limited to intravenous and/or oral diuretics, angiotensin-converting enzyme (ACE) inhibitors/angiotensin receptor antagonists, beta blockers and aldosterone receptor antagonists, etc."}], "periods": [{"title": "Overall Study", "milestones": [{"type": "STARTED", "comment": "All Randomized Participants", "achievements": [{"groupId": "FG000", "numSubjects": "1756"}, {"groupId": "FG001", "numSubjects": "894"}]}, {"type": "Full Analysis Set", "achievements": [{"groupId": "FG000", "numSubjects": "1756"}, {"groupId": "FG001", "numSubjects": "894"}]}, {"type": "Safety Set", "achievements": [{"groupId": "FG000", "comment": "The Safety Set includes one patient not randomized but treated with serelaxin", "numSubjects": "1729"}, {"groupId": "FG001", "numSubjects": "894"}]}, {"type": "Per Protocol Set", "achievements": [{"groupId": "FG000", "numSubjects": "1155"}, {"groupId": "FG001", "numSubjects": "627"}]}, {"type": "COMPLETED", "achievements": [{"groupId": "FG000", "numSubjects": "1722"}, {"groupId": "FG001", "numSubjects": "881"}]}, {"type": "NOT COMPLETED", "achievements": [{"groupId": "FG000", "numSubjects": "34"}, {"groupId": "FG001", "numSubjects": "13"}]}], "dropWithdraws": [{"type": "Lost to Follow-up", "reasons": [{"groupId": "FG000", "numSubjects": "14"}, {"groupId": "FG001", "numSubjects": "8"}]}, {"type": "Physician Decision", "reasons": [{"groupId": "FG000", "numSubjects": "1"}, {"groupId": "FG001", "numSubjects": "0"}]}, {"type": "Withdrawal by Subject", "reasons": [{"groupId": "FG000", "numSubjects": "14"}, {"groupId": "FG001", "numSubjects": "3"}]}, {"type": "Technical Problems or Missing", "reasons": [{"groupId": "FG000", "numSubjects": "5"}, {"groupId": "FG001", "numSubjects": "2"}]}]}]}, "baselineCharacteristicsModule": {"populationDescription": "Full Analysis Set", "groups": [{"id": "BG000", "title": "Serelaxin + Standard of Care", "description": "Serelaxin (30 \u00b5g/kg/day) as continuous 48 hour intravenous infusion plus standard of care."}, {"id": "BG001", "title": "Standard of Care (SOC)", "description": "All patients were required to receive standard of care background heart failure (HF) management during the study, according to local guidelines/international standards. This treatment can include but is not limited to intravenous and/or oral diuretics, angiotensin-converting enzyme (ACE) inhibitors/angiotensin receptor antagonists, beta blockers and aldosterone receptor antagonists, etc."}, {"id": "BG002", "title": "Total", "description": "Total of all reporting groups"}], "denoms": [{"units": "Participants", "counts": [{"groupId": "BG000", "value": "1756"}, {"groupId": "BG001", "value": "894"}, {"groupId": "BG002", "value": "2650"}]}], "measures": [{"title": "Age, Continuous", "paramType": "MEAN", "dispersionType": "STANDARD_DEVIATION", "unitOfMeasure": "Years", "classes": [{"categories": [{"measurements": [{"groupId": "BG000", "value": "75.24", "spread": "10.349"}, {"groupId": "BG001", "value": "75.95", "spread": "9.905"}, {"groupId": "BG002", "value": "75.48", "spread": "10.205"}]}]}]}, {"title": "Sex: Female, Male", "populationDescription": "Full Analysis Set", "paramType": "COUNT_OF_PARTICIPANTS", "unitOfMeasure": "Participants", "classes": [{"categories": [{"title": "Female", "measurements": [{"groupId": "BG000", "value": "760"}, {"groupId": "BG001", "value": "383"}, {"groupId": "BG002", "value": "1143"}]}, {"title": "Male", "measurements": [{"groupId": "BG000", "value": "996"}, {"groupId": "BG001", "value": "511"}, {"groupId": "BG002", "value": "1507"}]}]}]}, {"title": "Race/Ethnicity, Customized", "populationDescription": "Full Analysis Set", "paramType": "COUNT_OF_PARTICIPANTS", "unitOfMeasure": "Participants", "classes": [{"title": "Caucasian", "categories": [{"measurements": [{"groupId": "BG000", "value": "1706"}, {"groupId": "BG001", "value": "869"}, {"groupId": "BG002", "value": "2575"}]}]}, {"title": "Black", "categories": [{"measurements": [{"groupId": "BG000", "value": "4"}, {"groupId": "BG001", "value": "4"}, {"groupId": "BG002", "value": "8"}]}]}, {"title": "Asian", "categories": [{"measurements": [{"groupId": "BG000", "value": "5"}, {"groupId": "BG001", "value": "2"}, {"groupId": "BG002", "value": "7"}]}]}, {"title": "Unknown", "categories": [{"measurements": [{"groupId": "BG000", "value": "16"}, {"groupId": "BG001", "value": "7"}, {"groupId": "BG002", "value": "23"}]}]}, {"title": "Other", "categories": [{"measurements": [{"groupId": "BG000", "value": "25"}, {"groupId": "BG001", "value": "12"}, {"groupId": "BG002", "value": "37"}]}]}]}]}, "outcomeMeasuresModule": {"outcomeMeasures": [{"type": "PRIMARY", "title": "Percentage of Participants With Worsening Heart Failure (WHF) / All Cause of Deaths Through Day 5", "description": "In-hospital WHF through Day 5 post-randomization included worsening signs and/or symptoms of heart failure that required an intensification of intravenous therapy for heart failure or mechanical ventilation, renal or circulatory support. A central event adjudication committee was appointed to oversee the WHF primary endpoint adjudication.", "populationDescription": "Full Analysis Set", "reportingStatus": "POSTED", "paramType": "NUMBER", "unitOfMeasure": "Percentage of Participants", "timeFrame": "5 days", "groups": [{"id": "OG000", "title": "Serelaxin + Standard of Care", "description": "Serelaxin (30 \u00b5g/kg/day) as continuous 48 hour intravenous infusion plus standard of care."}, {"id": "OG001", "title": "Standard of Care (SOC)", "description": "All patients were required to receive standard of care background heart failure (HF) management during the study, according to local guidelines/international standards. This treatment can include but is not limited to intravenous and/or oral diuretics, angiotensin-converting enzyme (ACE) inhibitors/angiotensin receptor antagonists, beta blockers and aldosterone receptor antagonists, etc."}], "denoms": [{"units": "Participants", "counts": [{"groupId": "OG000", "value": "1756"}, {"groupId": "OG001", "value": "894"}]}], "classes": [{"categories": [{"measurements": [{"groupId": "OG000", "value": "4.95"}, {"groupId": "OG001", "value": "6.94"}]}]}], "analyses": [{"groupIds": ["OG000", "OG001"], "nonInferiorityType": "SUPERIORITY", "pValue": "0.0172", "pValueComment": "One-sided p-value", "statisticalMethod": "Gehan's generalized Wilcoxon test", "paramType": "Hazard Ratio (HR)", "paramValue": "0.71", "ciPctValue": "95", "ciNumSides": "TWO_SIDED", "ciLowerLimit": "0.51", "ciUpperLimit": "0.98"}]}, {"type": "SECONDARY", "title": "Percentage of Participants With In-hospital Worsening Heart Failure/All-Cause Death/Readmission for Heart Failure Through Day 14", "description": "WHF/death/readmission for heart failure through Day 14. WHF/deaths through Day 5 were adjudicated and confirmed by the Clinical Endpoint Committee, WHF/deaths after Day 5 through Day 14 and readmission through Day 14 were as reported by the investigators.", "populationDescription": "Full Analysis Set", "reportingStatus": "POSTED", "paramType": "NUMBER", "unitOfMeasure": "Percentage of Patients", "timeFrame": "14 days", "groups": [{"id": "OG000", "title": "Serelaxin + Standard of Care", "description": "Serelaxin (30 \u00b5g/kg/day) as continuous 48 hour intravenous infusion plus standard of care."}, {"id": "OG001", "title": "Standard of Care (SOC)", "description": "All patients were required to receive standard of care background heart failure (HF) management during the study, according to local guidelines/international standards. This treatment can include but is not limited to intravenous and/or oral diuretics, angiotensin-converting enzyme (ACE) inhibitors/angiotensin receptor antagonists, beta blockers and aldosterone receptor antagonists, etc."}], "denoms": [{"units": "Participants", "counts": [{"groupId": "OG000", "value": "1756"}, {"groupId": "OG001", "value": "894"}]}], "classes": [{"categories": [{"measurements": [{"groupId": "OG000", "value": "8.49"}, {"groupId": "OG001", "value": "10.63"}]}]}], "analyses": [{"groupIds": ["OG000", "OG001"], "nonInferiorityType": "SUPERIORITY", "pValue": "0.0634", "pValueComment": "Two-sided p-value", "statisticalMethod": "Gehan's generalized Wilcoxon test", "paramType": "Hazard Ratio (HR)", "paramValue": "0.79", "ciPctValue": "95", "ciNumSides": "TWO_SIDED", "ciLowerLimit": "0.61", "ciUpperLimit": "1.02"}]}, {"type": "SECONDARY", "title": "Percentage of Participants With Persistent Sign or Symptoms of Heart Failure / Non-Improvement at Any Post Baseline Visit Through Day 5", "description": "Persistent or non-improvement in any signs or symptoms of HF at any post baseline visit up to Day 5.", "populationDescription": "Full Analysis Set (only evaluable patients with non-missing information included)", "reportingStatus": "POSTED", "paramType": "NUMBER", "dispersionType": "95% Confidence Interval", "unitOfMeasure": "Percentage of Participants", "timeFrame": "5 days", "groups": [{"id": "OG000", "title": "Serelaxin + Standard of Care", "description": "Serelaxin (30 \u00b5g/kg/day) as continuous 48 hour intravenous infusion plus standard of care."}, {"id": "OG001", "title": "Standard of Care (SOC)", "description": "All patients were required to receive standard of care background heart failure (HF) management during the study, according to local guidelines/international standards. This treatment can include but is not limited to intravenous and/or oral diuretics, angiotensin-converting enzyme (ACE) inhibitors/angiotensin receptor antagonists, beta blockers and aldosterone receptor antagonists, etc."}], "denoms": [{"units": "Participants", "counts": [{"groupId": "OG000", "value": "1744"}, {"groupId": "OG001", "value": "894"}]}], "classes": [{"categories": [{"measurements": [{"groupId": "OG000", "value": "86", "lowerLimit": "84", "upperLimit": "87"}, {"groupId": "OG001", "value": "91", "lowerLimit": "89", "upperLimit": "93"}]}]}], "analyses": [{"groupIds": ["OG000", "OG001"], "nonInferiorityType": "SUPERIORITY", "pValue": "<0.0001", "statisticalMethod": "Chi-squared"}]}, {"type": "SECONDARY", "title": "Percentage of Participants With Renal Deterioration at Any Post Baseline Visit Through Day 14", "description": "Renal deterioration is defined as \\> or = 0.3 mg/dL increase from screening in serum creatinine.", "populationDescription": "Full Analysis Set (only evaluable patients with non-missing information included)", "reportingStatus": "POSTED", "paramType": "NUMBER", "dispersionType": "95% Confidence Interval", "unitOfMeasure": "Percentage of Participants", "timeFrame": "14 days", "groups": [{"id": "OG000", "title": "Serelaxin + Standard of Care", "description": "Serelaxin (30 \u00b5g/kg/day) as continuous 48 hour intravenous infusion plus standard of care."}, {"id": "OG001", "title": "Standard of Care (SOC)", "description": "All patients were required to receive standard of care background heart failure (HF) management during the study, according to local guidelines/international standards. This treatment can include but is not limited to intravenous and/or oral diuretics, angiotensin-converting enzyme (ACE) inhibitors/angiotensin receptor antagonists, beta blockers and aldosterone receptor antagonists, etc."}], "denoms": [{"units": "Participants", "counts": [{"groupId": "OG000", "value": "1740"}, {"groupId": "OG001", "value": "889"}]}], "classes": [{"categories": [{"measurements": [{"groupId": "OG000", "value": "36", "lowerLimit": "34", "upperLimit": "38"}, {"groupId": "OG001", "value": "44", "lowerLimit": "40", "upperLimit": "47"}]}]}], "analyses": [{"groupIds": ["OG000", "OG001"], "nonInferiorityType": "SUPERIORITY", "pValue": "0.0002", "statisticalMethod": "Chi-squared"}]}, {"type": "SECONDARY", "title": "Length of Index Hospital Stay", "description": "Length of stay (in hours) is defined as the index hospitalization discharge date and time minus the index hospitalization start date and time.", "populationDescription": "Full Analysis Set", "reportingStatus": "POSTED", "paramType": "MEAN", "dispersionType": "Standard Deviation", "unitOfMeasure": "hours", "timeFrame": "30 Days", "groups": [{"id": "OG000", "title": "Serelaxin + Standard of Care", "description": "Serelaxin (30 \u00b5g/kg/day) as continuous 48 hour intravenous infusion plus standard of care."}, {"id": "OG001", "title": "Standard of Care (SOC)", "description": "All patients were required to receive standard of care background heart failure (HF) management during the study, according to local guidelines/international standards. This treatment can include but is not limited to intravenous and/or oral diuretics, angiotensin-converting enzyme (ACE) inhibitors/angiotensin receptor antagonists, beta blockers and aldosterone receptor antagonists, etc."}], "denoms": [{"units": "Participants", "counts": [{"groupId": "OG000", "value": "1756"}, {"groupId": "OG001", "value": "894"}]}], "classes": [{"categories": [{"measurements": [{"groupId": "OG000", "value": "251.28", "spread": "162.368"}, {"groupId": "OG001", "value": "243.59", "spread": "160.270"}]}]}], "analyses": [{"groupIds": ["OG000", "OG001"], "nonInferiorityType": "SUPERIORITY", "pValue": "0.1392", "statisticalMethod": "Wilcoxon (Mann-Whitney)"}]}, {"type": "SECONDARY", "title": "Percentage of Participants With Adverse Events as Assessment of Safety and Tolerability of Serelaxin in AHF Patients", "populationDescription": "Safety Set", "reportingStatus": "POSTED", "paramType": "NUMBER", "unitOfMeasure": "Percentage of participants", "timeFrame": "Adverse Events (AE): 5 Days / Serious Adverse Events (SAE): 14 days / All cause deaths 30 days", "groups": [{"id": "OG000", "title": "Serelaxin + Standard of Care", "description": "Serelaxin (30 \u00b5g/kg/day) as continuous 48 hour intravenous infusion plus standard of care."}, {"id": "OG001", "title": "Standard of Care (SOC)", "description": "All patients were required to receive standard of care background heart failure (HF) management during the study, according to local guidelines/international standards. This treatment can include but is not limited to intravenous and/or oral diuretics, angiotensin-converting enzyme (ACE) inhibitors/angiotensin receptor antagonists, beta blockers and aldosterone receptor antagonists, etc."}], "denoms": [{"units": "Participants", "counts": [{"groupId": "OG000", "value": "1729"}, {"groupId": "OG001", "value": "894"}]}], "classes": [{"title": "Patients with any AE through Day 5", "categories": [{"measurements": [{"groupId": "OG000", "value": "58.13"}, {"groupId": "OG001", "value": "56.04"}]}]}, {"title": "Patients with any SAE through Day 14", "categories": [{"measurements": [{"groupId": "OG000", "value": "12.38"}, {"groupId": "OG001", "value": "11.97"}]}]}, {"title": "All cause deaths through Day 5", "categories": [{"measurements": [{"groupId": "OG000", "value": "0.58"}, {"groupId": "OG001", "value": "0.67"}]}]}, {"title": "All cause deaths through Day 14", "categories": [{"measurements": [{"groupId": "OG000", "value": "1.91"}, {"groupId": "OG001", "value": "2.01"}]}]}, {"title": "All cause deaths through Day 30", "categories": [{"measurements": [{"groupId": "OG000", "value": "3.30"}, {"groupId": "OG001", "value": "4.25"}]}]}]}, {"type": "SECONDARY", "title": "Change From Baseline in Health-related Quality of Life Index Value, Assessed by EuroQoL EQ-5D-5L Questionnaire.", "description": "EQ-5D-5L is a questionnaire designed to assess health status in adults consisting of 5 dimensions (mobility, self-care, usual activities, pain/discomfort, anxiety/depression). The results were converted into a single index value using UK as the reference country for all countries. Range -0.3 (worst possible state) to 1 (best possible state).", "populationDescription": "Full Analysis Set (only evaluable patients with non-missing information included)", "reportingStatus": "POSTED", "paramType": "MEAN", "dispersionType": "Standard Deviation", "unitOfMeasure": "units on a scale", "timeFrame": "Baseline, Day 5, Day 14", "groups": [{"id": "OG000", "title": "Serelaxin + Standard of Care", "description": "Serelaxin (30 \u00b5g/kg/day) as continuous 48 hour intravenous infusion plus standard of care."}, {"id": "OG001", "title": "Standard of Care (SOC)", "description": "All patients were required to receive standard of care background heart failure (HF) management during the study, according to local guidelines/international standards. This treatment can include but is not limited to intravenous and/or oral diuretics, angiotensin-converting enzyme (ACE) inhibitors/angiotensin receptor antagonists, beta blockers and aldosterone receptor antagonists, etc."}], "denoms": [{"units": "Participants", "counts": [{"groupId": "OG000", "value": "1545"}, {"groupId": "OG001", "value": "793"}]}], "classes": [{"title": "Day 5", "denoms": [{"units": "Participants", "counts": [{"groupId": "OG000", "value": "1545"}, {"groupId": "OG001", "value": "793"}]}], "categories": [{"measurements": [{"groupId": "OG000", "value": "0.28", "spread": "0.298"}, {"groupId": "OG001", "value": "0.27", "spread": "0.292"}]}]}, {"title": "Day 14", "denoms": [{"units": "Participants", "counts": [{"groupId": "OG000", "value": "1486"}, {"groupId": "OG001", "value": "756"}]}], "categories": [{"measurements": [{"groupId": "OG000", "value": "0.32", "spread": "0.328"}, {"groupId": "OG001", "value": "0.31", "spread": "0.317"}]}]}], "analyses": [{"groupIds": ["OG000", "OG001"], "groupDescription": "Day 5", "nonInferiorityType": "SUPERIORITY", "pValue": "0.3115", "statisticalMethod": "Mixed Models Analysis"}, {"groupIds": ["OG000", "OG001"], "groupDescription": "Day 14", "nonInferiorityType": "SUPERIORITY", "pValue": "0.1236", "statisticalMethod": "Mixed Models Analysis"}]}]}, "adverseEventsModule": {"frequencyThreshold": "1.5", "timeFrame": "All Cause Mortality: 30 days (additional deaths are included which occurred after the clinical trial reporting period of 30 days for up to 8 months post randomization); Serious Adverse Events: 14 days; Other non-serious Adverse Events (AEs): 5 days", "eventGroups": [{"id": "EG000", "title": "Serelaxin + Standard of Care", "description": "Serelaxin (30 \u03bcg/kg/day) as continuous 48 hour intravenous infusion plus standard of care.", "deathsNumAffected": 63, "deathsNumAtRisk": 1729, "seriousNumAffected": 214, "seriousNumAtRisk": 1729, "otherNumAffected": 637, "otherNumAtRisk": 1729}, {"id": "EG001", "title": "Standard of Care (SOC)", "description": "All patients were required to receive standard of care background heart failure (HF) management during the study, according to local guidelines/international standards. This treatment can include but is not limited to intravenous and/or oral diuretics, angiotensin-converting enzyme (ACE) inhibitors/angiotensin receptor antagonists, beta blockers and aldosterone receptor antagonists, etc.", "deathsNumAffected": 43, "deathsNumAtRisk": 894, "seriousNumAffected": 107, "seriousNumAtRisk": 894, "otherNumAffected": 324, "otherNumAtRisk": 894}], "seriousEvents": [{"term": "Anaemia", "organSystem": "Blood and lymphatic system disorders", "sourceVocabulary": "MedDRA (20.0)", "assessmentType": "SYSTEMATIC_ASSESSMENT", "stats": [{"groupId": "EG000", "numAffected": 1, "numAtRisk": 1729}, {"groupId": "EG001", "numAffected": 1, "numAtRisk": 894}]}, {"term": "Microcytic anaemia", "organSystem": "Blood and lymphatic system disorders", "sourceVocabulary": "MedDRA (20.0)", "assessmentType": "SYSTEMATIC_ASSESSMENT", "stats": [{"groupId": "EG000", "numAffected": 1, "numAtRisk": 1729}, {"groupId": "EG001", "numAffected": 0, "numAtRisk": 894}]}, {"term": "Acute coronary syndrome", "organSystem": "Cardiac disorders", "sourceVocabulary": "MedDRA (20.0)", "assessmentType": "SYSTEMATIC_ASSESSMENT", "stats": [{"groupId": "EG000", "numAffected": 1, "numAtRisk": 1729}, {"groupId": "EG001", "numAffected": 0, "numAtRisk": 894}]}, {"term": "Acute left ventricular failure", "organSystem": "Cardiac disorders", "sourceVocabulary": "MedDRA (20.0)", "assessmentType": "SYSTEMATIC_ASSESSMENT", "stats": [{"groupId": "EG000", "numAffected": 1, "numAtRisk": 1729}, {"groupId": "EG001", "numAffected": 0, "numAtRisk": 894}]}, {"term": "Acute myocardial infarction", "organSystem": "Cardiac disorders", "sourceVocabulary": "MedDRA (20.0)", "assessmentType": "SYSTEMATIC_ASSESSMENT", "stats": [{"groupId": "EG000", "numAffected": 6, "numAtRisk": 1729}, {"groupId": "EG001", "numAffected": 4, "numAtRisk": 894}]}, {"term": "Angina pectoris", "organSystem": "Cardiac disorders", "sourceVocabulary": "MedDRA (20.0)", "assessmentType": "SYSTEMATIC_ASSESSMENT", "stats": [{"groupId": "EG000", "numAffected": 0, "numAtRisk": 1729}, {"groupId": "EG001", "numAffected": 2, "numAtRisk": 894}]}, {"term": "Angina unstable", "organSystem": "Cardiac disorders", "sourceVocabulary": "MedDRA (20.0)", "assessmentType": "SYSTEMATIC_ASSESSMENT", "stats": [{"groupId": "EG000", "numAffected": 1, "numAtRisk": 1729}, {"groupId": "EG001", "numAffected": 4, "numAtRisk": 894}]}, {"term": "Aortic valve incompetence", "organSystem": "Cardiac disorders", "sourceVocabulary": "MedDRA (20.0)", "assessmentType": "SYSTEMATIC_ASSESSMENT", "stats": [{"groupId": "EG000", "numAffected": 0, "numAtRisk": 1729}, {"groupId": "EG001", "numAffected": 1, "numAtRisk": 894}]}, {"term": "Aortic valve stenosis", "organSystem": "Cardiac disorders", "sourceVocabulary": "MedDRA (20.0)", "assessmentType": "SYSTEMATIC_ASSESSMENT", "stats": [{"groupId": "EG000", "numAffected": 1, "numAtRisk": 1729}, {"groupId": "EG001", "numAffected": 3, "numAtRisk": 894}]}, {"term": "Atrial fibrillation", "organSystem": "Cardiac disorders", "sourceVocabulary": "MedDRA (20.0)", "assessmentType": "SYSTEMATIC_ASSESSMENT", "stats": [{"groupId": "EG000", "numAffected": 6, "numAtRisk": 1729}, {"groupId": "EG001", "numAffected": 1, "numAtRisk": 894}]}, {"term": "Atrioventricular block complete", "organSystem": "Cardiac disorders", "sourceVocabulary": "MedDRA (20.0)", "assessmentType": "SYSTEMATIC_ASSESSMENT", "stats": [{"groupId": "EG000", "numAffected": 3, "numAtRisk": 1729}, {"groupId": "EG001", "numAffected": 0, "numAtRisk": 894}]}, {"term": "Atrioventricular block second degree", "organSystem": "Cardiac disorders", "sourceVocabulary": "MedDRA (20.0)", "assessmentType": "SYSTEMATIC_ASSESSMENT", "stats": [{"groupId": "EG000", "numAffected": 0, "numAtRisk": 1729}, {"groupId": "EG001", "numAffected": 1, "numAtRisk": 894}]}, {"term": "Bradyarrhythmia", "organSystem": "Cardiac disorders", "sourceVocabulary": "MedDRA (20.0)", "assessmentType": "SYSTEMATIC_ASSESSMENT", "stats": [{"groupId": "EG000", "numAffected": 2, "numAtRisk": 1729}, {"groupId": "EG001", "numAffected": 0, "numAtRisk": 894}]}, {"term": "Bradycardia", "organSystem": "Cardiac disorders", "sourceVocabulary": "MedDRA (20.0)", "assessmentType": "SYSTEMATIC_ASSESSMENT", "stats": [{"groupId": "EG000", "numAffected": 7, "numAtRisk": 1729}, {"groupId": "EG001", "numAffected": 2, "numAtRisk": 894}]}, {"term": "Bundle branch block left", "organSystem": "Cardiac disorders", "sourceVocabulary": "MedDRA (20.0)", "assessmentType": "SYSTEMATIC_ASSESSMENT", "stats": [{"groupId": "EG000", "numAffected": 0, "numAtRisk": 1729}, {"groupId": "EG001", "numAffected": 1, "numAtRisk": 894}]}, {"term": "Cardiac arrest", "organSystem": "Cardiac disorders", "sourceVocabulary": "MedDRA (20.0)", "assessmentType": "SYSTEMATIC_ASSESSMENT", "stats": [{"groupId": "EG000", "numAffected": 6, "numAtRisk": 1729}, {"groupId": "EG001", "numAffected": 2, "numAtRisk": 894}]}, {"term": "Cardiac failure", "organSystem": "Cardiac disorders", "sourceVocabulary": "MedDRA (20.0)", "assessmentType": "SYSTEMATIC_ASSESSMENT", "stats": [{"groupId": "EG000", "numAffected": 38, "numAtRisk": 1729}, {"groupId": "EG001", "numAffected": 26, "numAtRisk": 894}]}, {"term": "Cardiac failure acute", "organSystem": "Cardiac disorders", "sourceVocabulary": "MedDRA (20.0)", "assessmentType": "SYSTEMATIC_ASSESSMENT", "stats": [{"groupId": "EG000", "numAffected": 6, "numAtRisk": 1729}, {"groupId": "EG001", "numAffected": 2, "numAtRisk": 894}]}, {"term": "Cardiac failure chronic", "organSystem": "Cardiac disorders", "sourceVocabulary": "MedDRA (20.0)", "assessmentType": "SYSTEMATIC_ASSESSMENT", "stats": [{"groupId": "EG000", "numAffected": 2, "numAtRisk": 1729}, {"groupId": "EG001", "numAffected": 1, "numAtRisk": 894}]}, {"term": "Cardiac failure congestive", "organSystem": "Cardiac disorders", "sourceVocabulary": "MedDRA (20.0)", "assessmentType": "SYSTEMATIC_ASSESSMENT", "stats": [{"groupId": "EG000", "numAffected": 2, "numAtRisk": 1729}, {"groupId": "EG001", "numAffected": 1, "numAtRisk": 894}]}, {"term": "Cardiac hypertrophy", "organSystem": "Cardiac disorders", "sourceVocabulary": "MedDRA (20.0)", "assessmentType": "SYSTEMATIC_ASSESSMENT", "stats": [{"groupId": "EG000", "numAffected": 0, "numAtRisk": 1729}, {"groupId": "EG001", "numAffected": 1, "numAtRisk": 894}]}, {"term": "Cardiac ventricular thrombosis", "organSystem": "Cardiac disorders", "sourceVocabulary": "MedDRA (20.0)", "assessmentType": "SYSTEMATIC_ASSESSMENT", "stats": [{"groupId": "EG000", "numAffected": 0, "numAtRisk": 1729}, {"groupId": "EG001", "numAffected": 1, "numAtRisk": 894}]}, {"term": "Cardio-respiratory arrest", "organSystem": "Cardiac disorders", "sourceVocabulary": "MedDRA (20.0)", "assessmentType": "SYSTEMATIC_ASSESSMENT", "stats": [{"groupId": "EG000", "numAffected": 1, "numAtRisk": 1729}, {"groupId": "EG001", "numAffected": 0, "numAtRisk": 894}]}, {"term": "Cardiogenic shock", "organSystem": "Cardiac disorders", "sourceVocabulary": "MedDRA (20.0)", "assessmentType": "SYSTEMATIC_ASSESSMENT", "stats": [{"groupId": "EG000", "numAffected": 3, "numAtRisk": 1729}, {"groupId": "EG001", "numAffected": 2, "numAtRisk": 894}]}, {"term": "Cardiopulmonary failure", "organSystem": "Cardiac disorders", "sourceVocabulary": "MedDRA (20.0)", "assessmentType": "SYSTEMATIC_ASSESSMENT", "stats": [{"groupId": "EG000", "numAffected": 1, "numAtRisk": 1729}, {"groupId": "EG001", "numAffected": 0, "numAtRisk": 894}]}, {"term": "Cardiorenal syndrome", "organSystem": "Cardiac disorders", "sourceVocabulary": "MedDRA (20.0)", "assessmentType": "SYSTEMATIC_ASSESSMENT", "stats": [{"groupId": "EG000", "numAffected": 1, "numAtRisk": 1729}, {"groupId": "EG001", "numAffected": 0, "numAtRisk": 894}]}, {"term": "Cardiovascular insufficiency", "organSystem": "Cardiac disorders", "sourceVocabulary": "MedDRA (20.0)", "assessmentType": "SYSTEMATIC_ASSESSMENT", "stats": [{"groupId": "EG000", "numAffected": 1, "numAtRisk": 1729}, {"groupId": "EG001", "numAffected": 0, "numAtRisk": 894}]}, {"term": "Congestive cardiomyopathy", "organSystem": "Cardiac disorders", "sourceVocabulary": "MedDRA (20.0)", "assessmentType": "SYSTEMATIC_ASSESSMENT", "stats": [{"groupId": "EG000", "numAffected": 1, "numAtRisk": 1729}, {"groupId": "EG001", "numAffected": 0, "numAtRisk": 894}]}, {"term": "Coronary artery disease", "organSystem": "Cardiac disorders", "sourceVocabulary": "MedDRA (20.0)", "assessmentType": "SYSTEMATIC_ASSESSMENT", "stats": [{"groupId": "EG000", "numAffected": 7, "numAtRisk": 1729}, {"groupId": "EG001", "numAffected": 4, "numAtRisk": 894}]}, {"term": "Coronary artery stenosis", "organSystem": "Cardiac disorders", "sourceVocabulary": "MedDRA (20.0)", "assessmentType": "SYSTEMATIC_ASSESSMENT", "stats": [{"groupId": "EG000", "numAffected": 0, "numAtRisk": 1729}, {"groupId": "EG001", "numAffected": 1, "numAtRisk": 894}]}, {"term": "Diastolic dysfunction", "organSystem": "Cardiac disorders", "sourceVocabulary": "MedDRA (20.0)", "assessmentType": "SYSTEMATIC_ASSESSMENT", "stats": [{"groupId": "EG000", "numAffected": 1, "numAtRisk": 1729}, {"groupId": "EG001", "numAffected": 0, "numAtRisk": 894}]}, {"term": "Left ventricular failure", "organSystem": "Cardiac disorders", "sourceVocabulary": "MedDRA (20.0)", "assessmentType": "SYSTEMATIC_ASSESSMENT", "stats": [{"groupId": "EG000", "numAffected": 1, "numAtRisk": 1729}, {"groupId": "EG001", "numAffected": 1, "numAtRisk": 894}]}, {"term": "Mitral valve incompetence", "organSystem": "Cardiac disorders", "sourceVocabulary": "MedDRA (20.0)", "assessmentType": "SYSTEMATIC_ASSESSMENT", "stats": [{"groupId": "EG000", "numAffected": 5, "numAtRisk": 1729}, {"groupId": "EG001", "numAffected": 1, "numAtRisk": 894}]}, {"term": "Myocardial infarction", "organSystem": "Cardiac disorders", "sourceVocabulary": "MedDRA (20.0)", "assessmentType": "SYSTEMATIC_ASSESSMENT", "stats": [{"groupId": "EG000", "numAffected": 2, "numAtRisk": 1729}, {"groupId": "EG001", "numAffected": 3, "numAtRisk": 894}]}, {"term": "Myocardial ischaemia", "organSystem": "Cardiac disorders", "sourceVocabulary": "MedDRA (20.0)", "assessmentType": "SYSTEMATIC_ASSESSMENT", "stats": [{"groupId": "EG000", "numAffected": 2, "numAtRisk": 1729}, {"groupId": "EG001", "numAffected": 0, "numAtRisk": 894}]}, {"term": "Myocarditis", "organSystem": "Cardiac disorders", "sourceVocabulary": "MedDRA (20.0)", "assessmentType": "SYSTEMATIC_ASSESSMENT", "stats": [{"groupId": "EG000", "numAffected": 1, "numAtRisk": 1729}, {"groupId": "EG001", "numAffected": 0, "numAtRisk": 894}]}, {"term": "Right ventricular failure", "organSystem": "Cardiac disorders", "sourceVocabulary": "MedDRA (20.0)", "assessmentType": "SYSTEMATIC_ASSESSMENT", "stats": [{"groupId": "EG000", "numAffected": 0, "numAtRisk": 1729}, {"groupId": "EG001", "numAffected": 1, "numAtRisk": 894}]}, {"term": "Sinus arrest", "organSystem": "Cardiac disorders", "sourceVocabulary": "MedDRA (20.0)", "assessmentType": "SYSTEMATIC_ASSESSMENT", "stats": [{"groupId": "EG000", "numAffected": 1, "numAtRisk": 1729}, {"groupId": "EG001", "numAffected": 0, "numAtRisk": 894}]}, {"term": "Stress cardiomyopathy", "organSystem": "Cardiac disorders", "sourceVocabulary": "MedDRA (20.0)", "assessmentType": "SYSTEMATIC_ASSESSMENT", "stats": [{"groupId": "EG000", "numAffected": 1, "numAtRisk": 1729}, {"groupId": "EG001", "numAffected": 0, "numAtRisk": 894}]}, {"term": "Tachycardia", "organSystem": "Cardiac disorders", "sourceVocabulary": "MedDRA (20.0)", "assessmentType": "SYSTEMATIC_ASSESSMENT", "stats": [{"groupId": "EG000", "numAffected": 0, "numAtRisk": 1729}, {"groupId": "EG001", "numAffected": 1, "numAtRisk": 894}]}, {"term": "Ventricular fibrillation", "organSystem": "Cardiac disorders", "sourceVocabulary": "MedDRA (20.0)", "assessmentType": "SYSTEMATIC_ASSESSMENT", "stats": [{"groupId": "EG000", "numAffected": 5, "numAtRisk": 1729}, {"groupId": "EG001", "numAffected": 1, "numAtRisk": 894}]}, {"term": "Ventricular tachycardia", "organSystem": "Cardiac disorders", "sourceVocabulary": "MedDRA (20.0)", "assessmentType": "SYSTEMATIC_ASSESSMENT", "stats": [{"groupId": "EG000", "numAffected": 5, "numAtRisk": 1729}, {"groupId": "EG001", "numAffected": 2, "numAtRisk": 894}]}, {"term": "Hypothyroidism", "organSystem": "Endocrine disorders", "sourceVocabulary": "MedDRA (20.0)", "assessmentType": "SYSTEMATIC_ASSESSMENT", "stats": [{"groupId": "EG000", "numAffected": 1, "numAtRisk": 1729}, {"groupId": "EG001", "numAffected": 0, "numAtRisk": 894}]}, {"term": "Glaucoma", "organSystem": "Eye disorders", "sourceVocabulary": "MedDRA (20.0)", "assessmentType": "SYSTEMATIC_ASSESSMENT", "stats": [{"groupId": "EG000", "numAffected": 1, "numAtRisk": 1729}, {"groupId": "EG001", "numAffected": 0, "numAtRisk": 894}]}, {"term": "Abdominal pain lower", "organSystem": "Gastrointestinal disorders", "sourceVocabulary": "MedDRA (20.0)", "assessmentType": "SYSTEMATIC_ASSESSMENT", "stats": [{"groupId": "EG000", "numAffected": 1, "numAtRisk": 1729}, {"groupId": "EG001", "numAffected": 0, "numAtRisk": 894}]}, {"term": "Abdominal strangulated hernia", "organSystem": "Gastrointestinal disorders", "sourceVocabulary": "MedDRA (20.0)", "assessmentType": "SYSTEMATIC_ASSESSMENT", "stats": [{"groupId": "EG000", "numAffected": 1, "numAtRisk": 1729}, {"groupId": "EG001", "numAffected": 0, "numAtRisk": 894}]}, {"term": "Constipation", "organSystem": "Gastrointestinal disorders", "sourceVocabulary": "MedDRA (20.0)", "assessmentType": "SYSTEMATIC_ASSESSMENT", "stats": [{"groupId": "EG000", "numAffected": 0, "numAtRisk": 1729}, {"groupId": "EG001", "numAffected": 1, "numAtRisk": 894}]}, {"term": "Duodenal ulcer haemorrhage", "organSystem": "Gastrointestinal disorders", "sourceVocabulary": "MedDRA (20.0)", "assessmentType": "SYSTEMATIC_ASSESSMENT", "stats": [{"groupId": "EG000", "numAffected": 1, "numAtRisk": 1729}, {"groupId": "EG001", "numAffected": 0, "numAtRisk": 894}]}, {"term": "Dysphagia", "organSystem": "Gastrointestinal disorders", "sourceVocabulary": "MedDRA (20.0)", "assessmentType": "SYSTEMATIC_ASSESSMENT", "stats": [{"groupId": "EG000", "numAffected": 1, "numAtRisk": 1729}, {"groupId": "EG001", "numAffected": 0, "numAtRisk": 894}]}, {"term": "Gastrointestinal haemorrhage", "organSystem": "Gastrointestinal disorders", "sourceVocabulary": "MedDRA (20.0)", "assessmentType": "SYSTEMATIC_ASSESSMENT", "stats": [{"groupId": "EG000", "numAffected": 2, "numAtRisk": 1729}, {"groupId": "EG001", "numAffected": 0, "numAtRisk": 894}]}, {"term": "Intestinal ischaemia", "organSystem": "Gastrointestinal disorders", "sourceVocabulary": "MedDRA (20.0)", "assessmentType": "SYSTEMATIC_ASSESSMENT", "stats": [{"groupId": "EG000", "numAffected": 3, "numAtRisk": 1729}, {"groupId": "EG001", "numAffected": 0, "numAtRisk": 894}]}, {"term": "Melaena", "organSystem": "Gastrointestinal disorders", "sourceVocabulary": "MedDRA (20.0)", "assessmentType": "SYSTEMATIC_ASSESSMENT", "stats": [{"groupId": "EG000", "numAffected": 1, "numAtRisk": 1729}, {"groupId": "EG001", "numAffected": 0, "numAtRisk": 894}]}, {"term": "Nausea", "organSystem": "Gastrointestinal disorders", "sourceVocabulary": "MedDRA (20.0)", "assessmentType": "SYSTEMATIC_ASSESSMENT", "stats": [{"groupId": "EG000", "numAffected": 1, "numAtRisk": 1729}, {"groupId": "EG001", "numAffected": 0, "numAtRisk": 894}]}, {"term": "Vomiting", "organSystem": "Gastrointestinal disorders", "sourceVocabulary": "MedDRA (20.0)", "assessmentType": "SYSTEMATIC_ASSESSMENT", "stats": [{"groupId": "EG000", "numAffected": 2, "numAtRisk": 1729}, {"groupId": "EG001", "numAffected": 0, "numAtRisk": 894}]}, {"term": "Death", "organSystem": "General disorders", "sourceVocabulary": "MedDRA (20.0)", "assessmentType": "SYSTEMATIC_ASSESSMENT", "stats": [{"groupId": "EG000", "numAffected": 0, "numAtRisk": 1729}, {"groupId": "EG001", "numAffected": 1, "numAtRisk": 894}]}, {"term": "Fatigue", "organSystem": "General disorders", "sourceVocabulary": "MedDRA (20.0)", "assessmentType": "SYSTEMATIC_ASSESSMENT", "stats": [{"groupId": "EG000", "numAffected": 1, "numAtRisk": 1729}, {"groupId": "EG001", "numAffected": 0, "numAtRisk": 894}]}, {"term": "Hyperthermia", "organSystem": "General disorders", "sourceVocabulary": "MedDRA (20.0)", "assessmentType": "SYSTEMATIC_ASSESSMENT", "stats": [{"groupId": "EG000", "numAffected": 1, "numAtRisk": 1729}, {"groupId": "EG001", "numAffected": 0, "numAtRisk": 894}]}, {"term": "Non-cardiac chest pain", "organSystem": "General disorders", "sourceVocabulary": "MedDRA (20.0)", "assessmentType": "SYSTEMATIC_ASSESSMENT", "stats": [{"groupId": "EG000", "numAffected": 1, "numAtRisk": 1729}, {"groupId": "EG001", "numAffected": 0, "numAtRisk": 894}]}, {"term": "Organ failure", "organSystem": "General disorders", "sourceVocabulary": "MedDRA (20.0)", "assessmentType": "SYSTEMATIC_ASSESSMENT", "stats": [{"groupId": "EG000", "numAffected": 0, "numAtRisk": 1729}, {"groupId": "EG001", "numAffected": 1, "numAtRisk": 894}]}, {"term": "Pyrexia", "organSystem": "General disorders", "sourceVocabulary": "MedDRA (20.0)", "assessmentType": "SYSTEMATIC_ASSESSMENT", "stats": [{"groupId": "EG000", "numAffected": 4, "numAtRisk": 1729}, {"groupId": "EG001", "numAffected": 2, "numAtRisk": 894}]}, {"term": "Sudden cardiac death", "organSystem": "General disorders", "sourceVocabulary": "MedDRA (20.0)", "assessmentType": "SYSTEMATIC_ASSESSMENT", "stats": [{"groupId": "EG000", "numAffected": 1, "numAtRisk": 1729}, {"groupId": "EG001", "numAffected": 0, "numAtRisk": 894}]}, {"term": "Sudden death", "organSystem": "General disorders", "sourceVocabulary": "MedDRA (20.0)", "assessmentType": "SYSTEMATIC_ASSESSMENT", "stats": [{"groupId": "EG000", "numAffected": 1, "numAtRisk": 1729}, {"groupId": "EG001", "numAffected": 0, "numAtRisk": 894}]}, {"term": "Systemic inflammatory response syndrome", "organSystem": "General disorders", "sourceVocabulary": "MedDRA (20.0)", "assessmentType": "SYSTEMATIC_ASSESSMENT", "stats": [{"groupId": "EG000", "numAffected": 1, "numAtRisk": 1729}, {"groupId": "EG001", "numAffected": 0, "numAtRisk": 894}]}, {"term": "Cholecystitis", "organSystem": "Hepatobiliary disorders", "sourceVocabulary": "MedDRA (20.0)", "assessmentType": "SYSTEMATIC_ASSESSMENT", "stats": [{"groupId": "EG000", "numAffected": 1, "numAtRisk": 1729}, {"groupId": "EG001", "numAffected": 0, "numAtRisk": 894}]}, {"term": "Cholelithiasis", "organSystem": "Hepatobiliary disorders", "sourceVocabulary": "MedDRA (20.0)", "assessmentType": "SYSTEMATIC_ASSESSMENT", "stats": [{"groupId": "EG000", "numAffected": 0, "numAtRisk": 1729}, {"groupId": "EG001", "numAffected": 1, "numAtRisk": 894}]}, {"term": "Hepatitis toxic", "organSystem": "Hepatobiliary disorders", "sourceVocabulary": "MedDRA (20.0)", "assessmentType": "SYSTEMATIC_ASSESSMENT", "stats": [{"groupId": "EG000", "numAffected": 2, "numAtRisk": 1729}, {"groupId": "EG001", "numAffected": 0, "numAtRisk": 894}]}, {"term": "Bacteraemia", "organSystem": "Infections and infestations", "sourceVocabulary": "MedDRA (20.0)", "assessmentType": "SYSTEMATIC_ASSESSMENT", "stats": [{"groupId": "EG000", "numAffected": 1, "numAtRisk": 1729}, {"groupId": "EG001", "numAffected": 0, "numAtRisk": 894}]}, {"term": "Bronchitis", "organSystem": "Infections and infestations", "sourceVocabulary": "MedDRA (20.0)", "assessmentType": "SYSTEMATIC_ASSESSMENT", "stats": [{"groupId": "EG000", "numAffected": 3, "numAtRisk": 1729}, {"groupId": "EG001", "numAffected": 1, "numAtRisk": 894}]}, {"term": "Diverticulitis", "organSystem": "Infections and infestations", "sourceVocabulary": "MedDRA (20.0)", "assessmentType": "SYSTEMATIC_ASSESSMENT", "stats": [{"groupId": "EG000", "numAffected": 1, "numAtRisk": 1729}, {"groupId": "EG001", "numAffected": 0, "numAtRisk": 894}]}, {"term": "Escherichia urinary tract infection", "organSystem": "Infections and infestations", "sourceVocabulary": "MedDRA (20.0)", "assessmentType": "SYSTEMATIC_ASSESSMENT", "stats": [{"groupId": "EG000", "numAffected": 1, "numAtRisk": 1729}, {"groupId": "EG001", "numAffected": 0, "numAtRisk": 894}]}, {"term": "Infection", "organSystem": "Infections and infestations", "sourceVocabulary": "MedDRA (20.0)", "assessmentType": "SYSTEMATIC_ASSESSMENT", "stats": [{"groupId": "EG000", "numAffected": 1, "numAtRisk": 1729}, {"groupId": "EG001", "numAffected": 0, "numAtRisk": 894}]}, {"term": "Lower respiratory tract infection", "organSystem": "Infections and infestations", "sourceVocabulary": "MedDRA (20.0)", "assessmentType": "SYSTEMATIC_ASSESSMENT", "stats": [{"groupId": "EG000", "numAffected": 1, "numAtRisk": 1729}, {"groupId": "EG001", "numAffected": 0, "numAtRisk": 894}]}, {"term": "Nosocomial infection", "organSystem": "Infections and infestations", "sourceVocabulary": "MedDRA (20.0)", "assessmentType": "SYSTEMATIC_ASSESSMENT", "stats": [{"groupId": "EG000", "numAffected": 1, "numAtRisk": 1729}, {"groupId": "EG001", "numAffected": 0, "numAtRisk": 894}]}, {"term": "Oropharyngitis fungal", "organSystem": "Infections and infestations", "sourceVocabulary": "MedDRA (20.0)", "assessmentType": "SYSTEMATIC_ASSESSMENT", "stats": [{"groupId": "EG000", "numAffected": 1, "numAtRisk": 1729}, {"groupId": "EG001", "numAffected": 0, "numAtRisk": 894}]}, {"term": "Parainfluenzae virus infection", "organSystem": "Infections and infestations", "sourceVocabulary": "MedDRA (20.0)", "assessmentType": "SYSTEMATIC_ASSESSMENT", "stats": [{"groupId": "EG000", "numAffected": 1, "numAtRisk": 1729}, {"groupId": "EG001", "numAffected": 0, "numAtRisk": 894}]}, {"term": "Pneumonia", "organSystem": "Infections and infestations", "sourceVocabulary": "MedDRA (20.0)", "assessmentType": "SYSTEMATIC_ASSESSMENT", "stats": [{"groupId": "EG000", "numAffected": 11, "numAtRisk": 1729}, {"groupId": "EG001", "numAffected": 6, "numAtRisk": 894}]}, {"term": "Pneumonia influenzal", "organSystem": "Infections and infestations", "sourceVocabulary": "MedDRA (20.0)", "assessmentType": "SYSTEMATIC_ASSESSMENT", "stats": [{"groupId": "EG000", "numAffected": 1, "numAtRisk": 1729}, {"groupId": "EG001", "numAffected": 0, "numAtRisk": 894}]}, {"term": "Pneumonia klebsiella", "organSystem": "Infections and infestations", "sourceVocabulary": "MedDRA (20.0)", "assessmentType": "SYSTEMATIC_ASSESSMENT", "stats": [{"groupId": "EG000", "numAffected": 1, "numAtRisk": 1729}, {"groupId": "EG001", "numAffected": 0, "numAtRisk": 894}]}, {"term": "Pneumonia pneumococcal", "organSystem": "Infections and infestations", "sourceVocabulary": "MedDRA (20.0)", "assessmentType": "SYSTEMATIC_ASSESSMENT", "stats": [{"groupId": "EG000", "numAffected": 0, "numAtRisk": 1729}, {"groupId": "EG001", "numAffected": 1, "numAtRisk": 894}]}, {"term": "Respiratory tract infection", "organSystem": "Infections and infestations", "sourceVocabulary": "MedDRA (20.0)", "assessmentType": "SYSTEMATIC_ASSESSMENT", "stats": [{"groupId": "EG000", "numAffected": 1, "numAtRisk": 1729}, {"groupId": "EG001", "numAffected": 0, "numAtRisk": 894}]}, {"term": "Sepsis", "organSystem": "Infections and infestations", "sourceVocabulary": "MedDRA (20.0)", "assessmentType": "SYSTEMATIC_ASSESSMENT", "stats": [{"groupId": "EG000", "numAffected": 2, "numAtRisk": 1729}, {"groupId": "EG001", "numAffected": 2, "numAtRisk": 894}]}, {"term": "Skin bacterial infection", "organSystem": "Infections and infestations", "sourceVocabulary": "MedDRA (20.0)", "assessmentType": "SYSTEMATIC_ASSESSMENT", "stats": [{"groupId": "EG000", "numAffected": 1, "numAtRisk": 1729}, {"groupId": "EG001", "numAffected": 0, "numAtRisk": 894}]}, {"term": "Staphylococcal bacteraemia", "organSystem": "Infections and infestations", "sourceVocabulary": "MedDRA (20.0)", "assessmentType": "SYSTEMATIC_ASSESSMENT", "stats": [{"groupId": "EG000", "numAffected": 1, "numAtRisk": 1729}, {"groupId": "EG001", "numAffected": 0, "numAtRisk": 894}]}, {"term": "Staphylococcal infection", "organSystem": "Infections and infestations", "sourceVocabulary": "MedDRA (20.0)", "assessmentType": "SYSTEMATIC_ASSESSMENT", "stats": [{"groupId": "EG000", "numAffected": 0, "numAtRisk": 1729}, {"groupId": "EG001", "numAffected": 1, "numAtRisk": 894}]}, {"term": "Streptococcal infection", "organSystem": "Infections and infestations", "sourceVocabulary": "MedDRA (20.0)", "assessmentType": "SYSTEMATIC_ASSESSMENT", "stats": [{"groupId": "EG000", "numAffected": 1, "numAtRisk": 1729}, {"groupId": "EG001", "numAffected": 0, "numAtRisk": 894}]}, {"term": "Tracheobronchitis", "organSystem": "Infections and infestations", "sourceVocabulary": "MedDRA (20.0)", "assessmentType": "SYSTEMATIC_ASSESSMENT", "stats": [{"groupId": "EG000", "numAffected": 2, "numAtRisk": 1729}, {"groupId": "EG001", "numAffected": 0, "numAtRisk": 894}]}, {"term": "Urinary tract infection", "organSystem": "Infections and infestations", "sourceVocabulary": "MedDRA (20.0)", "assessmentType": "SYSTEMATIC_ASSESSMENT", "stats": [{"groupId": "EG000", "numAffected": 3, "numAtRisk": 1729}, {"groupId": "EG001", "numAffected": 4, "numAtRisk": 894}]}, {"term": "Urosepsis", "organSystem": "Infections and infestations", "sourceVocabulary": "MedDRA (20.0)", "assessmentType": "SYSTEMATIC_ASSESSMENT", "stats": [{"groupId": "EG000", "numAffected": 2, "numAtRisk": 1729}, {"groupId": "EG001", "numAffected": 0, "numAtRisk": 894}]}, {"term": "Abdominal injury", "organSystem": "Injury, poisoning and procedural complications", "sourceVocabulary": "MedDRA (20.0)", "assessmentType": "SYSTEMATIC_ASSESSMENT", "stats": [{"groupId": "EG000", "numAffected": 1, "numAtRisk": 1729}, {"groupId": "EG001", "numAffected": 0, "numAtRisk": 894}]}, {"term": "Ankle fracture", "organSystem": "Injury, poisoning and procedural complications", "sourceVocabulary": "MedDRA (20.0)", "assessmentType": "SYSTEMATIC_ASSESSMENT", "stats": [{"groupId": "EG000", "numAffected": 0, "numAtRisk": 1729}, {"groupId": "EG001", "numAffected": 1, "numAtRisk": 894}]}, {"term": "Craniocerebral injury", "organSystem": "Injury, poisoning and procedural complications", "sourceVocabulary": "MedDRA (20.0)", "assessmentType": "SYSTEMATIC_ASSESSMENT", "stats": [{"groupId": "EG000", "numAffected": 1, "numAtRisk": 1729}, {"groupId": "EG001", "numAffected": 0, "numAtRisk": 894}]}, {"term": "Fall", "organSystem": "Injury, poisoning and procedural complications", "sourceVocabulary": "MedDRA (20.0)", "assessmentType": "SYSTEMATIC_ASSESSMENT", "stats": [{"groupId": "EG000", "numAffected": 0, "numAtRisk": 1729}, {"groupId": "EG001", "numAffected": 2, "numAtRisk": 894}]}, {"term": "Femoral neck fracture", "organSystem": "Injury, poisoning and procedural complications", "sourceVocabulary": "MedDRA (20.0)", "assessmentType": "SYSTEMATIC_ASSESSMENT", "stats": [{"groupId": "EG000", "numAffected": 1, "numAtRisk": 1729}, {"groupId": "EG001", "numAffected": 0, "numAtRisk": 894}]}, {"term": "Haematuria traumatic", "organSystem": "Injury, poisoning and procedural complications", "sourceVocabulary": "MedDRA (20.0)", "assessmentType": "SYSTEMATIC_ASSESSMENT", "stats": [{"groupId": "EG000", "numAffected": 1, "numAtRisk": 1729}, {"groupId": "EG001", "numAffected": 0, "numAtRisk": 894}]}, {"term": "Head injury", "organSystem": "Injury, poisoning and procedural complications", "sourceVocabulary": "MedDRA (20.0)", "assessmentType": "SYSTEMATIC_ASSESSMENT", "stats": [{"groupId": "EG000", "numAffected": 1, "numAtRisk": 1729}, {"groupId": "EG001", "numAffected": 0, "numAtRisk": 894}]}, {"term": "Hip fracture", "organSystem": "Injury, poisoning and procedural complications", "sourceVocabulary": "MedDRA (20.0)", "assessmentType": "SYSTEMATIC_ASSESSMENT", "stats": [{"groupId": "EG000", "numAffected": 0, "numAtRisk": 1729}, {"groupId": "EG001", "numAffected": 1, "numAtRisk": 894}]}, {"term": "Lumbar vertebral fracture", "organSystem": "Injury, poisoning and procedural complications", "sourceVocabulary": "MedDRA (20.0)", "assessmentType": "SYSTEMATIC_ASSESSMENT", "stats": [{"groupId": "EG000", "numAffected": 2, "numAtRisk": 1729}, {"groupId": "EG001", "numAffected": 0, "numAtRisk": 894}]}, {"term": "Post procedural haemorrhage", "organSystem": "Injury, poisoning and procedural complications", "sourceVocabulary": "MedDRA (20.0)", "assessmentType": "SYSTEMATIC_ASSESSMENT", "stats": [{"groupId": "EG000", "numAffected": 1, "numAtRisk": 1729}, {"groupId": "EG001", "numAffected": 0, "numAtRisk": 894}]}, {"term": "Procedural pneumothorax", "organSystem": "Injury, poisoning and procedural complications", "sourceVocabulary": "MedDRA (20.0)", "assessmentType": "SYSTEMATIC_ASSESSMENT", "stats": [{"groupId": "EG000", "numAffected": 1, "numAtRisk": 1729}, {"groupId": "EG001", "numAffected": 0, "numAtRisk": 894}]}, {"term": "Subdural haemorrhage", "organSystem": "Injury, poisoning and procedural complications", "sourceVocabulary": "MedDRA (20.0)", "assessmentType": "SYSTEMATIC_ASSESSMENT", "stats": [{"groupId": "EG000", "numAffected": 1, "numAtRisk": 1729}, {"groupId": "EG001", "numAffected": 0, "numAtRisk": 894}]}, {"term": "Toxicity to various agents", "organSystem": "Injury, poisoning and procedural complications", "sourceVocabulary": "MedDRA (20.0)", "assessmentType": "SYSTEMATIC_ASSESSMENT", "stats": [{"groupId": "EG000", "numAffected": 1, "numAtRisk": 1729}, {"groupId": "EG001", "numAffected": 0, "numAtRisk": 894}]}, {"term": "Traumatic haematoma", "organSystem": "Injury, poisoning and procedural complications", "sourceVocabulary": "MedDRA (20.0)", "assessmentType": "SYSTEMATIC_ASSESSMENT", "stats": [{"groupId": "EG000", "numAffected": 0, "numAtRisk": 1729}, {"groupId": "EG001", "numAffected": 1, "numAtRisk": 894}]}, {"term": "Vascular pseudoaneurysm", "organSystem": "Injury, poisoning and procedural complications", "sourceVocabulary": "MedDRA (20.0)", "assessmentType": "SYSTEMATIC_ASSESSMENT", "stats": [{"groupId": "EG000", "numAffected": 2, "numAtRisk": 1729}, {"groupId": "EG001", "numAffected": 0, "numAtRisk": 894}]}, {"term": "Blood bilirubin increased", "organSystem": "Investigations", "sourceVocabulary": "MedDRA (20.0)", "assessmentType": "SYSTEMATIC_ASSESSMENT", "stats": [{"groupId": "EG000", "numAffected": 1, "numAtRisk": 1729}, {"groupId": "EG001", "numAffected": 0, "numAtRisk": 894}]}, {"term": "Blood creatinine increased", "organSystem": "Investigations", "sourceVocabulary": "MedDRA (20.0)", "assessmentType": "SYSTEMATIC_ASSESSMENT", "stats": [{"groupId": "EG000", "numAffected": 1, "numAtRisk": 1729}, {"groupId": "EG001", "numAffected": 1, "numAtRisk": 894}]}, {"term": "Electrocardiogram T wave inversion", "organSystem": "Investigations", "sourceVocabulary": "MedDRA (20.0)", "assessmentType": "SYSTEMATIC_ASSESSMENT", "stats": [{"groupId": "EG000", "numAffected": 1, "numAtRisk": 1729}, {"groupId": "EG001", "numAffected": 0, "numAtRisk": 894}]}, {"term": "Haemoglobin decreased", "organSystem": "Investigations", "sourceVocabulary": "MedDRA (20.0)", "assessmentType": "SYSTEMATIC_ASSESSMENT", "stats": [{"groupId": "EG000", "numAffected": 1, "numAtRisk": 1729}, {"groupId": "EG001", "numAffected": 0, "numAtRisk": 894}]}, {"term": "Heart rate decreased", "organSystem": "Investigations", "sourceVocabulary": "MedDRA (20.0)", "assessmentType": "SYSTEMATIC_ASSESSMENT", "stats": [{"groupId": "EG000", "numAffected": 0, "numAtRisk": 1729}, {"groupId": "EG001", "numAffected": 1, "numAtRisk": 894}]}, {"term": "International normalised ratio decreased", "organSystem": "Investigations", "sourceVocabulary": "MedDRA (20.0)", "assessmentType": "SYSTEMATIC_ASSESSMENT", "stats": [{"groupId": "EG000", "numAffected": 0, "numAtRisk": 1729}, {"groupId": "EG001", "numAffected": 1, "numAtRisk": 894}]}, {"term": "International normalised ratio increased", "organSystem": "Investigations", "sourceVocabulary": "MedDRA (20.0)", "assessmentType": "SYSTEMATIC_ASSESSMENT", "stats": [{"groupId": "EG000", "numAffected": 0, "numAtRisk": 1729}, {"groupId": "EG001", "numAffected": 1, "numAtRisk": 894}]}, {"term": "Liver function test increased", "organSystem": "Investigations", "sourceVocabulary": "MedDRA (20.0)", "assessmentType": "SYSTEMATIC_ASSESSMENT", "stats": [{"groupId": "EG000", "numAffected": 1, "numAtRisk": 1729}, {"groupId": "EG001", "numAffected": 0, "numAtRisk": 894}]}, {"term": "Oxygen saturation decreased", "organSystem": "Investigations", "sourceVocabulary": "MedDRA (20.0)", "assessmentType": "SYSTEMATIC_ASSESSMENT", "stats": [{"groupId": "EG000", "numAffected": 0, "numAtRisk": 1729}, {"groupId": "EG001", "numAffected": 1, "numAtRisk": 894}]}, {"term": "Dehydration", "organSystem": "Metabolism and nutrition disorders", "sourceVocabulary": "MedDRA (20.0)", "assessmentType": "SYSTEMATIC_ASSESSMENT", "stats": [{"groupId": "EG000", "numAffected": 2, "numAtRisk": 1729}, {"groupId": "EG001", "numAffected": 0, "numAtRisk": 894}]}, {"term": "Diabetic ketoacidosis", "organSystem": "Metabolism and nutrition disorders", "sourceVocabulary": "MedDRA (20.0)", "assessmentType": "SYSTEMATIC_ASSESSMENT", "stats": [{"groupId": "EG000", "numAffected": 1, "numAtRisk": 1729}, {"groupId": "EG001", "numAffected": 0, "numAtRisk": 894}]}, {"term": "Gout", "organSystem": "Metabolism and nutrition disorders", "sourceVocabulary": "MedDRA (20.0)", "assessmentType": "SYSTEMATIC_ASSESSMENT", "stats": [{"groupId": "EG000", "numAffected": 1, "numAtRisk": 1729}, {"groupId": "EG001", "numAffected": 0, "numAtRisk": 894}]}, {"term": "Hyperammonaemia", "organSystem": "Metabolism and nutrition disorders", "sourceVocabulary": "MedDRA (20.0)", "assessmentType": "SYSTEMATIC_ASSESSMENT", "stats": [{"groupId": "EG000", "numAffected": 1, "numAtRisk": 1729}, {"groupId": "EG001", "numAffected": 0, "numAtRisk": 894}]}, {"term": "Hyperkalaemia", "organSystem": "Metabolism and nutrition disorders", "sourceVocabulary": "MedDRA (20.0)", "assessmentType": "SYSTEMATIC_ASSESSMENT", "stats": [{"groupId": "EG000", "numAffected": 1, "numAtRisk": 1729}, {"groupId": "EG001", "numAffected": 0, "numAtRisk": 894}]}, {"term": "Hypoglycaemia", "organSystem": "Metabolism and nutrition disorders", "sourceVocabulary": "MedDRA (20.0)", "assessmentType": "SYSTEMATIC_ASSESSMENT", "stats": [{"groupId": "EG000", "numAffected": 1, "numAtRisk": 1729}, {"groupId": "EG001", "numAffected": 2, "numAtRisk": 894}]}, {"term": "Hypokalaemia", "organSystem": "Metabolism and nutrition disorders", "sourceVocabulary": "MedDRA (20.0)", "assessmentType": "SYSTEMATIC_ASSESSMENT", "stats": [{"groupId": "EG000", "numAffected": 0, "numAtRisk": 1729}, {"groupId": "EG001", "numAffected": 2, "numAtRisk": 894}]}, {"term": "Type 2 diabetes mellitus", "organSystem": "Metabolism and nutrition disorders", "sourceVocabulary": "MedDRA (20.0)", "assessmentType": "SYSTEMATIC_ASSESSMENT", "stats": [{"groupId": "EG000", "numAffected": 0, "numAtRisk": 1729}, {"groupId": "EG001", "numAffected": 1, "numAtRisk": 894}]}, {"term": "Chest wall haematoma", "organSystem": "Musculoskeletal and connective tissue disorders", "sourceVocabulary": "MedDRA (20.0)", "assessmentType": "SYSTEMATIC_ASSESSMENT", "stats": [{"groupId": "EG000", "numAffected": 0, "numAtRisk": 1729}, {"groupId": "EG001", "numAffected": 1, "numAtRisk": 894}]}, {"term": "Joint swelling", "organSystem": "Musculoskeletal and connective tissue disorders", "sourceVocabulary": "MedDRA (20.0)", "assessmentType": "SYSTEMATIC_ASSESSMENT", "stats": [{"groupId": "EG000", "numAffected": 1, "numAtRisk": 1729}, {"groupId": "EG001", "numAffected": 0, "numAtRisk": 894}]}, {"term": "Muscle haemorrhage", "organSystem": "Musculoskeletal and connective tissue disorders", "sourceVocabulary": "MedDRA (20.0)", "assessmentType": "SYSTEMATIC_ASSESSMENT", "stats": [{"groupId": "EG000", "numAffected": 0, "numAtRisk": 1729}, {"groupId": "EG001", "numAffected": 1, "numAtRisk": 894}]}, {"term": "Rhabdomyolysis", "organSystem": "Musculoskeletal and connective tissue disorders", "sourceVocabulary": "MedDRA (20.0)", "assessmentType": "SYSTEMATIC_ASSESSMENT", "stats": [{"groupId": "EG000", "numAffected": 1, "numAtRisk": 1729}, {"groupId": "EG001", "numAffected": 0, "numAtRisk": 894}]}, {"term": "Bladder transitional cell carcinoma", "organSystem": "Neoplasms benign, malignant and unspecified (incl cysts and polyps)", "sourceVocabulary": "MedDRA (20.0)", "assessmentType": "SYSTEMATIC_ASSESSMENT", "stats": [{"groupId": "EG000", "numAffected": 0, "numAtRisk": 1729}, {"groupId": "EG001", "numAffected": 1, "numAtRisk": 894}]}, {"term": "Colon cancer", "organSystem": "Neoplasms benign, malignant and unspecified (incl cysts and polyps)", "sourceVocabulary": "MedDRA (20.0)", "assessmentType": "SYSTEMATIC_ASSESSMENT", "stats": [{"groupId": "EG000", "numAffected": 1, "numAtRisk": 1729}, {"groupId": "EG001", "numAffected": 0, "numAtRisk": 894}]}, {"term": "Gastric cancer", "organSystem": "Neoplasms benign, malignant and unspecified (incl cysts and polyps)", "sourceVocabulary": "MedDRA (20.0)", "assessmentType": "SYSTEMATIC_ASSESSMENT", "stats": [{"groupId": "EG000", "numAffected": 0, "numAtRisk": 1729}, {"groupId": "EG001", "numAffected": 1, "numAtRisk": 894}]}, {"term": "Leiomyoma", "organSystem": "Neoplasms benign, malignant and unspecified (incl cysts and polyps)", "sourceVocabulary": "MedDRA (20.0)", "assessmentType": "SYSTEMATIC_ASSESSMENT", "stats": [{"groupId": "EG000", "numAffected": 1, "numAtRisk": 1729}, {"groupId": "EG001", "numAffected": 0, "numAtRisk": 894}]}, {"term": "Lung neoplasm malignant", "organSystem": "Neoplasms benign, malignant and unspecified (incl cysts and polyps)", "sourceVocabulary": "MedDRA (20.0)", "assessmentType": "SYSTEMATIC_ASSESSMENT", "stats": [{"groupId": "EG000", "numAffected": 1, "numAtRisk": 1729}, {"groupId": "EG001", "numAffected": 0, "numAtRisk": 894}]}, {"term": "Plasma cell myeloma", "organSystem": "Neoplasms benign, malignant and unspecified (incl cysts and polyps)", "sourceVocabulary": "MedDRA (20.0)", "assessmentType": "SYSTEMATIC_ASSESSMENT", "stats": [{"groupId": "EG000", "numAffected": 1, "numAtRisk": 1729}, {"groupId": "EG001", "numAffected": 0, "numAtRisk": 894}]}, {"term": "Prostate cancer metastatic", "organSystem": "Neoplasms benign, malignant and unspecified (incl cysts and polyps)", "sourceVocabulary": "MedDRA (20.0)", "assessmentType": "SYSTEMATIC_ASSESSMENT", "stats": [{"groupId": "EG000", "numAffected": 0, "numAtRisk": 1729}, {"groupId": "EG001", "numAffected": 1, "numAtRisk": 894}]}, {"term": "Brain oedema", "organSystem": "Nervous system disorders", "sourceVocabulary": "MedDRA (20.0)", "assessmentType": "SYSTEMATIC_ASSESSMENT", "stats": [{"groupId": "EG000", "numAffected": 1, "numAtRisk": 1729}, {"groupId": "EG001", "numAffected": 0, "numAtRisk": 894}]}, {"term": "Carotid artery stenosis", "organSystem": "Nervous system disorders", "sourceVocabulary": "MedDRA (20.0)", "assessmentType": "SYSTEMATIC_ASSESSMENT", "stats": [{"groupId": "EG000", "numAffected": 0, "numAtRisk": 1729}, {"groupId": "EG001", "numAffected": 1, "numAtRisk": 894}]}, {"term": "Cerebrovascular accident", "organSystem": "Nervous system disorders", "sourceVocabulary": "MedDRA (20.0)", "assessmentType": "SYSTEMATIC_ASSESSMENT", "stats": [{"groupId": "EG000", "numAffected": 1, "numAtRisk": 1729}, {"groupId": "EG001", "numAffected": 1, "numAtRisk": 894}]}, {"term": "Depressed level of consciousness", "organSystem": "Nervous system disorders", "sourceVocabulary": "MedDRA (20.0)", "assessmentType": "SYSTEMATIC_ASSESSMENT", "stats": [{"groupId": "EG000", "numAffected": 1, "numAtRisk": 1729}, {"groupId": "EG001", "numAffected": 0, "numAtRisk": 894}]}, {"term": "Epilepsy", "organSystem": "Nervous system disorders", "sourceVocabulary": "MedDRA (20.0)", "assessmentType": "SYSTEMATIC_ASSESSMENT", "stats": [{"groupId": "EG000", "numAffected": 2, "numAtRisk": 1729}, {"groupId": "EG001", "numAffected": 0, "numAtRisk": 894}]}, {"term": "Hypercapnic coma", "organSystem": "Nervous system disorders", "sourceVocabulary": "MedDRA (20.0)", "assessmentType": "SYSTEMATIC_ASSESSMENT", "stats": [{"groupId": "EG000", "numAffected": 0, "numAtRisk": 1729}, {"groupId": "EG001", "numAffected": 1, "numAtRisk": 894}]}, {"term": "Ischaemic stroke", "organSystem": "Nervous system disorders", "sourceVocabulary": "MedDRA (20.0)", "assessmentType": "SYSTEMATIC_ASSESSMENT", "stats": [{"groupId": "EG000", "numAffected": 3, "numAtRisk": 1729}, {"groupId": "EG001", "numAffected": 4, "numAtRisk": 894}]}, {"term": "Loss of consciousness", "organSystem": "Nervous system disorders", "sourceVocabulary": "MedDRA (20.0)", "assessmentType": "SYSTEMATIC_ASSESSMENT", "stats": [{"groupId": "EG000", "numAffected": 0, "numAtRisk": 1729}, {"groupId": "EG001", "numAffected": 1, "numAtRisk": 894}]}, {"term": "Seizure", "organSystem": "Nervous system disorders", "sourceVocabulary": "MedDRA (20.0)", "assessmentType": "SYSTEMATIC_ASSESSMENT", "stats": [{"groupId": "EG000", "numAffected": 1, "numAtRisk": 1729}, {"groupId": "EG001", "numAffected": 0, "numAtRisk": 894}]}, {"term": "Status epilepticus", "organSystem": "Nervous system disorders", "sourceVocabulary": "MedDRA (20.0)", "assessmentType": "SYSTEMATIC_ASSESSMENT", "stats": [{"groupId": "EG000", "numAffected": 1, "numAtRisk": 1729}, {"groupId": "EG001", "numAffected": 0, "numAtRisk": 894}]}, {"term": "Agitation", "organSystem": "Psychiatric disorders", "sourceVocabulary": "MedDRA (20.0)", "assessmentType": "SYSTEMATIC_ASSESSMENT", "stats": [{"groupId": "EG000", "numAffected": 1, "numAtRisk": 1729}, {"groupId": "EG001", "numAffected": 0, "numAtRisk": 894}]}, {"term": "Confusional state", "organSystem": "Psychiatric disorders", "sourceVocabulary": "MedDRA (20.0)", "assessmentType": "SYSTEMATIC_ASSESSMENT", "stats": [{"groupId": "EG000", "numAffected": 2, "numAtRisk": 1729}, {"groupId": "EG001", "numAffected": 0, "numAtRisk": 894}]}, {"term": "Delirium", "organSystem": "Psychiatric disorders", "sourceVocabulary": "MedDRA (20.0)", "assessmentType": "SYSTEMATIC_ASSESSMENT", "stats": [{"groupId": "EG000", "numAffected": 2, "numAtRisk": 1729}, {"groupId": "EG001", "numAffected": 0, "numAtRisk": 894}]}, {"term": "Acute kidney injury", "organSystem": "Renal and urinary disorders", "sourceVocabulary": "MedDRA (20.0)", "assessmentType": "SYSTEMATIC_ASSESSMENT", "stats": [{"groupId": "EG000", "numAffected": 9, "numAtRisk": 1729}, {"groupId": "EG001", "numAffected": 4, "numAtRisk": 894}]}, {"term": "Acute prerenal failure", "organSystem": "Renal and urinary disorders", "sourceVocabulary": "MedDRA (20.0)", "assessmentType": "SYSTEMATIC_ASSESSMENT", "stats": [{"groupId": "EG000", "numAffected": 0, "numAtRisk": 1729}, {"groupId": "EG001", "numAffected": 1, "numAtRisk": 894}]}, {"term": "Anuria", "organSystem": "Renal and urinary disorders", "sourceVocabulary": "MedDRA (20.0)", "assessmentType": "SYSTEMATIC_ASSESSMENT", "stats": [{"groupId": "EG000", "numAffected": 0, "numAtRisk": 1729}, {"groupId": "EG001", "numAffected": 1, "numAtRisk": 894}]}, {"term": "Chronic kidney disease", "organSystem": "Renal and urinary disorders", "sourceVocabulary": "MedDRA (20.0)", "assessmentType": "SYSTEMATIC_ASSESSMENT", "stats": [{"groupId": "EG000", "numAffected": 2, "numAtRisk": 1729}, {"groupId": "EG001", "numAffected": 0, "numAtRisk": 894}]}, {"term": "Haematuria", "organSystem": "Renal and urinary disorders", "sourceVocabulary": "MedDRA (20.0)", "assessmentType": "SYSTEMATIC_ASSESSMENT", "stats": [{"groupId": "EG000", "numAffected": 1, "numAtRisk": 1729}, {"groupId": "EG001", "numAffected": 0, "numAtRisk": 894}]}, {"term": "Nephropathy", "organSystem": "Renal and urinary disorders", "sourceVocabulary": "MedDRA (20.0)", "assessmentType": "SYSTEMATIC_ASSESSMENT", "stats": [{"groupId": "EG000", "numAffected": 1, "numAtRisk": 1729}, {"groupId": "EG001", "numAffected": 0, "numAtRisk": 894}]}, {"term": "Nephropathy toxic", "organSystem": "Renal and urinary disorders", "sourceVocabulary": "MedDRA (20.0)", "assessmentType": "SYSTEMATIC_ASSESSMENT", "stats": [{"groupId": "EG000", "numAffected": 1, "numAtRisk": 1729}, {"groupId": "EG001", "numAffected": 0, "numAtRisk": 894}]}, {"term": "Nephrotic syndrome", "organSystem": "Renal and urinary disorders", "sourceVocabulary": "MedDRA (20.0)", "assessmentType": "SYSTEMATIC_ASSESSMENT", "stats": [{"groupId": "EG000", "numAffected": 1, "numAtRisk": 1729}, {"groupId": "EG001", "numAffected": 1, "numAtRisk": 894}]}, {"term": "Prerenal failure", "organSystem": "Renal and urinary disorders", "sourceVocabulary": "MedDRA (20.0)", "assessmentType": "SYSTEMATIC_ASSESSMENT", "stats": [{"groupId": "EG000", "numAffected": 1, "numAtRisk": 1729}, {"groupId": "EG001", "numAffected": 0, "numAtRisk": 894}]}, {"term": "Renal failure", "organSystem": "Renal and urinary disorders", "sourceVocabulary": "MedDRA (20.0)", "assessmentType": "SYSTEMATIC_ASSESSMENT", "stats": [{"groupId": "EG000", "numAffected": 6, "numAtRisk": 1729}, {"groupId": "EG001", "numAffected": 3, "numAtRisk": 894}]}, {"term": "Renal impairment", "organSystem": "Renal and urinary disorders", "sourceVocabulary": "MedDRA (20.0)", "assessmentType": "SYSTEMATIC_ASSESSMENT", "stats": [{"groupId": "EG000", "numAffected": 4, "numAtRisk": 1729}, {"groupId": "EG001", "numAffected": 5, "numAtRisk": 894}]}, {"term": "Renal tubular necrosis", "organSystem": "Renal and urinary disorders", "sourceVocabulary": "MedDRA (20.0)", "assessmentType": "SYSTEMATIC_ASSESSMENT", "stats": [{"groupId": "EG000", "numAffected": 1, "numAtRisk": 1729}, {"groupId": "EG001", "numAffected": 1, "numAtRisk": 894}]}, {"term": "Urinary retention", "organSystem": "Renal and urinary disorders", "sourceVocabulary": "MedDRA (20.0)", "assessmentType": "SYSTEMATIC_ASSESSMENT", "stats": [{"groupId": "EG000", "numAffected": 1, "numAtRisk": 1729}, {"groupId": "EG001", "numAffected": 0, "numAtRisk": 894}]}, {"term": "Acute pulmonary oedema", "organSystem": "Respiratory, thoracic and mediastinal disorders", "sourceVocabulary": "MedDRA (20.0)", "assessmentType": "SYSTEMATIC_ASSESSMENT", "stats": [{"groupId": "EG000", "numAffected": 6, "numAtRisk": 1729}, {"groupId": "EG001", "numAffected": 1, "numAtRisk": 894}]}, {"term": "Acute respiratory distress syndrome", "organSystem": "Respiratory, thoracic and mediastinal disorders", "sourceVocabulary": "MedDRA (20.0)", "assessmentType": "SYSTEMATIC_ASSESSMENT", "stats": [{"groupId": "EG000", "numAffected": 0, "numAtRisk": 1729}, {"groupId": "EG001", "numAffected": 1, "numAtRisk": 894}]}, {"term": "Acute respiratory failure", "organSystem": "Respiratory, thoracic and mediastinal disorders", "sourceVocabulary": "MedDRA (20.0)", "assessmentType": "SYSTEMATIC_ASSESSMENT", "stats": [{"groupId": "EG000", "numAffected": 1, "numAtRisk": 1729}, {"groupId": "EG001", "numAffected": 1, "numAtRisk": 894}]}, {"term": "Chronic obstructive pulmonary disease", "organSystem": "Respiratory, thoracic and mediastinal disorders", "sourceVocabulary": "MedDRA (20.0)", "assessmentType": "SYSTEMATIC_ASSESSMENT", "stats": [{"groupId": "EG000", "numAffected": 1, "numAtRisk": 1729}, {"groupId": "EG001", "numAffected": 1, "numAtRisk": 894}]}, {"term": "Dyspnoea", "organSystem": "Respiratory, thoracic and mediastinal disorders", "sourceVocabulary": "MedDRA (20.0)", "assessmentType": "SYSTEMATIC_ASSESSMENT", "stats": [{"groupId": "EG000", "numAffected": 2, "numAtRisk": 1729}, {"groupId": "EG001", "numAffected": 3, "numAtRisk": 894}]}, {"term": "Haemothorax", "organSystem": "Respiratory, thoracic and mediastinal disorders", "sourceVocabulary": "MedDRA (20.0)", "assessmentType": "SYSTEMATIC_ASSESSMENT", "stats": [{"groupId": "EG000", "numAffected": 1, "numAtRisk": 1729}, {"groupId": "EG001", "numAffected": 1, "numAtRisk": 894}]}, {"term": "Hypercapnia", "organSystem": "Respiratory, thoracic and mediastinal disorders", "sourceVocabulary": "MedDRA (20.0)", "assessmentType": "SYSTEMATIC_ASSESSMENT", "stats": [{"groupId": "EG000", "numAffected": 1, "numAtRisk": 1729}, {"groupId": "EG001", "numAffected": 2, "numAtRisk": 894}]}, {"term": "Pleural effusion", "organSystem": "Respiratory, thoracic and mediastinal disorders", "sourceVocabulary": "MedDRA (20.0)", "assessmentType": "SYSTEMATIC_ASSESSMENT", "stats": [{"groupId": "EG000", "numAffected": 1, "numAtRisk": 1729}, {"groupId": "EG001", "numAffected": 0, "numAtRisk": 894}]}, {"term": "Pulmonary hypertension", "organSystem": "Respiratory, thoracic and mediastinal disorders", "sourceVocabulary": "MedDRA (20.0)", "assessmentType": "SYSTEMATIC_ASSESSMENT", "stats": [{"groupId": "EG000", "numAffected": 1, "numAtRisk": 1729}, {"groupId": "EG001", "numAffected": 0, "numAtRisk": 894}]}, {"term": "Pulmonary mass", "organSystem": "Respiratory, thoracic and mediastinal disorders", "sourceVocabulary": "MedDRA (20.0)", "assessmentType": "SYSTEMATIC_ASSESSMENT", "stats": [{"groupId": "EG000", "numAffected": 1, "numAtRisk": 1729}, {"groupId": "EG001", "numAffected": 0, "numAtRisk": 894}]}, {"term": "Pulmonary oedema", "organSystem": "Respiratory, thoracic and mediastinal disorders", "sourceVocabulary": "MedDRA (20.0)", "assessmentType": "SYSTEMATIC_ASSESSMENT", "stats": [{"groupId": "EG000", "numAffected": 3, "numAtRisk": 1729}, {"groupId": "EG001", "numAffected": 2, "numAtRisk": 894}]}, {"term": "Respiratory disorder", "organSystem": "Respiratory, thoracic and mediastinal disorders", "sourceVocabulary": "MedDRA (20.0)", "assessmentType": "SYSTEMATIC_ASSESSMENT", "stats": [{"groupId": "EG000", "numAffected": 1, "numAtRisk": 1729}, {"groupId": "EG001", "numAffected": 0, "numAtRisk": 894}]}, {"term": "Respiratory distress", "organSystem": "Respiratory, thoracic and mediastinal disorders", "sourceVocabulary": "MedDRA (20.0)", "assessmentType": "SYSTEMATIC_ASSESSMENT", "stats": [{"groupId": "EG000", "numAffected": 0, "numAtRisk": 1729}, {"groupId": "EG001", "numAffected": 1, "numAtRisk": 894}]}, {"term": "Respiratory failure", "organSystem": "Respiratory, thoracic and mediastinal disorders", "sourceVocabulary": "MedDRA (20.0)", "assessmentType": "SYSTEMATIC_ASSESSMENT", "stats": [{"groupId": "EG000", "numAffected": 6, "numAtRisk": 1729}, {"groupId": "EG001", "numAffected": 0, "numAtRisk": 894}]}, {"term": "Dermatitis exfoliative", "organSystem": "Skin and subcutaneous tissue disorders", "sourceVocabulary": "MedDRA (20.0)", "assessmentType": "SYSTEMATIC_ASSESSMENT", "stats": [{"groupId": "EG000", "numAffected": 0, "numAtRisk": 1729}, {"groupId": "EG001", "numAffected": 1, "numAtRisk": 894}]}, {"term": "Left atrial appendage occlusion", "organSystem": "Surgical and medical procedures", "sourceVocabulary": "MedDRA (20.0)", "assessmentType": "SYSTEMATIC_ASSESSMENT", "stats": [{"groupId": "EG000", "numAffected": 1, "numAtRisk": 1729}, {"groupId": "EG001", "numAffected": 0, "numAtRisk": 894}]}, {"term": "Aortic stenosis", "organSystem": "Vascular disorders", "sourceVocabulary": "MedDRA (20.0)", "assessmentType": "SYSTEMATIC_ASSESSMENT", "stats": [{"groupId": "EG000", "numAffected": 1, "numAtRisk": 1729}, {"groupId": "EG001", "numAffected": 0, "numAtRisk": 894}]}, {"term": "Arterial disorder", "organSystem": "Vascular disorders", "sourceVocabulary": "MedDRA (20.0)", "assessmentType": "SYSTEMATIC_ASSESSMENT", "stats": [{"groupId": "EG000", "numAffected": 1, "numAtRisk": 1729}, {"groupId": "EG001", "numAffected": 0, "numAtRisk": 894}]}, {"term": "Arterial stenosis", "organSystem": "Vascular disorders", "sourceVocabulary": "MedDRA (20.0)", "assessmentType": "SYSTEMATIC_ASSESSMENT", "stats": [{"groupId": "EG000", "numAffected": 1, "numAtRisk": 1729}, {"groupId": "EG001", "numAffected": 0, "numAtRisk": 894}]}, {"term": "Arteriosclerosis", "organSystem": "Vascular disorders", "sourceVocabulary": "MedDRA (20.0)", "assessmentType": "SYSTEMATIC_ASSESSMENT", "stats": [{"groupId": "EG000", "numAffected": 1, "numAtRisk": 1729}, {"groupId": "EG001", "numAffected": 0, "numAtRisk": 894}]}, {"term": "Arteriovenous fistula", "organSystem": "Vascular disorders", "sourceVocabulary": "MedDRA (20.0)", "assessmentType": "SYSTEMATIC_ASSESSMENT", "stats": [{"groupId": "EG000", "numAffected": 0, "numAtRisk": 1729}, {"groupId": "EG001", "numAffected": 1, "numAtRisk": 894}]}, {"term": "Circulatory collapse", "organSystem": "Vascular disorders", "sourceVocabulary": "MedDRA (20.0)", "assessmentType": "SYSTEMATIC_ASSESSMENT", "stats": [{"groupId": "EG000", "numAffected": 0, "numAtRisk": 1729}, {"groupId": "EG001", "numAffected": 1, "numAtRisk": 894}]}, {"term": "Femoral artery aneurysm", "organSystem": "Vascular disorders", "sourceVocabulary": "MedDRA (20.0)", "assessmentType": "SYSTEMATIC_ASSESSMENT", "stats": [{"groupId": "EG000", "numAffected": 0, "numAtRisk": 1729}, {"groupId": "EG001", "numAffected": 1, "numAtRisk": 894}]}, {"term": "Haematoma", "organSystem": "Vascular disorders", "sourceVocabulary": "MedDRA (20.0)", "assessmentType": "SYSTEMATIC_ASSESSMENT", "stats": [{"groupId": "EG000", "numAffected": 1, "numAtRisk": 1729}, {"groupId": "EG001", "numAffected": 0, "numAtRisk": 894}]}, {"term": "Hypertension", "organSystem": "Vascular disorders", "sourceVocabulary": "MedDRA (20.0)", "assessmentType": "SYSTEMATIC_ASSESSMENT", "stats": [{"groupId": "EG000", "numAffected": 2, "numAtRisk": 1729}, {"groupId": "EG001", "numAffected": 1, "numAtRisk": 894}]}, {"term": "Hypertensive crisis", "organSystem": "Vascular disorders", "sourceVocabulary": "MedDRA (20.0)", "assessmentType": "SYSTEMATIC_ASSESSMENT", "stats": [{"groupId": "EG000", "numAffected": 1, "numAtRisk": 1729}, {"groupId": "EG001", "numAffected": 0, "numAtRisk": 894}]}, {"term": "Hypotension", "organSystem": "Vascular disorders", "sourceVocabulary": "MedDRA (20.0)", "assessmentType": "SYSTEMATIC_ASSESSMENT", "stats": [{"groupId": "EG000", "numAffected": 7, "numAtRisk": 1729}, {"groupId": "EG001", "numAffected": 2, "numAtRisk": 894}]}, {"term": "Peripheral artery thrombosis", "organSystem": "Vascular disorders", "sourceVocabulary": "MedDRA (20.0)", "assessmentType": "SYSTEMATIC_ASSESSMENT", "stats": [{"groupId": "EG000", "numAffected": 2, "numAtRisk": 1729}, {"groupId": "EG001", "numAffected": 0, "numAtRisk": 894}]}, {"term": "Peripheral ischaemia", "organSystem": "Vascular disorders", "sourceVocabulary": "MedDRA (20.0)", "assessmentType": "SYSTEMATIC_ASSESSMENT", "stats": [{"groupId": "EG000", "numAffected": 0, "numAtRisk": 1729}, {"groupId": "EG001", "numAffected": 1, "numAtRisk": 894}]}, {"term": "Shock haemorrhagic", "organSystem": "Vascular disorders", "sourceVocabulary": "MedDRA (20.0)", "assessmentType": "SYSTEMATIC_ASSESSMENT", "stats": [{"groupId": "EG000", "numAffected": 0, "numAtRisk": 1729}, {"groupId": "EG001", "numAffected": 1, "numAtRisk": 894}]}], "otherEvents": [{"term": "Anaemia", "organSystem": "Blood and lymphatic system disorders", "sourceVocabulary": "MedDRA (20.0)", "assessmentType": "SYSTEMATIC_ASSESSMENT", "stats": [{"groupId": "EG000", "numAffected": 49, "numAtRisk": 1729}, {"groupId": "EG001", "numAffected": 9, "numAtRisk": 894}]}, {"term": "Atrial fibrillation", "organSystem": "Cardiac disorders", "sourceVocabulary": "MedDRA (20.0)", "assessmentType": "SYSTEMATIC_ASSESSMENT", "stats": [{"groupId": "EG000", "numAffected": 34, "numAtRisk": 1729}, {"groupId": "EG001", "numAffected": 23, "numAtRisk": 894}]}, {"term": "Cardiac failure", "organSystem": "Cardiac disorders", "sourceVocabulary": "MedDRA (20.0)", "assessmentType": "SYSTEMATIC_ASSESSMENT", "stats": [{"groupId": "EG000", "numAffected": 81, "numAtRisk": 1729}, {"groupId": "EG001", "numAffected": 56, "numAtRisk": 894}]}, {"term": "Mitral valve incompetence", "organSystem": "Cardiac disorders", "sourceVocabulary": "MedDRA (20.0)", "assessmentType": "SYSTEMATIC_ASSESSMENT", "stats": [{"groupId": "EG000", "numAffected": 28, "numAtRisk": 1729}, {"groupId": "EG001", "numAffected": 12, "numAtRisk": 894}]}, {"term": "Constipation", "organSystem": "Gastrointestinal disorders", "sourceVocabulary": "MedDRA (20.0)", "assessmentType": "SYSTEMATIC_ASSESSMENT", "stats": [{"groupId": "EG000", "numAffected": 74, "numAtRisk": 1729}, {"groupId": "EG001", "numAffected": 32, "numAtRisk": 894}]}, {"term": "Diarrhoea", "organSystem": "Gastrointestinal disorders", "sourceVocabulary": "MedDRA (20.0)", "assessmentType": "SYSTEMATIC_ASSESSMENT", "stats": [{"groupId": "EG000", "numAffected": 29, "numAtRisk": 1729}, {"groupId": "EG001", "numAffected": 21, "numAtRisk": 894}]}, {"term": "Nausea", "organSystem": "Gastrointestinal disorders", "sourceVocabulary": "MedDRA (20.0)", "assessmentType": "SYSTEMATIC_ASSESSMENT", "stats": [{"groupId": "EG000", "numAffected": 40, "numAtRisk": 1729}, {"groupId": "EG001", "numAffected": 17, "numAtRisk": 894}]}, {"term": "Pyrexia", "organSystem": "General disorders", "sourceVocabulary": "MedDRA (20.0)", "assessmentType": "SYSTEMATIC_ASSESSMENT", "stats": [{"groupId": "EG000", "numAffected": 24, "numAtRisk": 1729}, {"groupId": "EG001", "numAffected": 21, "numAtRisk": 894}]}, {"term": "Bronchitis", "organSystem": "Infections and infestations", "sourceVocabulary": "MedDRA (20.0)", "assessmentType": "SYSTEMATIC_ASSESSMENT", "stats": [{"groupId": "EG000", "numAffected": 24, "numAtRisk": 1729}, {"groupId": "EG001", "numAffected": 14, "numAtRisk": 894}]}, {"term": "Urinary tract infection", "organSystem": "Infections and infestations", "sourceVocabulary": "MedDRA (20.0)", "assessmentType": "SYSTEMATIC_ASSESSMENT", "stats": [{"groupId": "EG000", "numAffected": 56, "numAtRisk": 1729}, {"groupId": "EG001", "numAffected": 26, "numAtRisk": 894}]}, {"term": "Blood pressure systolic decreased", "organSystem": "Investigations", "sourceVocabulary": "MedDRA (20.0)", "assessmentType": "SYSTEMATIC_ASSESSMENT", "stats": [{"groupId": "EG000", "numAffected": 49, "numAtRisk": 1729}, {"groupId": "EG001", "numAffected": 2, "numAtRisk": 894}]}, {"term": "Hyperuricaemia", "organSystem": "Metabolism and nutrition disorders", "sourceVocabulary": "MedDRA (20.0)", "assessmentType": "SYSTEMATIC_ASSESSMENT", "stats": [{"groupId": "EG000", "numAffected": 47, "numAtRisk": 1729}, {"groupId": "EG001", "numAffected": 35, "numAtRisk": 894}]}, {"term": "Hypokalaemia", "organSystem": "Metabolism and nutrition disorders", "sourceVocabulary": "MedDRA (20.0)", "assessmentType": "SYSTEMATIC_ASSESSMENT", "stats": [{"groupId": "EG000", "numAffected": 119, "numAtRisk": 1729}, {"groupId": "EG001", "numAffected": 73, "numAtRisk": 894}]}, {"term": "Back pain", "organSystem": "Musculoskeletal and connective tissue disorders", "sourceVocabulary": "MedDRA (20.0)", "assessmentType": "SYSTEMATIC_ASSESSMENT", "stats": [{"groupId": "EG000", "numAffected": 28, "numAtRisk": 1729}, {"groupId": "EG001", "numAffected": 11, "numAtRisk": 894}]}, {"term": "Muscle spasms", "organSystem": "Musculoskeletal and connective tissue disorders", "sourceVocabulary": "MedDRA (20.0)", "assessmentType": "SYSTEMATIC_ASSESSMENT", "stats": [{"groupId": "EG000", "numAffected": 33, "numAtRisk": 1729}, {"groupId": "EG001", "numAffected": 8, "numAtRisk": 894}]}, {"term": "Headache", "organSystem": "Nervous system disorders", "sourceVocabulary": "MedDRA (20.0)", "assessmentType": "SYSTEMATIC_ASSESSMENT", "stats": [{"groupId": "EG000", "numAffected": 45, "numAtRisk": 1729}, {"groupId": "EG001", "numAffected": 18, "numAtRisk": 894}]}, {"term": "Anxiety", "organSystem": "Psychiatric disorders", "sourceVocabulary": "MedDRA (20.0)", "assessmentType": "SYSTEMATIC_ASSESSMENT", "stats": [{"groupId": "EG000", "numAffected": 27, "numAtRisk": 1729}, {"groupId": "EG001", "numAffected": 16, "numAtRisk": 894}]}, {"term": "Insomnia", "organSystem": "Psychiatric disorders", "sourceVocabulary": "MedDRA (20.0)", "assessmentType": "SYSTEMATIC_ASSESSMENT", "stats": [{"groupId": "EG000", "numAffected": 58, "numAtRisk": 1729}, {"groupId": "EG001", "numAffected": 21, "numAtRisk": 894}]}, {"term": "Renal failure", "organSystem": "Renal and urinary disorders", "sourceVocabulary": "MedDRA (20.0)", "assessmentType": "SYSTEMATIC_ASSESSMENT", "stats": [{"groupId": "EG000", "numAffected": 18, "numAtRisk": 1729}, {"groupId": "EG001", "numAffected": 18, "numAtRisk": 894}]}, {"term": "Renal impairment", "organSystem": "Renal and urinary disorders", "sourceVocabulary": "MedDRA (20.0)", "assessmentType": "SYSTEMATIC_ASSESSMENT", "stats": [{"groupId": "EG000", "numAffected": 30, "numAtRisk": 1729}, {"groupId": "EG001", "numAffected": 18, "numAtRisk": 894}]}, {"term": "Hypotension", "organSystem": "Vascular disorders", "sourceVocabulary": "MedDRA (20.0)", "assessmentType": "SYSTEMATIC_ASSESSMENT", "stats": [{"groupId": "EG000", "numAffected": 48, "numAtRisk": 1729}, {"groupId": "EG001", "numAffected": 18, "numAtRisk": 894}]}]}, "moreInfoModule": {"certainAgreement": {"piSponsorEmployee": false, "restrictionType": "OTHER", "restrictiveAgreement": true, "otherDetails": "The terms and conditions of Novartis' agreements with its investigators may vary. However, Novartis does not prohibit any investigator from publishing. Any publications from a single-site are postponed until the publication of the pooled data (i.e., data from all sites) in the clinical trial or disclosure of trial results in their entirety."}, "pointOfContact": {"title": "Study Director", "organization": "Novartis Pharmaceuticals", "email": "novartis.email@novartis.com", "phone": "862-778-8300"}}}, "documentSection": {"largeDocumentModule": {"largeDocs": [{"typeAbbrev": "Prot", "hasProtocol": true, "hasSap": false, "hasIcf": false, "label": "Study Protocol", "date": "2016-10-19", "uploadDate": "2018-04-24T09:21", "filename": "Prot_000.pdf", "size": 884472}, {"typeAbbrev": "SAP", "hasProtocol": false, "hasSap": true, "hasIcf": false, "label": "Statistical Analysis Plan", "date": "2017-02-27", "uploadDate": "2018-04-24T09:22", "filename": "SAP_001.pdf", "size": 928873}]}}, "derivedSection": {"miscInfoModule": {"versionHolder": "2024-06-24", "removedCountries": ["Czech Republic", "Denmark", "Sweden"]}, "conditionBrowseModule": {"meshes": [{"id": "D000006333", "term": "Heart Failure"}], "ancestors": [{"id": "D000006331", "term": "Heart Diseases"}, {"id": "D000002318", "term": "Cardiovascular Diseases"}], "browseLeaves": [{"id": "M9421", "name": "Heart Failure", "asFound": "Heart Failure", "relevance": "HIGH"}, {"id": "M26718", "name": "Renal Insufficiency", "relevance": "LOW"}, {"id": "M9419", "name": "Heart Diseases", "relevance": "LOW"}, {"id": "T170", "name": "Acute Graft Versus Host Disease", "relevance": "LOW"}], "browseBranches": [{"abbrev": "BC14", "name": "Heart and Blood Diseases"}, {"abbrev": "All", "name": "All Conditions"}, {"abbrev": "BXS", "name": "Urinary Tract, Sexual Organs, and Pregnancy Conditions"}, {"abbrev": "Rare", "name": "Rare Diseases"}]}, "interventionBrowseModule": {"browseLeaves": [{"id": "M7411", "name": "Diuretics", "relevance": "LOW"}, {"id": "M28916", "name": "Angiotensin Receptor Antagonists", "relevance": "LOW"}, {"id": "M3671", "name": "Adrenergic beta-Antagonists", "relevance": "LOW"}, {"id": "M3797", "name": "Mineralocorticoid Receptor Antagonists", "relevance": "LOW"}], "browseBranches": [{"abbrev": "All", "name": "All Drugs and Chemicals"}]}}, "hasResults": true}