{"protocolSection": {"identificationModule": {"nctId": "NCT00441441", "orgStudyIdInfo": {"id": "SFA106484"}, "organization": {"fullName": "GlaxoSmithKline", "class": "INDUSTRY"}, "briefTitle": "A 12-Week Study To Assess The Safety Of Fluticasone Propionate/Salmeterol 100/50 Hydrofluoroalkane (HFA) Versus Fluticasone Propionate 100 HFA In Children With Asthma", "officialTitle": "A Randomized, Double-blind, Parallel Group Study Evaluating the Safety of Fluticasone Propionate/Salmeterol 100/50mcg HFA (2 Inhalations of 50/25mcg) Twice Daily Compared With Fluticasone Propionate 100mcg HFA (2 Inhalations of 50mcg) Twice Daily in Subjects 4-11 Years of Age With Persistent Asthma"}, "statusModule": {"statusVerifiedDate": "2016-11", "overallStatus": "COMPLETED", "expandedAccessInfo": {"hasExpandedAccess": false}, "startDateStruct": {"date": "2007-02"}, "primaryCompletionDateStruct": {"date": "2008-01", "type": "ACTUAL"}, "completionDateStruct": {"date": "2008-01", "type": "ACTUAL"}, "studyFirstSubmitDate": "2007-02-28", "studyFirstSubmitQcDate": "2007-02-28", "studyFirstPostDateStruct": {"date": "2007-03-01", "type": "ESTIMATED"}, "resultsFirstSubmitDate": "2009-01-23", "resultsFirstSubmitQcDate": "2010-08-30", "resultsFirstPostDateStruct": {"date": "2010-09-23", "type": "ESTIMATED"}, "lastUpdateSubmitDate": "2016-11-02", "lastUpdatePostDateStruct": {"date": "2016-12-16", "type": "ESTIMATED"}}, "sponsorCollaboratorsModule": {"responsibleParty": {"type": "SPONSOR"}, "leadSponsor": {"name": "GlaxoSmithKline", "class": "INDUSTRY"}}, "oversightModule": {"oversightHasDmc": false}, "descriptionModule": {"briefSummary": "This study is to assess the safety of an investigational drug in children 4 to 11 years of age who have asthma. The subjects will attend 7 clinic visits, of which up to 3 will be in the morning, and have lung function tests performed."}, "conditionsModule": {"conditions": ["Asthma"], "keywords": ["asthma", "fluticasone propionate", "children", "fluticasone propionate/salmeterol"]}, "designModule": {"studyType": "INTERVENTIONAL", "phases": ["PHASE3"], "designInfo": {"allocation": "RANDOMIZED", "interventionModel": "PARALLEL", "primaryPurpose": "TREATMENT", "maskingInfo": {"masking": "QUADRUPLE", "whoMasked": ["PARTICIPANT", "CARE_PROVIDER", "INVESTIGATOR", "OUTCOMES_ASSESSOR"]}}, "enrollmentInfo": {"count": 351, "type": "ACTUAL"}}, "armsInterventionsModule": {"armGroups": [{"label": "Fluticasone propionate/salmeterol 100/50 HFA", "type": "EXPERIMENTAL", "description": "Fluticasone propionate/salmeterol 100/50 HFA (2 inhalations of 50/25mcg), twice daily (strengths are ex-valve) and a placebo HFA inhaler matching the fluticasone propionate 100mcg HFA inhaler (2 inhalations) twice daily", "interventionNames": ["Drug: fluticasone propionate/salmeterol"]}, {"label": "Fluticasone propionate 100mcg HFA", "type": "EXPERIMENTAL", "description": "Fluticasone propionate 100mcg HFA (2 inhalations of 50mcg), twice daily (strengths are ex-valve) and a placebo HFA inhaler matching the fluticasone propionate/salmeterol 100/50 HFA inhaler (2 inhalations ) twice daily", "interventionNames": ["Drug: fluticasone propionate"]}], "interventions": [{"type": "DRUG", "name": "fluticasone propionate", "description": "fluticasone propionate 100mcg HFA", "armGroupLabels": ["Fluticasone propionate 100mcg HFA"]}, {"type": "DRUG", "name": "fluticasone propionate/salmeterol", "description": "fluticasone propionate/salmeterol 100/50mcg HFA", "armGroupLabels": ["Fluticasone propionate/salmeterol 100/50 HFA"]}]}, "outcomesModule": {"primaryOutcomes": [{"measure": "Possible Drug-Related Adverse Events", "description": "Adverse Events reported by the Investigator and judged by the Investigator to be possibly related to study drug, categorized by the Medical Dictionary for Regulatory Activities (MeDRA), were reported. ECG, electrocardiogram. QTc (corrected QT interval) and QT represent intervals on an ECG.", "timeFrame": "Treatment period (weeks 1-12) and Post Treatment (\u22651 day after last time study drug)"}, {"measure": "Investigator Evaluations of Electrocardiogram (ECG) Results", "description": "ECGs were transmitted to an independent cardiologist who was responsible for providing interpretation of the ECG as either normal or abnormal (based on personal assessment). The investigator was then responsible for determining the clinical significance of the abnormal ECG in the context of the participants' history and clinical presentation. An abnormal, clinically significant ECG included, but was not limited to: prolonged QT interval, ischemic changes, ventricular hypertrophy, intraventricular conduction abnormalities, and clinically significant arrhythmias. PD, premature discontinuation.", "timeFrame": "Baseline and Week 12"}, {"measure": "Clinically Significant Unfavorable ECGs at Week 12", "description": "Post-randomization ECGs categorized by the primary investigator as no change, significant change (favorable), significant change (unfavorable) from the ECG performed at Visit 1 (Baseline) are presented. Significant change (favorable) includes any ECG that improved from baseline, whereas significant change (unfavorable) includes any ECG that worsened from baseline. Clinical significance is determined by the primary investigator.", "timeFrame": "Baseline, Week 12"}, {"measure": "ECG Measures - Heart Rate", "description": "The range of heart rates for this study was between 49-144 beats per minute", "timeFrame": "Baseline and Week 12"}, {"measure": "ECG Measures - QT Interval", "description": "Fridericia's formula QTc interval=QT interval/cubed root of the R-R interval. The Bazett's formula QTc=QT/squared root of the R-R interval.", "timeFrame": "Baseline and Week 12"}, {"measure": "Cardiovascular Adverse Events Reported During Treatment Period", "description": "Cardiovascular Adverse Events, as categorized by the Medical Dictionary for Regulatory Activities (MeDRA), reported during Treatment Period. The Adverse Events were identified in any ECG interpretation by a central reader (Cardiologist) for any ECG obtained after the first treatment dose and were then reported by the Primary Investigator as an Adverse Event. Please see the category titles for a list of candidate cardiovascular adverse events.", "timeFrame": "12-Week Treatment Period"}, {"measure": "Cardiovascular Adverse Events Reported During the Post-Treatment Period", "description": "Cardiovascular Adverse Events, as categorized by the Medical Dictionary for Regulatory Activities (MeDRA), reported during Post-treatment period, defined as 1 day after last dose of study drug. The Adverse Events were identified in any ECG interpretation by a central reader (Cardiologist) for any ECG obtained after the first treatment dose and were then reported by the Primary Investigator as an Adverse Event.", "timeFrame": "5 Days after Week 12"}, {"measure": "Asthma Exacerbations: Worsening of Asthma Requiring Emergency Intervention, Hospitalization, or Treatment With Asthma Medications Prohibited by the Protocols", "description": "The Primary Investigator determined the severity of the exacerbation based on the participant's clinical presentation and the investigator's understanding of the disease, the participant, and his or her clinical experiences. The severity of the exacerbation was not defined in the protocol. Mild: Usually treated at home. Prompt relief with inhaled short-acting beta2 agonist. Possible short course of oral systemic corticosteroids. Moderate: Usually requires office or emergency department visit. Relief with frequent inhaled short-acting beta2 agonist. Oral systemic corticosteroids; some symptoms last for 1-2 days after treatment begins. Severe: Usually requires emergency department visit and likely hospitalization. Partial relief with frequent inhaled short-acting beta2 agonist. Oral systemic corticosteroids; some symptoms last for more than 3 days after treatment begins. Adjunctive therapies are helpful.", "timeFrame": "Treatment period (weeks 1-12)"}, {"measure": "Number of Participants With the Indicated Levels of 24-hour Urinary Cortisol Excretion", "description": "\"Abnormal high cortisol excretion\" and \"Abnormal low cortisol excretion\" are defined as above the upper limit of normal and below the lower limit of normal, respectively. The normal range for cortisol levels vary by age and gender. An abnormality is defined as a value of 24-hour urinary cortisol excretion that is outside the normal range. The normal range for 24-hour urinary cortisol excretion was provided by the central laboratory.", "timeFrame": "Baseline and week 12"}, {"measure": "Geometric Mean Values of 24-hour Urinary Cortisol Excretion at Baseline and Week 12", "description": "Normal range for Cortisol levels vary by age and gender. Geometric mean is the product of the values taken to the Nth root, where N is the number of values in the set of values.", "timeFrame": "Baseline and Week 12"}, {"measure": "Geometric Mean Ratio for Week12:Baseline for 24-hour Urinary Cortisol Excretion", "description": "Normal range for Cortisol levels vary by age and gender. The data provided are a direct calculation of the Week 12 geometric mean divided by the baseline value, nanomoles per 24 hours (nmol/24 hrs).", "timeFrame": "Baseline and Week 12"}, {"measure": "Number of Participants With the Indicated Levels of 24 Hour Urinary Cortisol Excretion by Spacer Use", "description": "AeroChamber Plus spacers were provided for participants who demonstrated the inability to coordinate the use of an Meter Dose Inhaler at Visit 1. AeroChamber Plus spacer delivers 22% more medication than the original AeroChamber and is available in three mask sizes and without a mask. \"Abnormal high cortisol excretion\" and \"Abnormal low cortisol excretion\" are defined as above the upper limit of normal and below the lower limit of normal, respectively. An abnormality is defined as a value of 24-hour urinary cortisol excretion that is outside the normal range. The normal range for 24-hour urinary cortisol excretion was provided by the central laboratory.", "timeFrame": "Baseline and Week 12"}, {"measure": "Geometric Mean Values of 24 Hour Urinary Cortisol Excretion by Spacer Use at Baseline and Week 12", "description": "AeroChamber Plus spacers were provided for participants who demonstrated the inability to coordinate the use of an Meter Dose Inhaler at Visit 1. AeroChamber Plus spacer delivers 22% more medication than the original AeroChamber and is available in three mask sizes and without a mask. Geometric mean is the product of the values taken to the Nth root, where N is the number of values in the set of values.", "timeFrame": "Baseline and Week 12"}, {"measure": "Geometric Mean Ratio for Week12: Baseline for 24 Hour Urinary Cortisol Excretion by Spacer Use", "description": "AeroChamber Plus spacers were provided for participants who demonstrated the inability to coordinate the use of an Meter Dose Inhaler at Visit 1. AeroChamber Plus spacer delivers 22% more medication than the original AeroChamber and is available in three mask sizes and without a mask. The data provided are a direct calculation of the Week 12 geometric mean divided by the baseline value, nanomoles per 24 hours (nmol/24 hrs).", "timeFrame": "Baseline and Week 12"}], "secondaryOutcomes": [{"measure": "Clinic Morning (AM) Forced Expiratory Volume in Participants 6-11 Years", "description": "FEV1 (Forced Expiratory Volume in 1 second) is the volume of air that can be forced out in one second, after taking a deep breath. FEV1 is measured using a spirometer and obtaining \"best effort\" from 3 to 8 measurements. Week 12 is the measure taken at Week 12.", "timeFrame": "Baseline and week 12"}, {"measure": "AM Peak Expiratory Flow", "description": "The peak expiratory flow (PEF) rate measures how fast a person can exhale air. It is used to compare to normal flow rates to predict obstruction and disease. The average PEF for a child or adolescent whose height is 43 inches is 147 Liters/minute (L/min), whose height is 66 inches is 454 L/min. Triplicate measurements taken for the best effort recorded.", "timeFrame": "Baseline and 12-Week Treatment Period"}, {"measure": "Asthma Symptom Scores", "description": "Each morning prior dosing or PEF, self-scored based on past 24 hours: 0=No symptoms, 1=Symptoms for one short period, 2=Symptoms for two or more short periods, 3=Frequent Symptoms which did not affect activities of daily living (ADL), 4=Frequent.", "timeFrame": "Baseline and 12-Week Treatment Period"}, {"measure": "Percentage of Symptom Free Days", "description": "Percentage of number of days without asthma symptoms based on Asthma Symptom Scores. Each morning prior to dosing or PEF, asthma symptoms were self-scored based on the past 24 hours: 0=no symptoms, 1=symptoms for one short period, 2=symptoms for two or more short periods, 3=frequent symptoms that did not affect activities of daily living (ADL), 4=frequent .", "timeFrame": "Baseline and 12-Week Treatment Period"}, {"measure": "Albuterol Use", "description": "Albuterol inhalation aerosol was used as a rescue or prophylactic and recorded daily by subject or caregiver. The number of puffs of albuterol over the previous 24 hour period prior to dosing was recorded.", "timeFrame": "Baseline and 12-Week Treatment Period"}, {"measure": "Percent of Albuterol-free Days", "description": "Percentage of days when Albuterol use was unnecessary based on daily record and symptom free days.", "timeFrame": "Baseline and 12-Week Treatment Period"}]}, "eligibilityModule": {"eligibilityCriteria": "Inclusion criteria:\n\n* Must have asthma.\n* Must be currently taking an inhaled corticosteroid.\n* Must be able to attend 7 clinic visits, of which up to 3 will be in the morning, and have lung function tests that are at least 60% of normal (AM FEV1 or PEF).\n* Have a historical or current FEV1 or PEF reversibility of \\>=12%.\n\nExclusion criteria:\n\n* Has ever had life-threatening asthma (for example respiratory arrest, mechanical ventilation).\n* Has a current ear or respiratory tract infection.\n* Has ever had any other major illnesses (such as cystic fibrosis, heart problems, tuberculosis).", "healthyVolunteers": false, "sex": "ALL", "minimumAge": "4 Years", "maximumAge": "11 Years", "stdAges": ["CHILD"]}, "contactsLocationsModule": {"overallOfficials": [{"name": "GSK Clinical Trials", "affiliation": "GlaxoSmithKline", "role": "STUDY_DIRECTOR"}], "locations": [{"facility": "GSK Investigational Site", "city": "Huntington Beach", "state": "California", "zip": "92647", "country": "United States", "geoPoint": {"lat": 33.6603, "lon": -117.99923}}, {"facility": "GSK Investigational Site", "city": "Long Beach", "state": "California", "zip": "90806", "country": "United States", "geoPoint": {"lat": 33.76696, "lon": -118.18923}}, {"facility": "GSK Investigational Site", "city": "Long Beach", "state": "California", "zip": "90808", "country": "United States", "geoPoint": {"lat": 33.76696, "lon": -118.18923}}, {"facility": "GSK Investigational Site", "city": "Riverside", "state": "California", "zip": "92506", "country": "United States", "geoPoint": {"lat": 33.95335, "lon": -117.39616}}, {"facility": "GSK Investigational Site", "city": "Denver", "state": "Colorado", "zip": "80206", "country": "United States", "geoPoint": {"lat": 39.73915, "lon": -104.9847}}, {"facility": "GSK Investigational Site", "city": "Lakewood", "state": "Colorado", "zip": "80401", "country": "United States", "geoPoint": {"lat": 39.70471, "lon": -105.08137}}, {"facility": "GSK Investigational Site", "city": "Jacksonville", "state": "Florida", "zip": "32207", "country": "United States", "geoPoint": {"lat": 30.33218, "lon": -81.65565}}, {"facility": "GSK Investigational Site", "city": "Gainesville", "state": "Georgia", "zip": "30501", "country": "United States", "geoPoint": {"lat": 34.29788, "lon": -83.82407}}, {"facility": "GSK Investigational Site", "city": "Ypsilanti", "state": "Michigan", "zip": "48197", "country": "United States", "geoPoint": {"lat": 42.24115, "lon": -83.61299}}, {"facility": "GSK Investigational Site", "city": "Cortland", "state": "New York", "zip": "14850", "country": "United States", "geoPoint": {"lat": 42.60118, "lon": -76.18048}}, {"facility": "GSK Investigational Site", "city": "Raleigh", "state": "North Carolina", "zip": "27607", "country": "United States", "geoPoint": {"lat": 35.7721, "lon": -78.63861}}, {"facility": "GSK Investigational Site", "city": "Canton", "state": "Ohio", "zip": "44718", "country": "United States", "geoPoint": {"lat": 40.79895, "lon": -81.37845}}, {"facility": "GSK Investigational Site", "city": "Oklahoma City", "state": "Oklahoma", "zip": "73120", "country": "United States", "geoPoint": {"lat": 35.46756, "lon": -97.51643}}, {"facility": "GSK Investigational Site", "city": "Lake Oswego", "state": "Oregon", "zip": "97035", "country": "United States", "geoPoint": {"lat": 45.42067, "lon": -122.67065}}, {"facility": "GSK Investigational Site", "city": "Medford", "state": "Oregon", "zip": "97504", "country": "United States", "geoPoint": {"lat": 42.32652, "lon": -122.87559}}, {"facility": "GSK Investigational Site", "city": "Portland", "state": "Oregon", "zip": "97213", "country": "United States", "geoPoint": {"lat": 45.52345, "lon": -122.67621}}, {"facility": "GSK Investigational Site", "city": "Pittsburgh", "state": "Pennsylvania", "zip": "15241", "country": "United States", "geoPoint": {"lat": 40.44062, "lon": -79.99589}}, {"facility": "GSK Investigational Site", "city": "Charleston", "state": "South Carolina", "zip": "29407", "country": "United States", "geoPoint": {"lat": 32.77657, "lon": -79.93092}}, {"facility": "GSK Investigational Site", "city": "Germantown", "state": "Tennessee", "zip": "38138", "country": "United States", "geoPoint": {"lat": 35.08676, "lon": -89.81009}}, {"facility": "GSK Investigational Site", "city": "South Burlington", "state": "Vermont", "zip": "05403", "country": "United States", "geoPoint": {"lat": 44.46699, "lon": -73.17096}}, {"facility": "GSK Investigational Site", "city": "Clayton", "state": "Victoria", "zip": "3168", "country": "Australia", "geoPoint": {"lat": -37.91667, "lon": 145.11667}}, {"facility": "GSK Investigational Site", "city": "Parkville", "state": "Victoria", "zip": "3052", "country": "Australia", "geoPoint": {"lat": -37.78333, "lon": 144.95}}, {"facility": "GSK Investigational Site", "city": "Subiaco", "state": "Western Australia", "zip": "6001", "country": "Australia", "geoPoint": {"lat": -31.9485, "lon": 115.8268}}, {"facility": "GSK Investigational Site", "city": "St. John's", "state": "Newfoundland and Labrador", "zip": "A1E 2C2", "country": "Canada", "geoPoint": {"lat": 47.56494, "lon": -52.70931}}, {"facility": "GSK Investigational Site", "city": "Brampton", "state": "Ontario", "zip": "L6T 3T1", "country": "Canada", "geoPoint": {"lat": 43.68341, "lon": -79.76633}}, {"facility": "GSK Investigational Site", "city": "Mississauga", "state": "Ontario", "zip": "L5A 3V4", "country": "Canada", "geoPoint": {"lat": 43.5789, "lon": -79.6583}}, {"facility": "GSK Investigational Site", "city": "Sarnia", "state": "Ontario", "zip": "N7T 4X3", "country": "Canada", "geoPoint": {"lat": 42.97866, "lon": -82.40407}}, {"facility": "GSK Investigational Site", "city": "Santiago", "state": "Regi\u00f3n Metro De Santiago", "country": "Chile", "geoPoint": {"lat": -33.45694, "lon": -70.64827}}, {"facility": "GSK Investigational Site", "city": "Vi\u00f1a del Mar", "state": "Valpara\u00edso", "country": "Chile", "geoPoint": {"lat": -33.02457, "lon": -71.55183}}, {"facility": "GSK Investigational Site", "city": "Santiago", "zip": "8360156", "country": "Chile", "geoPoint": {"lat": -33.45694, "lon": -70.64827}}, {"facility": "GSK Investigational Site", "city": "San Jose", "country": "Costa Rica", "geoPoint": {"lat": 9.93333, "lon": -84.08333}}, {"facility": "GSK Investigational Site", "city": "Bochum", "state": "Nordrhein-Westfalen", "zip": "44791", "country": "Germany", "geoPoint": {"lat": 51.48165, "lon": 7.21648}}, {"facility": "GSK Investigational Site", "city": "Guetersloh", "state": "Nordrhein-Westfalen", "zip": "33332", "country": "Germany"}, {"facility": "GSK Investigational Site", "city": "Kleve-Materborn", "state": "Nordrhein-Westfalen", "zip": "47533", "country": "Germany"}, {"facility": "GSK Investigational Site", "city": "Wesel", "state": "Nordrhein-Westfalen", "zip": "46483", "country": "Germany", "geoPoint": {"lat": 51.6669, "lon": 6.62037}}, {"facility": "GSK Investigational Site", "city": "Mainz", "state": "Rheinland-Pfalz", "zip": "55131", "country": "Germany", "geoPoint": {"lat": 49.98419, "lon": 8.2791}}, {"facility": "GSK Investigational Site", "city": "Geesthacht", "state": "Schleswig-Holstein", "zip": "21502", "country": "Germany", "geoPoint": {"lat": 53.43575, "lon": 10.3779}}, {"facility": "GSK Investigational Site", "city": "Ogre", "zip": "LV5001", "country": "Latvia", "geoPoint": {"lat": 56.8162, "lon": 24.61401}}, {"facility": "GSK Investigational Site", "city": "Riga", "zip": "LV1050", "country": "Latvia", "geoPoint": {"lat": 56.946, "lon": 24.10589}}, {"facility": "GSK Investigational Site", "city": "Kaunas", "zip": "LT-50009", "country": "Lithuania", "geoPoint": {"lat": 54.90272, "lon": 23.90961}}, {"facility": "GSK Investigational Site", "city": "Utena", "zip": "LT-28151", "country": "Lithuania", "geoPoint": {"lat": 55.49765, "lon": 25.59918}}, {"facility": "GSK Investigational Site", "city": "Vilnius", "zip": "LT-01117", "country": "Lithuania", "geoPoint": {"lat": 54.68916, "lon": 25.2798}}, {"facility": "GSK Investigational Site", "city": "Monterrey N.L", "state": "Nuevo Le\u00f3n", "zip": "64988", "country": "Mexico"}, {"facility": "GSK Investigational Site", "city": "Chihuahua", "zip": "31020", "country": "Mexico", "geoPoint": {"lat": 28.63528, "lon": -106.08889}}, {"facility": "GSK Investigational Site", "city": "Mexico city", "zip": "04530", "country": "Mexico", "geoPoint": {"lat": 19.42847, "lon": -99.12766}}, {"facility": "GSK Investigational Site", "city": "Mexico", "zip": "6720", "country": "Mexico", "geoPoint": {"lat": 19.42847, "lon": -99.12766}}, {"facility": "GSK Investigational Site", "city": "Lima", "zip": "Lima 27", "country": "Peru", "geoPoint": {"lat": -12.04318, "lon": -77.02824}}, {"facility": "GSK Investigational Site", "city": "Lodz", "zip": "90-329", "country": "Poland", "geoPoint": {"lat": 51.75, "lon": 19.46667}}, {"facility": "GSK Investigational Site", "city": "Rabka", "zip": "34-700", "country": "Poland"}, {"facility": "GSK Investigational Site", "city": "Moscow", "zip": "119435", "country": "Russian Federation", "geoPoint": {"lat": 55.75222, "lon": 37.61556}}, {"facility": "GSK Investigational Site", "city": "Novosibirsk", "zip": "630099", "country": "Russian Federation", "geoPoint": {"lat": 55.0415, "lon": 82.9346}}, {"facility": "GSK Investigational Site", "city": "St'Petersburg", "zip": "191144", "country": "Russian Federation", "geoPoint": {"lat": 59.93863, "lon": 30.31413}}, {"facility": "GSK Investigational Site", "city": "Tomsk", "zip": "634 050", "country": "Russian Federation", "geoPoint": {"lat": 56.49771, "lon": 84.97437}}, {"facility": "GSK Investigational Site", "city": "Murcia", "zip": "30120", "country": "Spain", "geoPoint": {"lat": 37.98704, "lon": -1.13004}}, {"facility": "GSK Investigational Site", "city": "San Javier (Murcia)", "zip": "30720", "country": "Spain"}]}, "referencesModule": {"references": [{"type": "BACKGROUND", "citation": "Li JS, Qaqundah PY, Weinstein SF, LaForce CF, Ellsworth AV, Ortega HG, Ferro TJ. Fluticasone propionate/salmeterol combination in children with asthma: key cardiac and overall safety results. Clin Res Reg Affairs 2010;27(3):87-95."}], "seeAlsoLinks": [{"label": "Researchers can use this site to request access to anonymised patient level data and/or supporting documents from clinical studies to conduct further research.", "url": "https://www.clinicalstudydatarequest.com"}], "availIpds": [{"id": "SFA106484", "type": "Annotated Case Report Form", "url": "https://www.clinicalstudydatarequest.com", "comment": "For additional information about this study please refer to the GSK Clinical Study Register"}, {"id": "SFA106484", "type": "Informed Consent Form", "url": "https://www.clinicalstudydatarequest.com", "comment": "For additional information about this study please refer to the GSK Clinical Study Register"}, {"id": "SFA106484", "type": "Individual Participant Data Set", "url": "https://www.clinicalstudydatarequest.com", "comment": "For additional information about this study please refer to the GSK Clinical Study Register"}, {"id": "SFA106484", "type": "Clinical Study Report", "url": "https://www.clinicalstudydatarequest.com", "comment": "For additional information about this study please refer to the GSK Clinical Study Register"}, {"id": "SFA106484", "type": "Study Protocol", "url": "https://www.clinicalstudydatarequest.com", "comment": "For additional information about this study please refer to the GSK Clinical Study Register"}, {"id": "SFA106484", "type": "Statistical Analysis Plan", "url": "https://www.clinicalstudydatarequest.com", "comment": "For additional information about this study please refer to the GSK Clinical Study Register"}, {"id": "SFA106484", "type": "Dataset Specification", "url": "https://www.clinicalstudydatarequest.com", "comment": "For additional information about this study please refer to the GSK Clinical Study Register"}]}, "ipdSharingStatementModule": {"ipdSharing": "YES", "description": "Patient-level data for this study will be made available through www.clinicalstudydatarequest.com following the timelines and process described on this site."}}, "resultsSection": {"participantFlowModule": {"recruitmentDetails": "A total of 351 participants were enrolled in the study. However, only 350 of these 351 participants comprised the Intent-to-Treat Population, defined as all participants who were randomly assigned to treatment and received \\>=1 dose of Double-Blind study treatment.", "groups": [{"id": "FG000", "title": "Fluticasone Propionate/Salmeterol Hydrofluoroalkane (HFA)", "description": "Participants who were randomly assigned to Fluticasone Propionate/salmeterol 100/50 micrograms (\u00b5g) HFA (2 inhalations of 50/25 \u00b5g), twice daily for 12 weeks."}, {"id": "FG001", "title": "Fluticasone Propionate HFA", "description": "Participants who were randomly assigned to Fluticasone Propionate 100 \u00b5g HFA (2 inhalations of 50 \u00b5g), twice daily for 12 weeks."}], "periods": [{"title": "Overall Study", "milestones": [{"type": "STARTED", "achievements": [{"groupId": "FG000", "numSubjects": "173"}, {"groupId": "FG001", "numSubjects": "177"}]}, {"type": "COMPLETED", "achievements": [{"groupId": "FG000", "numSubjects": "162"}, {"groupId": "FG001", "numSubjects": "163"}]}, {"type": "NOT COMPLETED", "achievements": [{"groupId": "FG000", "numSubjects": "11"}, {"groupId": "FG001", "numSubjects": "14"}]}], "dropWithdraws": [{"type": "Adverse Event", "reasons": [{"groupId": "FG000", "numSubjects": "2"}, {"groupId": "FG001", "numSubjects": "1"}]}, {"type": "Protocol Violation", "reasons": [{"groupId": "FG000", "numSubjects": "4"}, {"groupId": "FG001", "numSubjects": "6"}]}, {"type": "Exacerbation of asthma", "reasons": [{"groupId": "FG000", "numSubjects": "1"}, {"groupId": "FG001", "numSubjects": "2"}]}, {"type": "Withdrawal by Subject", "reasons": [{"groupId": "FG000", "numSubjects": "1"}, {"groupId": "FG001", "numSubjects": "2"}]}, {"type": "Other", "reasons": [{"groupId": "FG000", "numSubjects": "3"}, {"groupId": "FG001", "numSubjects": "3"}]}]}]}, "baselineCharacteristicsModule": {"groups": [{"id": "BG000", "title": "Fluticasone Propionate/Salmeterol HFA", "description": "Participants who were randomly assigned to Fluticasone Propionate/salmeterol 100/50 micrograms (\u00b5g) HFA (2 inhalations of 50/25 \u00b5g), twice daily for 12 weeks."}, {"id": "BG001", "title": "Fluticasone Propionate HFA", "description": "Participants who were randomly assigned to Fluticasone Propionate 100 \u00b5g HFA (2 inhalations of 50 \u00b5g), twice daily for 12 weeks."}, {"id": "BG002", "title": "Total", "description": "Total of all reporting groups"}], "denoms": [{"units": "Participants", "counts": [{"groupId": "BG000", "value": "173"}, {"groupId": "BG001", "value": "177"}, {"groupId": "BG002", "value": "350"}]}], "measures": [{"title": "Age, Customized", "paramType": "NUMBER", "unitOfMeasure": "participants", "classes": [{"title": "4-5 years", "categories": [{"measurements": [{"groupId": "BG000", "value": "36"}, {"groupId": "BG001", "value": "41"}, {"groupId": "BG002", "value": "77"}]}]}, {"title": "6-11 years", "categories": [{"measurements": [{"groupId": "BG000", "value": "137"}, {"groupId": "BG001", "value": "136"}, {"groupId": "BG002", "value": "273"}]}]}]}, {"title": "Gender", "paramType": "COUNT_OF_PARTICIPANTS", "unitOfMeasure": "Participants", "classes": [{"categories": [{"title": "Female", "measurements": [{"groupId": "BG000", "value": "66"}, {"groupId": "BG001", "value": "71"}, {"groupId": "BG002", "value": "137"}]}, {"title": "Male", "measurements": [{"groupId": "BG000", "value": "107"}, {"groupId": "BG001", "value": "106"}, {"groupId": "BG002", "value": "213"}]}]}]}, {"title": "Ethnicity (NIH/OMB)", "paramType": "COUNT_OF_PARTICIPANTS", "unitOfMeasure": "Participants", "classes": [{"categories": [{"title": "Hispanic or Latino", "measurements": [{"groupId": "BG000", "value": "70"}, {"groupId": "BG001", "value": "73"}, {"groupId": "BG002", "value": "143"}]}, {"title": "Not Hispanic or Latino", "measurements": [{"groupId": "BG000", "value": "103"}, {"groupId": "BG001", "value": "104"}, {"groupId": "BG002", "value": "207"}]}, {"title": "Unknown or Not Reported", "measurements": [{"groupId": "BG000", "value": "0"}, {"groupId": "BG001", "value": "0"}, {"groupId": "BG002", "value": "0"}]}]}]}, {"title": "Race/Ethnicity, Customized", "paramType": "NUMBER", "unitOfMeasure": "participants", "classes": [{"title": "White/Caucasian/European Heritage", "categories": [{"measurements": [{"groupId": "BG000", "value": "114"}, {"groupId": "BG001", "value": "113"}, {"groupId": "BG002", "value": "227"}]}]}, {"title": "American Indian or Alaska Native", "categories": [{"measurements": [{"groupId": "BG000", "value": "24"}, {"groupId": "BG001", "value": "27"}, {"groupId": "BG002", "value": "51"}]}]}, {"title": "Central/South Asian Heritage", "categories": [{"measurements": [{"groupId": "BG000", "value": "8"}, {"groupId": "BG001", "value": "8"}, {"groupId": "BG002", "value": "16"}]}]}, {"title": "African American/African Heritage", "categories": [{"measurements": [{"groupId": "BG000", "value": "7"}, {"groupId": "BG001", "value": "8"}, {"groupId": "BG002", "value": "15"}]}]}, {"title": "Japanese Heritage", "categories": [{"measurements": [{"groupId": "BG000", "value": "3"}, {"groupId": "BG001", "value": "0"}, {"groupId": "BG002", "value": "3"}]}]}, {"title": "Arabic/North African Heritage", "categories": [{"measurements": [{"groupId": "BG000", "value": "2"}, {"groupId": "BG001", "value": "2"}, {"groupId": "BG002", "value": "4"}]}]}, {"title": "South East Asian Heritage", "categories": [{"measurements": [{"groupId": "BG000", "value": "2"}, {"groupId": "BG001", "value": "0"}, {"groupId": "BG002", "value": "2"}]}]}, {"title": "Mixed Race", "categories": [{"measurements": [{"groupId": "BG000", "value": "13"}, {"groupId": "BG001", "value": "19"}, {"groupId": "BG002", "value": "32"}]}]}]}]}, "outcomeMeasuresModule": {"outcomeMeasures": [{"type": "PRIMARY", "title": "Possible Drug-Related Adverse Events", "description": "Adverse Events reported by the Investigator and judged by the Investigator to be possibly related to study drug, categorized by the Medical Dictionary for Regulatory Activities (MeDRA), were reported. ECG, electrocardiogram. QTc (corrected QT interval) and QT represent intervals on an ECG.", "populationDescription": "Intent-to-Treat (IITT) Population - All participants who were randomized and received at least one dose of double-blind study treatment.", "reportingStatus": "POSTED", "paramType": "NUMBER", "unitOfMeasure": "participants", "timeFrame": "Treatment period (weeks 1-12) and Post Treatment (\u22651 day after last time study drug)", "groups": [{"id": "OG000", "title": "Fluticasone Propionate/Salmeterol HFA", "description": "Participants who were randomly assigned to Fluticasone Propionate/salmeterol 100/50 micrograms (\u00b5g) HFA (2 inhalations of 50/25 \u00b5g), twice daily for 12 weeks."}, {"id": "OG001", "title": "Fluticasone Propionate HFA", "description": "Participants who were randomly assigned to Fluticasone Propionate 100 \u00b5g HFA (2 inhalations of 50 \u00b5g), twice daily for 12 weeks."}], "denoms": [{"units": "Participants", "counts": [{"groupId": "OG000", "value": "173"}, {"groupId": "OG001", "value": "177"}]}], "classes": [{"title": "Participants with any drug-related event", "categories": [{"measurements": [{"groupId": "OG000", "value": "13"}, {"groupId": "OG001", "value": "16"}]}]}, {"title": "Investigations - ECG QTc interval prolonged", "categories": [{"measurements": [{"groupId": "OG000", "value": "9"}, {"groupId": "OG001", "value": "4"}]}]}, {"title": "Investigations - QT interval prolonged", "categories": [{"measurements": [{"groupId": "OG000", "value": "0"}, {"groupId": "OG001", "value": "2"}]}]}, {"title": "Investigations - ECG QT borderline prolonged", "categories": [{"measurements": [{"groupId": "OG000", "value": "1"}, {"groupId": "OG001", "value": "0"}]}]}, {"title": "Investigations - ECG QT interval abnormal", "categories": [{"measurements": [{"groupId": "OG000", "value": "1"}, {"groupId": "OG001", "value": "0"}]}]}, {"title": "Cardiac - Defect conduction intraventricular", "categories": [{"measurements": [{"groupId": "OG000", "value": "2"}, {"groupId": "OG001", "value": "7"}]}]}, {"title": "Cardiac - Conduction disorder", "categories": [{"measurements": [{"groupId": "OG000", "value": "1"}, {"groupId": "OG001", "value": "1"}]}]}, {"title": "Cardiac - Sinus tachycardia", "categories": [{"measurements": [{"groupId": "OG000", "value": "1"}, {"groupId": "OG001", "value": "0"}]}]}, {"title": "Cardiac - Supraventricular ectopics", "categories": [{"measurements": [{"groupId": "OG000", "value": "0"}, {"groupId": "OG001", "value": "1"}]}]}, {"title": "Infections/Infestations - Oral candidiasis", "categories": [{"measurements": [{"groupId": "OG000", "value": "0"}, {"groupId": "OG001", "value": "1"}]}]}, {"title": "Infections/Infest - Oropharyngeal candidiasis", "categories": [{"measurements": [{"groupId": "OG000", "value": "0"}, {"groupId": "OG001", "value": "1"}]}]}, {"title": "Respiratory/thoracic/mediastinal - Dysphonia", "categories": [{"measurements": [{"groupId": "OG000", "value": "2"}, {"groupId": "OG001", "value": "0"}]}]}]}, {"type": "PRIMARY", "title": "Investigator Evaluations of Electrocardiogram (ECG) Results", "description": "ECGs were transmitted to an independent cardiologist who was responsible for providing interpretation of the ECG as either normal or abnormal (based on personal assessment). The investigator was then responsible for determining the clinical significance of the abnormal ECG in the context of the participants' history and clinical presentation. An abnormal, clinically significant ECG included, but was not limited to: prolonged QT interval, ischemic changes, ventricular hypertrophy, intraventricular conduction abnormalities, and clinically significant arrhythmias. PD, premature discontinuation.", "populationDescription": "ITT Population. The number of participants at baseline was 173 and 177, respectively, for the Fluticasone propionate/salmeterol HFA and Fluticasone Propionate (FP) HFA groups. The number of participants at Week 12 was 162 and 160, respectively. Data for 6 participants in the FP treatment arm were either not obtained or not evaluable.", "reportingStatus": "POSTED", "paramType": "NUMBER", "unitOfMeasure": "participants", "timeFrame": "Baseline and Week 12", "groups": [{"id": "OG000", "title": "Fluticasone Propionate/Salmeterol HFA", "description": "Participants who were randomly assigned to Fluticasone Propionate/salmeterol 100/50 micrograms (\u00b5g) HFA (2 inhalations of 50/25 \u00b5g), twice daily for 12 weeks."}, {"id": "OG001", "title": "Fluticasone Propionate HFA", "description": "Participants who were randomly assigned to Fluticasone Propionate 100 \u00b5g HFA (2 inhalations of 50 \u00b5g), twice daily for 12 weeks."}], "denoms": [{"units": "Participants", "counts": [{"groupId": "OG000", "value": "173"}, {"groupId": "OG001", "value": "177"}]}], "classes": [{"title": "Baseline - Normal", "categories": [{"measurements": [{"groupId": "OG000", "value": "145"}, {"groupId": "OG001", "value": "155"}]}]}, {"title": "Baseline - Abnormal: Not Clinically Significant", "categories": [{"measurements": [{"groupId": "OG000", "value": "27"}, {"groupId": "OG001", "value": "21"}]}]}, {"title": "Baseline - Abnormal: Clinically Significant", "categories": [{"measurements": [{"groupId": "OG000", "value": "1"}, {"groupId": "OG001", "value": "0"}]}]}, {"title": "Week 12-No Change or insignificant Change", "categories": [{"measurements": [{"groupId": "OG000", "value": "136"}, {"groupId": "OG001", "value": "142"}]}]}, {"title": "Week 12-Clinically Significant Change-Favorable", "categories": [{"measurements": [{"groupId": "OG000", "value": "2"}, {"groupId": "OG001", "value": "0"}]}]}, {"title": "Week 12-Clinically Significant Change-Unfavorable", "categories": [{"measurements": [{"groupId": "OG000", "value": "24"}, {"groupId": "OG001", "value": "18"}]}]}, {"title": "PD-No Change or insignificant Change", "categories": [{"measurements": [{"groupId": "OG000", "value": "7"}, {"groupId": "OG001", "value": "9"}]}]}, {"title": "PD-Clinically Significant Change-Favorable", "categories": [{"measurements": [{"groupId": "OG000", "value": "0"}, {"groupId": "OG001", "value": "1"}]}]}, {"title": "PD-Clinically Significant Change-Unfavorable", "categories": [{"measurements": [{"groupId": "OG000", "value": "0"}, {"groupId": "OG001", "value": "1"}]}]}]}, {"type": "PRIMARY", "title": "Clinically Significant Unfavorable ECGs at Week 12", "description": "Post-randomization ECGs categorized by the primary investigator as no change, significant change (favorable), significant change (unfavorable) from the ECG performed at Visit 1 (Baseline) are presented. Significant change (favorable) includes any ECG that improved from baseline, whereas significant change (unfavorable) includes any ECG that worsened from baseline. Clinical significance is determined by the primary investigator.", "populationDescription": "ITT Population. The number of participants at baseline was 173 and 177, respectively, for the Fluticasone propionate/salmeterol HFA and Fluticasone Propionate (FP) HFA groups. The numbers of participants at Week 12 were 162 and 160, respectively. Data for 6 participants in the FP treatment arm were either not obtained or not evaluable.", "reportingStatus": "POSTED", "paramType": "NUMBER", "unitOfMeasure": "participants", "timeFrame": "Baseline, Week 12", "groups": [{"id": "OG000", "title": "Fluticasone Propionate/Salmeterol HFA", "description": "Participants who were randomly assigned to Fluticasone Propionate/salmeterol 100/50 micrograms (\u00b5g) HFA (2 inhalations of 50/25 \u00b5g), twice daily for 12 weeks."}, {"id": "OG001", "title": "Fluticasone Propionate HFA", "description": "Participants who were randomly assigned to Fluticasone Propionate 100 \u00b5g HFA (2 inhalations of 50 \u00b5g), twice daily for 12 weeks."}], "denoms": [{"units": "Participants", "counts": [{"groupId": "OG000", "value": "173"}, {"groupId": "OG001", "value": "177"}]}], "classes": [{"title": "Clinically significant unfavorable change", "categories": [{"measurements": [{"groupId": "OG000", "value": "24"}, {"groupId": "OG001", "value": "18"}]}]}, {"title": "AEs Reported for ECG findings", "categories": [{"measurements": [{"groupId": "OG000", "value": "22"}, {"groupId": "OG001", "value": "18"}]}]}, {"title": "Clinically significant unfavorable ECGs repeated", "categories": [{"measurements": [{"groupId": "OG000", "value": "11"}, {"groupId": "OG001", "value": "11"}]}]}, {"title": "Repeated ECGs w/ no change or insignificant change", "categories": [{"measurements": [{"groupId": "OG000", "value": "6"}, {"groupId": "OG001", "value": "5"}]}]}]}, {"type": "PRIMARY", "title": "ECG Measures - Heart Rate", "description": "The range of heart rates for this study was between 49-144 beats per minute", "populationDescription": "ITT Population - All subjects who were randomized and received at least one dose of double-blind study treatment.", "reportingStatus": "POSTED", "paramType": "MEAN", "dispersionType": "Full Range", "unitOfMeasure": "beats per minute", "timeFrame": "Baseline and Week 12", "groups": [{"id": "OG000", "title": "Fluticasone Propionate/Salmeterol HFA", "description": "Participants who were randomly assigned to Fluticasone propionate/salmeterol 100/50 micrograms (\u00b5g) HFA (2 inhalations of 50/25\u00b5g), twice daily for 12 weeks."}, {"id": "OG001", "title": "Fluticasone Propionate HFA", "description": "Participants who were randomly assigned to Fluticasone Propionate 100 \u00b5g HFA (2 inhalations of 50 \u00b5g), twice daily for 12 weeks."}], "denoms": [{"units": "Participants", "counts": [{"groupId": "OG000", "value": "173"}, {"groupId": "OG001", "value": "177"}]}], "classes": [{"title": "Mean Heart Rate - Baseline", "categories": [{"measurements": [{"groupId": "OG000", "value": "84", "lowerLimit": "53", "upperLimit": "144"}, {"groupId": "OG001", "value": "82.6", "lowerLimit": "51", "upperLimit": "136"}]}]}, {"title": "Mean Heart Rate - Week 12", "categories": [{"measurements": [{"groupId": "OG000", "value": "85.5", "lowerLimit": "59", "upperLimit": "138"}, {"groupId": "OG001", "value": "81.9", "lowerLimit": "52", "upperLimit": "121"}]}]}, {"title": "Mean Heart Rate - Premature Discontinuation", "categories": [{"measurements": [{"groupId": "OG000", "value": "73.1", "lowerLimit": "53", "upperLimit": "90"}, {"groupId": "OG001", "value": "92.4", "lowerLimit": "49", "upperLimit": "130"}]}]}]}, {"type": "PRIMARY", "title": "ECG Measures - QT Interval", "description": "Fridericia's formula QTc interval=QT interval/cubed root of the R-R interval. The Bazett's formula QTc=QT/squared root of the R-R interval.", "populationDescription": "ITT Population - All participants who were randomized and received at least one dose of double-blind study treatment.", "reportingStatus": "POSTED", "paramType": "MEAN", "dispersionType": "Full Range", "unitOfMeasure": "milliseconds", "timeFrame": "Baseline and Week 12", "groups": [{"id": "OG000", "title": "Fluticasone Propionate/Salmeterol HFA", "description": "Participants who were randomly assigned to Fluticasone propionate/salmeterol 100/50 micrograms (\u00b5g) HFA (2 inhalations of 50/25\u00b5g), twice daily for 12 weeks."}, {"id": "OG001", "title": "Fluticasone Propionate HFA", "description": "Participants who were randomly assigned to Fluticasone propionate 100 \u00b5g HFA (2inhalations of 50 \u00b5g), twice daily for 12 weeks."}], "denoms": [{"units": "Participants", "counts": [{"groupId": "OG000", "value": "173"}, {"groupId": "OG001", "value": "177"}]}], "classes": [{"title": "Mean QTc Interval (Fridericia)- Baseline", "categories": [{"measurements": [{"groupId": "OG000", "value": "394.5", "lowerLimit": "340", "upperLimit": "449"}, {"groupId": "OG001", "value": "390.8", "lowerLimit": "338", "upperLimit": "429"}]}]}, {"title": "Mean QTc Interval (Fridericia) - Week 12", "categories": [{"measurements": [{"groupId": "OG000", "value": "397.5", "lowerLimit": "355", "upperLimit": "439"}, {"groupId": "OG001", "value": "393.6", "lowerLimit": "329", "upperLimit": "449"}]}]}, {"title": "Premature Discontinuation (Fridericia)", "categories": [{"measurements": [{"groupId": "OG000", "value": "392", "lowerLimit": "359", "upperLimit": "417"}, {"groupId": "OG001", "value": "394.8", "lowerLimit": "376", "upperLimit": "408"}]}]}, {"title": "Mean QTc Interval (Bazett) - Baseline", "categories": [{"measurements": [{"groupId": "OG000", "value": "416.3", "lowerLimit": "356", "upperLimit": "464"}, {"groupId": "OG001", "value": "411.4", "lowerLimit": "346", "upperLimit": "471"}]}]}, {"title": "Mean QTc Interval (Bazett) - Week 12", "categories": [{"measurements": [{"groupId": "OG000", "value": "420.8", "lowerLimit": "368", "upperLimit": "466"}, {"groupId": "OG001", "value": "413.7", "lowerLimit": "351", "upperLimit": "477"}]}]}, {"title": "Premature Discontinuation (Bazett)", "categories": [{"measurements": [{"groupId": "OG000", "value": "403.3", "lowerLimit": "376", "upperLimit": "446"}, {"groupId": "OG001", "value": "422.7", "lowerLimit": "378", "upperLimit": "454"}]}]}]}, {"type": "PRIMARY", "title": "Cardiovascular Adverse Events Reported During Treatment Period", "description": "Cardiovascular Adverse Events, as categorized by the Medical Dictionary for Regulatory Activities (MeDRA), reported during Treatment Period. The Adverse Events were identified in any ECG interpretation by a central reader (Cardiologist) for any ECG obtained after the first treatment dose and were then reported by the Primary Investigator as an Adverse Event. Please see the category titles for a list of candidate cardiovascular adverse events.", "populationDescription": "ITT Population - All participants who were randomized and received at least one dose of double-blind study treatment.", "reportingStatus": "POSTED", "paramType": "NUMBER", "unitOfMeasure": "participants", "timeFrame": "12-Week Treatment Period", "groups": [{"id": "OG000", "title": "Fluticasone Propionate/Salmeterol HFA", "description": "Participants who were randomly assigned to Fluticasone Propionate/salmeterol 100/50 micrograms (\u00b5g) HFA (2 inhalations of 50/25 \u00b5g), twice daily for 12 weeks."}, {"id": "OG001", "title": "Fluticasone Propionate HFA", "description": "Participants who were randomly assigned to Fluticasone Propionate 100 \u00b5g HFA (2 inhalations of 50 \u00b5g), twice daily for 12 weeks."}], "denoms": [{"units": "Participants", "counts": [{"groupId": "OG000", "value": "173"}, {"groupId": "OG001", "value": "177"}]}], "classes": [{"title": "Participants with Any Event", "categories": [{"measurements": [{"groupId": "OG000", "value": "98"}, {"groupId": "OG001", "value": "103"}]}]}, {"title": "Electrocardiogram (ECG) Change", "categories": [{"measurements": [{"groupId": "OG000", "value": "3"}, {"groupId": "OG001", "value": "2"}]}]}, {"title": "ECG QTc Interval Prolonged", "categories": [{"measurements": [{"groupId": "OG000", "value": "2"}, {"groupId": "OG001", "value": "1"}]}]}, {"title": "ECG Abnormal", "categories": [{"measurements": [{"groupId": "OG000", "value": "1"}, {"groupId": "OG001", "value": "1"}]}]}, {"title": "ECG QT Borderline Prolonged", "categories": [{"measurements": [{"groupId": "OG000", "value": "1"}, {"groupId": "OG001", "value": "0"}]}]}, {"title": "Defect Conduction Intraventricular", "categories": [{"measurements": [{"groupId": "OG000", "value": "4"}, {"groupId": "OG001", "value": "3"}]}]}, {"title": "Cardiac Arrhythmia", "categories": [{"measurements": [{"groupId": "OG000", "value": "1"}, {"groupId": "OG001", "value": "0"}]}]}, {"title": "Premature Atrial Contraction", "categories": [{"measurements": [{"groupId": "OG000", "value": "1"}, {"groupId": "OG001", "value": "0"}]}]}]}, {"type": "PRIMARY", "title": "Cardiovascular Adverse Events Reported During the Post-Treatment Period", "description": "Cardiovascular Adverse Events, as categorized by the Medical Dictionary for Regulatory Activities (MeDRA), reported during Post-treatment period, defined as 1 day after last dose of study drug. The Adverse Events were identified in any ECG interpretation by a central reader (Cardiologist) for any ECG obtained after the first treatment dose and were then reported by the Primary Investigator as an Adverse Event.", "populationDescription": "ITT Population - All participants who were randomized and received at least one dose of double-blind study treatment.", "reportingStatus": "POSTED", "paramType": "NUMBER", "unitOfMeasure": "participants", "timeFrame": "5 Days after Week 12", "groups": [{"id": "OG000", "title": "Fluticasone Propionate/Salmeterol HFA", "description": "Participants who were randomly assigned to Fluticasone Propionate/salmeterol 100/50 \u00b5g HFA (2 inhalations of 50/25 \u00b5g), twice daily for 12 weeks."}, {"id": "OG001", "title": "Fluticasone Propionate HFA", "description": "Participants who were randomly assigned to Fluticasone Propionate 100 \u00b5g HFA (2 inhalations of 50 \u00b5g), twice daily for 12 weeks."}], "denoms": [{"units": "Participants", "counts": [{"groupId": "OG000", "value": "173"}, {"groupId": "OG001", "value": "177"}]}], "classes": [{"title": "Participants with Any Event", "categories": [{"measurements": [{"groupId": "OG000", "value": "19"}, {"groupId": "OG001", "value": "19"}]}]}, {"title": "ECG QTc interval prolonged", "categories": [{"measurements": [{"groupId": "OG000", "value": "11"}, {"groupId": "OG001", "value": "5"}]}]}, {"title": "QT interval prolonged", "categories": [{"measurements": [{"groupId": "OG000", "value": "1"}, {"groupId": "OG001", "value": "2"}]}]}, {"title": "ECG QT interval Abnormal", "categories": [{"measurements": [{"groupId": "OG000", "value": "1"}, {"groupId": "OG001", "value": "0"}]}]}, {"title": "Defect Conduction Intraventricular", "categories": [{"measurements": [{"groupId": "OG000", "value": "2"}, {"groupId": "OG001", "value": "7"}]}]}, {"title": "Conduction disorder", "categories": [{"measurements": [{"groupId": "OG000", "value": "1"}, {"groupId": "OG001", "value": "1"}]}]}, {"title": "Sinus Tachycardia", "categories": [{"measurements": [{"groupId": "OG000", "value": "1"}, {"groupId": "OG001", "value": "0"}]}]}, {"title": "Supraventricular Ectopics", "categories": [{"measurements": [{"groupId": "OG000", "value": "0"}, {"groupId": "OG001", "value": "1"}]}]}]}, {"type": "PRIMARY", "title": "Asthma Exacerbations: Worsening of Asthma Requiring Emergency Intervention, Hospitalization, or Treatment With Asthma Medications Prohibited by the Protocols", "description": "The Primary Investigator determined the severity of the exacerbation based on the participant's clinical presentation and the investigator's understanding of the disease, the participant, and his or her clinical experiences. The severity of the exacerbation was not defined in the protocol. Mild: Usually treated at home. Prompt relief with inhaled short-acting beta2 agonist. Possible short course of oral systemic corticosteroids. Moderate: Usually requires office or emergency department visit. Relief with frequent inhaled short-acting beta2 agonist. Oral systemic corticosteroids; some symptoms last for 1-2 days after treatment begins. Severe: Usually requires emergency department visit and likely hospitalization. Partial relief with frequent inhaled short-acting beta2 agonist. Oral systemic corticosteroids; some symptoms last for more than 3 days after treatment begins. Adjunctive therapies are helpful.", "populationDescription": "ITT Population - All participants who were randomized and received at least one dose of double-blind study treatment.", "reportingStatus": "POSTED", "paramType": "NUMBER", "unitOfMeasure": "participants", "timeFrame": "Treatment period (weeks 1-12)", "groups": [{"id": "OG000", "title": "Fluticasone Propionate/Salmeterol HFA", "description": "Participants who were randomly assigned to Fluticasone Propionate/salmeterol 100/50 micrograms (\u00b5g) HFA (2 inhalations of 50/25 \u00b5g), twice daily for 12 weeks."}, {"id": "OG001", "title": "Fluticasone Propionate HFA", "description": "Participants who were randomly assigned to Fluticasone Propionate 100 \u00b5g HFA (2 inhalations of 50 \u00b5g), twice daily for 12 weeks."}], "denoms": [{"units": "Participants", "counts": [{"groupId": "OG000", "value": "173"}, {"groupId": "OG001", "value": "177"}]}], "classes": [{"title": "Participants with any asthma exacerbation", "categories": [{"measurements": [{"groupId": "OG000", "value": "1"}, {"groupId": "OG001", "value": "3"}]}]}, {"title": "Severity - Mild", "categories": [{"measurements": [{"groupId": "OG000", "value": "1"}, {"groupId": "OG001", "value": "2"}]}]}, {"title": "Severity - Moderate/Severe", "categories": [{"measurements": [{"groupId": "OG000", "value": "0"}, {"groupId": "OG001", "value": "1"}]}]}, {"title": "Withdrawal due to Asthma Exacerbation", "categories": [{"measurements": [{"groupId": "OG000", "value": "1"}, {"groupId": "OG001", "value": "2"}]}]}]}, {"type": "PRIMARY", "title": "Number of Participants With the Indicated Levels of 24-hour Urinary Cortisol Excretion", "description": "\"Abnormal high cortisol excretion\" and \"Abnormal low cortisol excretion\" are defined as above the upper limit of normal and below the lower limit of normal, respectively. The normal range for cortisol levels vary by age and gender. An abnormality is defined as a value of 24-hour urinary cortisol excretion that is outside the normal range. The normal range for 24-hour urinary cortisol excretion was provided by the central laboratory.", "populationDescription": "Cortisol Population - all participants not excluded due to the following reasons: missing data, use of protocol-specified corticosteroids (prior to screening), collection time outside of 24 \u00b1 2 hours, use of inhaled cortical steroid (ICS) during treatment, and who stopped study medication \\>1 day prior to start of post-baseline urine collection.", "reportingStatus": "POSTED", "paramType": "NUMBER", "unitOfMeasure": "participants", "timeFrame": "Baseline and week 12", "groups": [{"id": "OG000", "title": "Fluticasone Propionate/Salmeterol HFA", "description": "Participants who were randomly assigned to Fluticasone Propionate/salmeterol 100/50 micrograms (\u00b5g) HFA (2 inhalations of 50/25 \u00b5g), twice daily for 12 weeks."}, {"id": "OG001", "title": "Fluticasone Propionate HFA", "description": "Participants who were randomly assigned to Fluticasone Propionate 100 \u00b5g HFA (2 inhalations of 50 \u00b5g), twice daily for 12 weeks."}], "denoms": [{"units": "Participants", "counts": [{"groupId": "OG000", "value": "147"}, {"groupId": "OG001", "value": "144"}]}], "classes": [{"title": "Baseline - Abnormal high cortisol excretion, n", "categories": [{"measurements": [{"groupId": "OG000", "value": "13"}, {"groupId": "OG001", "value": "17"}]}]}, {"title": "Baseline - Abnormal low cortisol excretion, n", "categories": [{"measurements": [{"groupId": "OG000", "value": "1"}, {"groupId": "OG001", "value": "0"}]}]}, {"title": "Week 12 - Abnormal high cortisol excretion, n", "categories": [{"measurements": [{"groupId": "OG000", "value": "13"}, {"groupId": "OG001", "value": "8"}]}]}, {"title": "Week 12 - Abnormal low cortisol excretion, n", "categories": [{"measurements": [{"groupId": "OG000", "value": "2"}, {"groupId": "OG001", "value": "0"}]}]}]}, {"type": "PRIMARY", "title": "Geometric Mean Values of 24-hour Urinary Cortisol Excretion at Baseline and Week 12", "description": "Normal range for Cortisol levels vary by age and gender. Geometric mean is the product of the values taken to the Nth root, where N is the number of values in the set of values.", "populationDescription": "Cortisol Population", "reportingStatus": "POSTED", "paramType": "GEOMETRIC_MEAN", "dispersionType": "Full Range", "unitOfMeasure": "Nanomoles per 24 hours (nmol/24 hrs)", "timeFrame": "Baseline and Week 12", "groups": [{"id": "OG000", "title": "Fluticasone Propionate/Salmeterol HFA", "description": "Participants who were randomly assigned to Fluticasone Propionate/salmeterol 100/50 micrograms (\u00b5g) HFA (2 inhalations of 50/25 \u00b5g), twice daily for 12 weeks."}, {"id": "OG001", "title": "Fluticasone Propionate HFA", "description": "Participants who were randomly assigned to Fluticasone Propionate 100 \u00b5g HFA (2 inhalations of 50 \u00b5g), twice daily for 12 weeks."}], "denoms": [{"units": "Participants", "counts": [{"groupId": "OG000", "value": "147"}, {"groupId": "OG001", "value": "144"}]}], "classes": [{"title": "Baseline - Geometric Mean", "categories": [{"measurements": [{"groupId": "OG000", "value": "32.71", "lowerLimit": "2.7", "upperLimit": "156.2"}, {"groupId": "OG001", "value": "30.88", "lowerLimit": "4.2", "upperLimit": "891.6"}]}]}, {"title": "Week 12 - Geometric Mean", "categories": [{"measurements": [{"groupId": "OG000", "value": "25.03", "lowerLimit": "1.7", "upperLimit": "152.6"}, {"groupId": "OG001", "value": "23.17", "lowerLimit": "5.3", "upperLimit": "145.8"}]}]}]}, {"type": "PRIMARY", "title": "Geometric Mean Ratio for Week12:Baseline for 24-hour Urinary Cortisol Excretion", "description": "Normal range for Cortisol levels vary by age and gender. The data provided are a direct calculation of the Week 12 geometric mean divided by the baseline value, nanomoles per 24 hours (nmol/24 hrs).", "populationDescription": "Cortisol Population", "reportingStatus": "POSTED", "paramType": "NUMBER", "unitOfMeasure": "ratio", "timeFrame": "Baseline and Week 12", "groups": [{"id": "OG000", "title": "Fluticasone Propionate/Salmeterol HFA", "description": "Participants who were randomly assigned to Fluticasone Propionate/salmeterol 100/50 micrograms (\u00b5g) HFA (2 inhalations of 50/25 \u00b5g), twice daily for 12 weeks."}, {"id": "OG001", "title": "Fluticasone Propionate HFA", "description": "Participants who were randomly assigned to Fluticasone Propionate 100 \u00b5g HFA (2 inhalations of 50 \u00b5g), twice daily for 12 weeks."}], "denoms": [{"units": "Participants", "counts": [{"groupId": "OG000", "value": "147"}, {"groupId": "OG001", "value": "144"}]}], "classes": [{"categories": [{"measurements": [{"groupId": "OG000", "value": "0.77"}, {"groupId": "OG001", "value": "0.75"}]}]}]}, {"type": "PRIMARY", "title": "Number of Participants With the Indicated Levels of 24 Hour Urinary Cortisol Excretion by Spacer Use", "description": "AeroChamber Plus spacers were provided for participants who demonstrated the inability to coordinate the use of an Meter Dose Inhaler at Visit 1. AeroChamber Plus spacer delivers 22% more medication than the original AeroChamber and is available in three mask sizes and without a mask. \"Abnormal high cortisol excretion\" and \"Abnormal low cortisol excretion\" are defined as above the upper limit of normal and below the lower limit of normal, respectively. An abnormality is defined as a value of 24-hour urinary cortisol excretion that is outside the normal range. The normal range for 24-hour urinary cortisol excretion was provided by the central laboratory.", "populationDescription": "Cortisol Population", "reportingStatus": "POSTED", "paramType": "NUMBER", "unitOfMeasure": "participants", "timeFrame": "Baseline and Week 12", "groups": [{"id": "OG000", "title": "Fluticasone Propionate/Salmeterol HFA - Spacer", "description": "Fluticasone propionate/salmeterol 100/50 micrograms (\u00b5g) HFA (2 inhalations of 50/25\u00b5g) twice daily in participants 4-11 years of age for 12 weeks - Participants who also used Spacers"}, {"id": "OG001", "title": "Fluticasone Propionate/Salmeterol HFA - No Spacer", "description": "Fluticasone propionate/salmeterol 100/50 \u00b5g HFA (2 inhalations of 50/25 \u00b5g) twice daily in participants 4-11 years of age for 12 weeks"}, {"id": "OG002", "title": "Fluticasone Propionate HFA - Spacer", "description": "Fluticasone Propionate 100 \u00b5g HFA (2 inhalation of 50 \u00b5g) twice daily in participants 4-11 years of age for 12 weeks. Participants who also used Spacers"}, {"id": "OG003", "title": "Fluticasone Propionate HFA - No Spacer", "description": "Fluticasone Propionate 100 \u00b5g HFA (2 inhalation of 50 \u00b5g) twice daily in participants 4-11 years of age for 12 weeks"}], "denoms": [{"units": "Participants", "counts": [{"groupId": "OG000", "value": "115"}, {"groupId": "OG001", "value": "32"}, {"groupId": "OG002", "value": "113"}, {"groupId": "OG003", "value": "31"}]}], "classes": [{"title": "Baseline - Abnormal high cortisol excretion", "categories": [{"measurements": [{"groupId": "OG000", "value": "12"}, {"groupId": "OG001", "value": "1"}, {"groupId": "OG002", "value": "14"}, {"groupId": "OG003", "value": "3"}]}]}, {"title": "Baseline - Abnormal low cortisol excretion", "categories": [{"measurements": [{"groupId": "OG000", "value": "0"}, {"groupId": "OG001", "value": "1"}, {"groupId": "OG002", "value": "0"}, {"groupId": "OG003", "value": "0"}]}]}, {"title": "Week 12 - Abnormal high cortisol excretion", "categories": [{"measurements": [{"groupId": "OG000", "value": "10"}, {"groupId": "OG001", "value": "3"}, {"groupId": "OG002", "value": "7"}, {"groupId": "OG003", "value": "1"}]}]}, {"title": "Week 12 - Abnormal low cortisol excretion", "categories": [{"measurements": [{"groupId": "OG000", "value": "2"}, {"groupId": "OG001", "value": "0"}, {"groupId": "OG002", "value": "0"}, {"groupId": "OG003", "value": "0"}]}]}]}, {"type": "PRIMARY", "title": "Geometric Mean Values of 24 Hour Urinary Cortisol Excretion by Spacer Use at Baseline and Week 12", "description": "AeroChamber Plus spacers were provided for participants who demonstrated the inability to coordinate the use of an Meter Dose Inhaler at Visit 1. AeroChamber Plus spacer delivers 22% more medication than the original AeroChamber and is available in three mask sizes and without a mask. Geometric mean is the product of the values taken to the Nth root, where N is the number of values in the set of values.", "populationDescription": "Cortisol Population", "reportingStatus": "POSTED", "paramType": "GEOMETRIC_MEAN", "dispersionType": "Full Range", "unitOfMeasure": "Nanomoles per 24 hours (nmol/24 hrs)", "timeFrame": "Baseline and Week 12", "groups": [{"id": "OG000", "title": "Fluticasone Propionate/Salmeterol HFA - Spacer", "description": "Fluticasone propionate/salmeterol 100/50 micrograms (\u00b5g) HFA (2 inhalations of 50/25 \u00b5g) twice daily in participants 4-11 years of age for 12 weeks - Participants who also used Spacers"}, {"id": "OG001", "title": "Fluticasone Propionate/Salmeterol HFA - No Spacer", "description": "Fluticasone propionate/salmeterol 100/50 \u00b5g HFA (2 inhalations of 50/25 \u00b5g) twice daily in participants 4-11 years of age for 12 weeks"}, {"id": "OG002", "title": "Fluticasone Propionate HFA - Spacer", "description": "Fluticasone Propionate 100 \u00b5g HFA (2 inhalation of 50 \u00b5g) twice daily in participants 4-11 years of age for 12 weeks. Participants who also used Spacers"}, {"id": "OG003", "title": "Fluticasone Propionate HFA - No Spacer", "description": "Fluticasone Propionate 100 \u00b5g HFA (2 inhalation of 50 \u00b5g) twice daily in participants 4-11 years of age for 12 weeks"}], "denoms": [{"units": "Participants", "counts": [{"groupId": "OG000", "value": "115"}, {"groupId": "OG001", "value": "32"}, {"groupId": "OG002", "value": "113"}, {"groupId": "OG003", "value": "31"}]}], "classes": [{"title": "Baseline - Geometric Mean", "categories": [{"measurements": [{"groupId": "OG000", "value": "31.89", "lowerLimit": "3.6", "upperLimit": "156.2"}, {"groupId": "OG001", "value": "35.84", "lowerLimit": "2.7", "upperLimit": "143.3"}, {"groupId": "OG002", "value": "30.61", "lowerLimit": "4.2", "upperLimit": "891.6"}, {"groupId": "OG003", "value": "31.89", "lowerLimit": "7.9", "upperLimit": "335.0"}]}]}, {"title": "Week 12 - Geometric Mean", "categories": [{"measurements": [{"groupId": "OG000", "value": "23.37", "lowerLimit": "1.7", "upperLimit": "143.3"}, {"groupId": "OG001", "value": "32.05", "lowerLimit": "4.6", "upperLimit": "152.6"}, {"groupId": "OG002", "value": "23.20", "lowerLimit": "5.3", "upperLimit": "103.2"}, {"groupId": "OG003", "value": "23.06", "lowerLimit": "5.4", "upperLimit": "145.8"}]}]}]}, {"type": "PRIMARY", "title": "Geometric Mean Ratio for Week12: Baseline for 24 Hour Urinary Cortisol Excretion by Spacer Use", "description": "AeroChamber Plus spacers were provided for participants who demonstrated the inability to coordinate the use of an Meter Dose Inhaler at Visit 1. AeroChamber Plus spacer delivers 22% more medication than the original AeroChamber and is available in three mask sizes and without a mask. The data provided are a direct calculation of the Week 12 geometric mean divided by the baseline value, nanomoles per 24 hours (nmol/24 hrs).", "populationDescription": "Cortisol Population", "reportingStatus": "POSTED", "paramType": "NUMBER", "unitOfMeasure": "ratio", "timeFrame": "Baseline and Week 12", "groups": [{"id": "OG000", "title": "Fluticasone Propionate/Salmeterol HFA - Spacer", "description": "Fluticasone propionate/salmeterol 100/50 micrograms (\u00b5g) HFA (2 inhalations of 50/25 \u00b5g) twice daily in participants 4-11 years of age for 12 weeks - Participants who also used Spacers"}, {"id": "OG001", "title": "Fluticasone Propionate/Salmeterol HFA - No Spacer", "description": "Fluticasone propionate/salmeterol 100/50 \u00b5g HFA (2 inhalations of 50/25 \u00b5g) twice daily in participants 4-11 years of age for 12 weeks"}, {"id": "OG002", "title": "Fluticasone Propionate HFA - Spacer", "description": "Fluticasone Propionate 100 \u00b5g HFA (2 inhalation of 50 \u00b5g) twice daily in participants 4-11 years of age for 12 weeks. Participants who also used Spacers"}, {"id": "OG003", "title": "Fluticasone Propionate HFA - No Spacer", "description": "Fluticasone Propionate 100 \u00b5g HFA (2 inhalation of 50 \u00b5g) twice daily in participants 4-11 years of age for 12 weeks"}], "denoms": [{"units": "Participants", "counts": [{"groupId": "OG000", "value": "115"}, {"groupId": "OG001", "value": "32"}, {"groupId": "OG002", "value": "113"}, {"groupId": "OG003", "value": "31"}]}], "classes": [{"categories": [{"measurements": [{"groupId": "OG000", "value": "0.73"}, {"groupId": "OG001", "value": "0.89"}, {"groupId": "OG002", "value": "0.76"}, {"groupId": "OG003", "value": "0.72"}]}]}]}, {"type": "SECONDARY", "title": "Clinic Morning (AM) Forced Expiratory Volume in Participants 6-11 Years", "description": "FEV1 (Forced Expiratory Volume in 1 second) is the volume of air that can be forced out in one second, after taking a deep breath. FEV1 is measured using a spirometer and obtaining \"best effort\" from 3 to 8 measurements. Week 12 is the measure taken at Week 12.", "populationDescription": "Subset of ITT Population: Participants who were 6-11 years of age (population not necessarily selected to show efficacy differences). Total numbers of participants analyzed for the Fluticasone propionate (FP)/salmeterol HFA and FP groups, respectively, were 137 and 136 at baseline; 126 and 124 at Week 12, and 6 and 7 at premature discontinuation.", "reportingStatus": "POSTED", "paramType": "MEAN", "dispersionType": "Standard Error", "unitOfMeasure": "Liters per second (L/sec)", "timeFrame": "Baseline and week 12", "groups": [{"id": "OG000", "title": "Fluticasone Propionate/Salmeterol HFA", "description": "Participants who were randomly assigned to Fluticasone Propionate/salmeterol 100/50 micrograms (\u00b5g) HFA (2 inhalations of 50/25 \u00b5g), twice daily for 12 weeks."}, {"id": "OG001", "title": "Fluticasone Propionate HFA", "description": "Participants who were randomly assigned to Fluticasone Propionate 100 \u00b5g HFA (2 inhalations of 50 \u00b5g), twice daily for 12 weeks."}], "denoms": [{"units": "Participants", "counts": [{"groupId": "OG000", "value": "137"}, {"groupId": "OG001", "value": "136"}]}], "classes": [{"title": "Baseline - Mean FEV1", "categories": [{"measurements": [{"groupId": "OG000", "value": "1.67", "spread": "0.035"}, {"groupId": "OG001", "value": "1.64", "spread": "0.035"}]}]}, {"title": "Week 12 - Mean FEV1", "categories": [{"measurements": [{"groupId": "OG000", "value": "1.91", "spread": "0.038"}, {"groupId": "OG001", "value": "1.82", "spread": "0.036"}]}]}, {"title": "Week 12 - Mean Change from baseline", "categories": [{"measurements": [{"groupId": "OG000", "value": "0.24", "spread": "0.023"}, {"groupId": "OG001", "value": "0.18", "spread": "0.023"}]}]}, {"title": "Premature discontinuation - Mean FEV1", "categories": [{"measurements": [{"groupId": "OG000", "value": "1.81", "spread": "0.14"}, {"groupId": "OG001", "value": "1.70", "spread": "0.212"}]}]}, {"title": "Premature discontin. - Mean Change from baseline", "categories": [{"measurements": [{"groupId": "OG000", "value": "0.03", "spread": "0.09"}, {"groupId": "OG001", "value": "-0.07", "spread": "0.120"}]}]}]}, {"type": "SECONDARY", "title": "AM Peak Expiratory Flow", "description": "The peak expiratory flow (PEF) rate measures how fast a person can exhale air. It is used to compare to normal flow rates to predict obstruction and disease. The average PEF for a child or adolescent whose height is 43 inches is 147 Liters/minute (L/min), whose height is 66 inches is 454 L/min. Triplicate measurements taken for the best effort recorded.", "populationDescription": "Participants from the ITT Population (not necessarily selected to show efficacy differences). Total numbers of participants analyzed for the Fluticasone propionate (FP)/salmeterol HFA and FP groups, respectively, were 173 and 175 at baseline; 173 and 174 at Weeks 1-12; and 171 and 173 for the last 7 days on treatment.", "reportingStatus": "POSTED", "paramType": "MEAN", "dispersionType": "Standard Error", "unitOfMeasure": "Liters/minute (L/min)", "timeFrame": "Baseline and 12-Week Treatment Period", "groups": [{"id": "OG000", "title": "Fluticasone Propionate/Salmeterol HFA", "description": "Participants who were randomly assigned to Fluticasone Propionate/salmeterol 100/50 micrograms (\u00b5g) HFA (2 inhalations of 50/25 \u00b5g), twice daily for 12 weeks."}, {"id": "OG001", "title": "Fluticasone Propionate HFA", "description": "Participants who were randomly assigned to Fluticasone Propionate 100 \u00b5g HFA (2 inhalations of 50 \u00b5g), twice daily for 12 weeks."}], "denoms": [{"units": "Participants", "counts": [{"groupId": "OG000", "value": "173"}, {"groupId": "OG001", "value": "177"}]}], "classes": [{"title": "Baseline - Mean AM PEF", "categories": [{"measurements": [{"groupId": "OG000", "value": "213", "spread": "4.83"}, {"groupId": "OG001", "value": "203", "spread": "4.37"}]}]}, {"title": "Weeks 1-12 - Mean AM PEF", "categories": [{"measurements": [{"groupId": "OG000", "value": "233", "spread": "5.07"}, {"groupId": "OG001", "value": "220", "spread": "4.43"}]}]}, {"title": "Weeks 1-12 - Mean Change from Baseline", "categories": [{"measurements": [{"groupId": "OG000", "value": "20.2", "spread": "2.04"}, {"groupId": "OG001", "value": "17.4", "spread": "1.86"}]}]}, {"title": "Last 7 Days on Treatment - Mean AM PEF", "categories": [{"measurements": [{"groupId": "OG000", "value": "238", "spread": "5.39"}, {"groupId": "OG001", "value": "226", "spread": "4.73"}]}]}, {"title": "Last 7 Days on Treatment-Mean Change from Baseline", "categories": [{"measurements": [{"groupId": "OG000", "value": "25.3", "spread": "2.58"}, {"groupId": "OG001", "value": "23.3", "spread": "2.47"}]}]}]}, {"type": "SECONDARY", "title": "Asthma Symptom Scores", "description": "Each morning prior dosing or PEF, self-scored based on past 24 hours: 0=No symptoms, 1=Symptoms for one short period, 2=Symptoms for two or more short periods, 3=Frequent Symptoms which did not affect activities of daily living (ADL), 4=Frequent.", "populationDescription": "Participants from the ITT population (not necessarily selected to show efficacy differences). Total numbers of participants analyzed for the Fluticasone propionate (FP)/salmeterol HFA and FP groups, respectively, were 173 and 175 at baseline; 172 and 174 at Weeks 1-12; and 167 and 170 for the last 7 days on treatment.", "reportingStatus": "POSTED", "paramType": "MEAN", "dispersionType": "Standard Error", "unitOfMeasure": "Score in scale", "timeFrame": "Baseline and 12-Week Treatment Period", "groups": [{"id": "OG000", "title": "Fluticasone Propionate/Salmeterol HFA", "description": "Participants who were randomly assigned to Fluticasone Propionate/salmeterol 100/50 micrograms (\u00b5g) HFA (2 inhalations of 50/25 \u00b5g), twice daily for 12 weeks."}, {"id": "OG001", "title": "Fluticasone Propionate HFA", "description": "Participants who were randomly assigned to Fluticasone Propionate 100 \u00b5g HFA (2 inhalations of 50 \u00b5g), twice daily for 12 weeks."}], "denoms": [{"units": "Participants", "counts": [{"groupId": "OG000", "value": "177"}, {"groupId": "OG001", "value": "173"}]}], "classes": [{"title": "Baseline - Mean Score", "categories": [{"measurements": [{"groupId": "OG000", "value": "1.3", "spread": "0.06"}, {"groupId": "OG001", "value": "1.4", "spread": "0.06"}]}]}, {"title": "Weeks 1-12 - Mean Score", "categories": [{"measurements": [{"groupId": "OG000", "value": "0.9", "spread": "0.06"}, {"groupId": "OG001", "value": "0.8", "spread": "0.05"}]}]}, {"title": "Weeks 1-12 - Mean change from baseline", "categories": [{"measurements": [{"groupId": "OG000", "value": "-0.4", "spread": "0.06"}, {"groupId": "OG001", "value": "-0.6", "spread": "0.06"}]}]}, {"title": "Last 7 Days on Treatment - Mean Score", "categories": [{"measurements": [{"groupId": "OG000", "value": "0.8", "spread": "0.07"}, {"groupId": "OG001", "value": "0.8", "spread": "0.07"}]}]}, {"title": "Last 7 Days on Treat. - Mean change from baseline", "categories": [{"measurements": [{"groupId": "OG000", "value": "-0.5", "spread": "0.07"}, {"groupId": "OG001", "value": "-0.6", "spread": "0.08"}]}]}]}, {"type": "SECONDARY", "title": "Percentage of Symptom Free Days", "description": "Percentage of number of days without asthma symptoms based on Asthma Symptom Scores. Each morning prior to dosing or PEF, asthma symptoms were self-scored based on the past 24 hours: 0=no symptoms, 1=symptoms for one short period, 2=symptoms for two or more short periods, 3=frequent symptoms that did not affect activities of daily living (ADL), 4=frequent .", "populationDescription": "Participants from the ITT population (not necessarily selected to show efficacy differences). Total numbers of participants analyzed for the Fluticasone propionate (FP)/salmeterol HFA and FP groups, respectively, were 173 and 175 at baseline; 172 and 174 at Weeks 1-12; and 167 and 170 for the last 7 days on treatment.", "reportingStatus": "POSTED", "paramType": "MEAN", "dispersionType": "Standard Error", "unitOfMeasure": "Percentage of days", "timeFrame": "Baseline and 12-Week Treatment Period", "groups": [{"id": "OG000", "title": "Fluticasone Propionate/Salmeterol HFA", "description": "Participants who were randomly assigned to Fluticasone Propionate/salmeterol 100/50 micrograms (\u00b5g) HFA (2 inhalations of 50/25 \u00b5g), twice daily for 12 weeks."}, {"id": "OG001", "title": "Fluticasone Propionate HFA", "description": "Participants who were randomly assigned to Fluticasone Propionate 100 \u00b5g HFA (2 inhalations of 50 \u00b5g), twice daily for 12 weeks."}], "denoms": [{"units": "Participants", "counts": [{"groupId": "OG000", "value": "173"}, {"groupId": "OG001", "value": "177"}]}], "classes": [{"title": "Baseline - Mean Percent", "categories": [{"measurements": [{"groupId": "OG000", "value": "20.0", "spread": "2.02"}, {"groupId": "OG001", "value": "18.4", "spread": "2.00"}]}]}, {"title": "Weeks 1-12 - Mean Percent", "categories": [{"measurements": [{"groupId": "OG000", "value": "46.7", "spread": "2.77"}, {"groupId": "OG001", "value": "48.7", "spread": "2.80"}]}]}, {"title": "Weeks 1-12 - Mean change from baseline", "categories": [{"measurements": [{"groupId": "OG000", "value": "26.8", "spread": "2.47"}, {"groupId": "OG001", "value": "30.5", "spread": "2.62"}]}]}, {"title": "Last 7 Days on Treatment - Mean Percent", "categories": [{"measurements": [{"groupId": "OG000", "value": "51.9", "spread": "3.51"}, {"groupId": "OG001", "value": "53.4", "spread": "3.44"}]}]}, {"title": "Last 7 Days on Treat. - Mean change from baseline", "categories": [{"measurements": [{"groupId": "OG000", "value": "32.1", "spread": "3.32"}, {"groupId": "OG001", "value": "34.9", "spread": "3.43"}]}]}]}, {"type": "SECONDARY", "title": "Albuterol Use", "description": "Albuterol inhalation aerosol was used as a rescue or prophylactic and recorded daily by subject or caregiver. The number of puffs of albuterol over the previous 24 hour period prior to dosing was recorded.", "populationDescription": "Participants from the ITT population (not necessarily selected to show efficacy differences). Total numbers of participants analyzed for the Fluticasone propionate (FP)/salmeterol HFA and FP groups, respectively, were 168 and 174 at baseline; 166 and 172 at Weeks 1-12; and 157 and 165 for the last 7 days on treatment.", "reportingStatus": "POSTED", "paramType": "MEAN", "dispersionType": "Standard Error", "unitOfMeasure": "Number of puffs per 24 hours", "timeFrame": "Baseline and 12-Week Treatment Period", "groups": [{"id": "OG000", "title": "Fluticasone Propionate/Salmeterol HFA", "description": "Participants who were randomly assigned to Fluticasone Propionate/salmeterol 100/50 micrograms (\u00b5g) HFA (2 inhalations of 50/25 \u00b5g), twice daily for 12 weeks."}, {"id": "OG001", "title": "Fluticasone Propionate HFA", "description": "Participants who were randomly assigned to Fluticasone Propionate 100 \u00b5g HFA (2 inhalations of 50 \u00b5g), twice daily for 12 weeks."}], "denoms": [{"units": "Participants", "counts": [{"groupId": "OG000", "value": "173"}, {"groupId": "OG001", "value": "177"}]}], "classes": [{"title": "Baseline - Mean number of puffs", "categories": [{"measurements": [{"groupId": "OG000", "value": "1.5", "spread": "0.12"}, {"groupId": "OG001", "value": "1.8", "spread": "0.19"}]}]}, {"title": "Weeks 1-12 - Mean number of puffs", "categories": [{"measurements": [{"groupId": "OG000", "value": "1.0", "spread": "0.09"}, {"groupId": "OG001", "value": "0.9", "spread": "0.09"}]}]}, {"title": "Weeks 1-12 - Mean change from baseline", "categories": [{"measurements": [{"groupId": "OG000", "value": "-0.6", "spread": "0.12"}, {"groupId": "OG001", "value": "-1.0", "spread": "0.16"}]}]}, {"title": "Last 7 Days on Treatment - Mean number of puffs", "categories": [{"measurements": [{"groupId": "OG000", "value": "0.7", "spread": "0.11"}, {"groupId": "OG001", "value": "0.7", "spread": "0.11"}]}]}, {"title": "Last 7 Days on Treat. - Mean change from baseline", "categories": [{"measurements": [{"groupId": "OG000", "value": "0.15", "spread": "0.8"}, {"groupId": "OG001", "value": "-1.2", "spread": "0.19"}]}]}]}, {"type": "SECONDARY", "title": "Percent of Albuterol-free Days", "description": "Percentage of days when Albuterol use was unnecessary based on daily record and symptom free days.", "populationDescription": "Participants from the ITT population (not necessarily selected to show efficacy differences). Total numbers of participants analyzed for the Fluticasone propionate (FP)/salmeterol HFA and FP groups, respectively, were 168 and 174 at baseline; 166 and 172 at Weeks 1-12; and 157 and 165 for the last 7 days on treatment.", "reportingStatus": "POSTED", "paramType": "MEAN", "dispersionType": "Standard Error", "unitOfMeasure": "Percentage of days", "timeFrame": "Baseline and 12-Week Treatment Period", "groups": [{"id": "OG000", "title": "Fluticasone Propionate/Salmeterol HFA", "description": "Participants who were randomly assigned to Fluticasone Propionate/salmeterol 100/50 micrograms (\u00b5g) HFA (2 inhalations of 50/25 \u00b5g), twice daily for 12 weeks."}, {"id": "OG001", "title": "Fluticasone Propionate HFA", "description": "Participants who were randomly assigned to Fluticasone Propionate 100 \u00b5g HFA (2 inhalations of 50 \u00b5g), twice daily for 12 weeks."}], "denoms": [{"units": "Participants", "counts": [{"groupId": "OG000", "value": "173"}, {"groupId": "OG001", "value": "177"}]}], "classes": [{"title": "Baseline - Mean percent rescue free", "categories": [{"measurements": [{"groupId": "OG000", "value": "43.7", "spread": "2.85"}, {"groupId": "OG001", "value": "42.5", "spread": "3.04"}]}]}, {"title": "Weeks 1-12 - Mean percent rescue free", "categories": [{"measurements": [{"groupId": "OG000", "value": "67.1", "spread": "2.46"}, {"groupId": "OG001", "value": "70.0", "spread": "2.40"}]}]}, {"title": "Weeks 1-12 - Mean change from baseline", "categories": [{"measurements": [{"groupId": "OG000", "value": "23.6", "spread": "2.79"}, {"groupId": "OG001", "value": "28.3", "spread": "2.93"}]}]}, {"title": "Last 7 Days on Treat. - Mean percent rescue free", "categories": [{"measurements": [{"groupId": "OG000", "value": "75.4", "spread": "2.96"}, {"groupId": "OG001", "value": "75.8", "spread": "2.98"}]}]}, {"title": "Last 7 Days on Treat. - Mean change from baseline", "categories": [{"measurements": [{"groupId": "OG000", "value": "30.4", "spread": "3.50"}, {"groupId": "OG001", "value": "32.8", "spread": "3.58"}]}]}]}, {"type": "POST_HOC", "title": "Geometric Mean Values of 24-hour Urinary Cortisol Excretion at Baseline and Week 12", "description": "A post-hoc analysis excluding participants with urine cortisol baseline values of \\>200 nanomoles/24 hours. Geometric mean is the product of the values taken to the Nth root, where N is the number of values in the set of values.", "populationDescription": "Cortisol Population", "reportingStatus": "POSTED", "paramType": "GEOMETRIC_MEAN", "dispersionType": "Full Range", "unitOfMeasure": "Nanamoles per 24 hours (nmol/24 hrs)", "timeFrame": "Baseline and Week 12", "groups": [{"id": "OG000", "title": "Fluticasone Propionate/Salmeterol HFA", "description": "Samples provided by participants who were randomly assigned to Fluticasone Propionate/salmeterol 100/50 micrograms (\u00b5g) HFA (2 inhalations of 50/25 \u00b5g), twice daily for 12 weeks."}, {"id": "OG001", "title": "Fluticasone Propionate HFA", "description": "Samples provided by participants who were randomly assigned to Fluticasone Propionate 100 \u00b5g HFA (2 inhalations of 50 \u00b5g), twice daily for 12 weeks."}], "denoms": [{"units": "Participants", "counts": [{"groupId": "OG000", "value": "147"}, {"groupId": "OG001", "value": "140"}]}], "classes": [{"title": "Baseline - Geometric Mean", "categories": [{"measurements": [{"groupId": "OG000", "value": "32.71", "lowerLimit": "2.7", "upperLimit": "156.2"}, {"groupId": "OG001", "value": "28.39", "lowerLimit": "4.2", "upperLimit": "146.9"}]}]}, {"title": "Week 12 - Geometric Mean", "categories": [{"measurements": [{"groupId": "OG000", "value": "25.03", "lowerLimit": "1.7", "upperLimit": "152.6"}, {"groupId": "OG001", "value": "22.80", "lowerLimit": "5.3", "upperLimit": "145.8"}]}]}]}, {"type": "POST_HOC", "title": "Geometric Mean Ratio for Baseline:Week12 24-hour Urinary Cortisol Excretion", "description": "A post-hoc analysis excluding participants with urine cortisol baseline values of \\>200 nmol/24 hrs. The data provided are a direct calculation of the Week 12 geometric mean divided by the baseline value, nanomoles per 24 hours (nmol/24 hrs) .", "populationDescription": "Cortisol Population", "reportingStatus": "POSTED", "paramType": "NUMBER", "unitOfMeasure": "ratio", "timeFrame": "Baseline and Week 12", "groups": [{"id": "OG000", "title": "Fluticasone Propionate/Salmeterol HFA", "description": "Samples provided by participants who were randomly assigned to Fluticasone Propionate/salmeterol 100/50 micrograms (\u00b5g) HFA (2 inhalations of 50/25 \u00b5g), twice daily for 12 weeks."}, {"id": "OG001", "title": "Fluticasone Propionate HFA", "description": "Samples provided by participants who were randomly assigned to Fluticasone Propionate 100 \u00b5g HFA (2 inhalations of 50 \u00b5g), twice daily for 12 weeks."}], "denoms": [{"units": "Participants", "counts": [{"groupId": "OG000", "value": "147"}, {"groupId": "OG001", "value": "140"}]}], "classes": [{"categories": [{"measurements": [{"groupId": "OG000", "value": "0.77"}, {"groupId": "OG001", "value": "0.80"}]}]}]}, {"type": "POST_HOC", "title": "Geometric Mean Values of 24-hour Urinary Cortisol Excretion by Spacer Use Excluding Participants With Abnormal Urinary Cortisol Excretion Values at Baseline From the Cortisol Population at Baseline and Week 12", "description": "AeroChamber Plus spacers were provided for participants who demonstrated the inability to coordinate the use of an Meter Dose Inhaler at Visit 1. AeroChamber Plus spacer delivers 22% more medication than the original AeroChamber and is available in three mask sizes and without a mask. Geometric mean is the product of the values taken to the Nth root, where N is the number of values in the set of values.", "populationDescription": "Cortisol Population", "reportingStatus": "POSTED", "paramType": "GEOMETRIC_MEAN", "dispersionType": "Full Range", "unitOfMeasure": "Nanomoles per 24 hr (nmoles/24 hr)", "timeFrame": "Baseline and Week 12", "groups": [{"id": "OG000", "title": "No Spacer", "description": "Participants who did not use spacer and were in either treatment group"}, {"id": "OG001", "title": "Spacer", "description": "Participants who required a spacer and were in either treatment group"}], "denoms": [{"units": "Participants", "counts": [{"groupId": "OG000", "value": "58"}, {"groupId": "OG001", "value": "202"}]}], "classes": [{"title": "Baseline - Geometric Mean", "categories": [{"measurements": [{"groupId": "OG000", "value": "31.88", "lowerLimit": "7.9", "upperLimit": "81.7"}, {"groupId": "OG001", "value": "27.08", "lowerLimit": "3.6", "upperLimit": "166.3"}]}]}, {"title": "Week 12 - Geometric Mean", "categories": [{"measurements": [{"groupId": "OG000", "value": "27.85", "lowerLimit": "5.4", "upperLimit": "152.6"}, {"groupId": "OG001", "value": "22.38", "lowerLimit": "1.7", "upperLimit": "143.3"}]}]}]}, {"type": "POST_HOC", "title": "Geometric Mean Ratio for Baseline: Week 12 24-hour Urinary Cortisol Excretion by Spacer Use Excluding Participants With Abnormal Urinary Cortisol Excretion Values at Baseline From the Cortisol Population", "description": "AeroChamber Plus spacers were provided for participants who demonstrated the inability to coordinate the use of an Meter Dose Inhaler at Visit 1. AeroChamber Plus spacer delivers 22% more medication than the original AeroChamber and is available in three mask sizes and without a mask. The data provided are a direct calculation of the Week 12 geometric mean divided by the baseline value,nanomoles per 24 hours (nmol/24 hrs) .", "populationDescription": "Cortisol Population", "reportingStatus": "POSTED", "paramType": "NUMBER", "unitOfMeasure": "ratio", "timeFrame": "Baseline and Week 12", "groups": [{"id": "OG000", "title": "Spacer", "description": "Participants who did not use spacer and were in either treatment group"}, {"id": "OG001", "title": "No Spacer", "description": "Participants who required a spacer and were in either treatment group"}], "denoms": [{"units": "Participants", "counts": [{"groupId": "OG000", "value": "58"}, {"groupId": "OG001", "value": "202"}]}], "classes": [{"categories": [{"measurements": [{"groupId": "OG000", "value": "0.87"}, {"groupId": "OG001", "value": "0.83"}]}]}]}]}, "adverseEventsModule": {"frequencyThreshold": "5", "eventGroups": [{"id": "EG000", "title": "Fluticasone Propionate/Salmeterol HFA", "description": "Participants who were randomly assigned to Fluticasone Propionate/salmeterol 100/50 micrograms (\u00b5g) HFA (2 inhalations of 50/25 \u00b5g), twice daily for 12 weeks.", "seriousNumAffected": 1, "seriousNumAtRisk": 173, "otherNumAffected": 61, "otherNumAtRisk": 173}, {"id": "EG001", "title": "Fluticasone Propionate HFA", "description": "Participants who were randomly assigned to Fluticasone Propionate 100 \u00b5g HFA (2 inhalations of 50 \u00b5g), twice daily for 12 weeks.", "seriousNumAffected": 0, "seriousNumAtRisk": 177, "otherNumAffected": 68, "otherNumAtRisk": 177}], "seriousEvents": [{"term": "Head Injury due to fall", "organSystem": "Injury, poisoning and procedural complications", "sourceVocabulary": "MedDRA", "assessmentType": "NON_SYSTEMATIC_ASSESSMENT", "stats": [{"groupId": "EG000", "numAffected": 1, "numAtRisk": 173}, {"groupId": "EG001", "numAffected": 0, "numAtRisk": 177}]}], "otherEvents": [{"term": "Headache", "organSystem": "Nervous system disorders", "sourceVocabulary": "MedDRA", "assessmentType": "SYSTEMATIC_ASSESSMENT", "stats": [{"groupId": "EG000", "numAffected": 26, "numAtRisk": 173}, {"groupId": "EG001", "numAffected": 25, "numAtRisk": 177}]}, {"term": "Upper Respiratory Tract Infection", "organSystem": "Infections and infestations", "sourceVocabulary": "MedDRA", "assessmentType": "SYSTEMATIC_ASSESSMENT", "stats": [{"groupId": "EG000", "numAffected": 11, "numAtRisk": 173}, {"groupId": "EG001", "numAffected": 13, "numAtRisk": 177}]}, {"term": "Nasopharyngitis", "organSystem": "Infections and infestations", "sourceVocabulary": "MedDRA", "assessmentType": "SYSTEMATIC_ASSESSMENT", "stats": [{"groupId": "EG000", "numAffected": 16, "numAtRisk": 173}, {"groupId": "EG001", "numAffected": 21, "numAtRisk": 177}]}, {"term": "Pharyngitis", "organSystem": "Infections and infestations", "sourceVocabulary": "MedDRA", "assessmentType": "SYSTEMATIC_ASSESSMENT", "stats": [{"groupId": "EG000", "numAffected": 4, "numAtRisk": 173}, {"groupId": "EG001", "numAffected": 12, "numAtRisk": 177}]}, {"term": "Rhinitis", "organSystem": "Infections and infestations", "sourceVocabulary": "MedDRA", "assessmentType": "SYSTEMATIC_ASSESSMENT", "stats": [{"groupId": "EG000", "numAffected": 8, "numAtRisk": 173}, {"groupId": "EG001", "numAffected": 6, "numAtRisk": 177}]}, {"term": "Cough", "organSystem": "Respiratory, thoracic and mediastinal disorders", "sourceVocabulary": "MedDRA", "assessmentType": "SYSTEMATIC_ASSESSMENT", "stats": [{"groupId": "EG000", "numAffected": 9, "numAtRisk": 173}, {"groupId": "EG001", "numAffected": 7, "numAtRisk": 177}]}, {"term": "Pyrexia", "organSystem": "General disorders", "sourceVocabulary": "MedDRA", "assessmentType": "SYSTEMATIC_ASSESSMENT", "stats": [{"groupId": "EG000", "numAffected": 8, "numAtRisk": 173}, {"groupId": "EG001", "numAffected": 16, "numAtRisk": 177}]}]}, "moreInfoModule": {"limitationsAndCaveats": {"description": "A post-hoc evaluation confirmed that no clinically relevant ECG abnormalities were present. Differences in the primary and post-hoc analyses were associated with variation in the method of ECG interpretation and are not fully interpretable."}, "certainAgreement": {"piSponsorEmployee": false, "restrictionType": "OTHER", "restrictiveAgreement": true, "otherDetails": "GSK agreements may vary with individual investigators, but will not prohibit any investigator from publishing. GSK supports the publication of results from all centers of a multi-center trial but requests that reports based on single-site data not precede the primary publication of the entire clinical trial."}, "pointOfContact": {"title": "GSK Response Center", "organization": "GlaxoSmithKline", "phone": "866-435-7343"}}}, "derivedSection": {"miscInfoModule": {"versionHolder": "2024-06-24"}, "conditionBrowseModule": {"meshes": [{"id": "D000001249", "term": "Asthma"}], "ancestors": [{"id": "D000001982", "term": "Bronchial Diseases"}, {"id": "D000012140", "term": "Respiratory Tract Diseases"}, {"id": "D000008173", "term": "Lung Diseases, Obstructive"}, {"id": "D000008171", "term": "Lung Diseases"}, {"id": "D000012130", "term": "Respiratory Hypersensitivity"}, {"id": "D000006969", "term": "Hypersensitivity, Immediate"}, {"id": "D000006967", "term": "Hypersensitivity"}, {"id": "D000007154", "term": "Immune System Diseases"}], "browseLeaves": [{"id": "M27137", "name": "Respiratory Aspiration", "relevance": "LOW"}, {"id": "M4556", "name": "Asthma", "asFound": "Asthma", "relevance": "HIGH"}, {"id": "M5258", "name": "Bronchial Diseases", "relevance": "LOW"}, {"id": "M14977", "name": "Respiratory Tract Diseases", "relevance": "LOW"}, {"id": "M11168", "name": "Lung Diseases", "relevance": "LOW"}, {"id": "M11170", "name": "Lung Diseases, Obstructive", "relevance": "LOW"}, {"id": "M10018", "name": "Hypersensitivity", "relevance": "LOW"}, {"id": "M14967", "name": "Respiratory Hypersensitivity", "relevance": "LOW"}, {"id": "M10020", "name": "Hypersensitivity, Immediate", "relevance": "LOW"}, {"id": "M10200", "name": "Immune System Diseases", "relevance": "LOW"}], "browseBranches": [{"abbrev": "BC08", "name": "Respiratory Tract (Lung and Bronchial) Diseases"}, {"abbrev": "BC23", "name": "Symptoms and General Pathology"}, {"abbrev": "All", "name": "All Conditions"}, {"abbrev": "BC20", "name": "Immune System Diseases"}]}, "interventionBrowseModule": {"meshes": [{"id": "D000068298", "term": "Fluticasone"}, {"id": "C000716389", "term": "Xhance"}, {"id": "D000068299", "term": "Salmeterol Xinafoate"}], "ancestors": [{"id": "D000000893", "term": "Anti-Inflammatory Agents"}, {"id": "D000001993", "term": "Bronchodilator Agents"}, {"id": "D000001337", "term": "Autonomic Agents"}, {"id": "D000018373", "term": "Peripheral Nervous System Agents"}, {"id": "D000045505", "term": "Physiological Effects of Drugs"}, {"id": "D000018927", "term": "Anti-Asthmatic Agents"}, {"id": "D000019141", "term": "Respiratory System Agents"}, {"id": "D000003879", "term": "Dermatologic Agents"}, {"id": "D000018926", "term": "Anti-Allergic Agents"}, {"id": "D000058666", "term": "Adrenergic beta-2 Receptor Agonists"}, {"id": "D000000318", "term": "Adrenergic beta-Agonists"}, {"id": "D000000322", "term": "Adrenergic Agonists"}, {"id": "D000018663", "term": "Adrenergic Agents"}, {"id": "D000018377", "term": "Neurotransmitter Agents"}, {"id": "D000045504", "term": "Molecular Mechanisms of Pharmacological Action"}], "browseLeaves": [{"id": "M250", "name": "Fluticasone", "asFound": "Pembrolizumab", "relevance": "HIGH"}, {"id": "M353494", "name": "Xhance", "asFound": "Membrane", "relevance": "HIGH"}, {"id": "M251", "name": "Salmeterol Xinafoate", "asFound": "Metabolism", "relevance": "HIGH"}, {"id": "M4217", "name": "Anti-Inflammatory Agents", "relevance": "LOW"}, {"id": "M5269", "name": "Bronchodilator Agents", "relevance": "LOW"}, {"id": "M20963", "name": "Anti-Asthmatic Agents", "relevance": "LOW"}, {"id": "M21137", "name": "Respiratory System Agents", "relevance": "LOW"}, {"id": "M7074", "name": "Dermatologic Agents", "relevance": "LOW"}, {"id": "M20962", "name": "Anti-Allergic Agents", "relevance": "LOW"}, {"id": "M20746", "name": "Adrenergic Agents", "relevance": "LOW"}, {"id": "M3670", "name": "Adrenergic beta-Agonists", "relevance": "LOW"}, {"id": "M3673", "name": "Adrenergic Agonists", "relevance": "LOW"}, {"id": "M20504", "name": "Neurotransmitter Agents", "relevance": "LOW"}], "browseBranches": [{"abbrev": "AAll", "name": "Anti-Allergic Agents"}, {"abbrev": "Infl", "name": "Anti-Inflammatory Agents"}, {"abbrev": "Derm", "name": "Dermatologic Agents"}, {"abbrev": "Resp", "name": "Respiratory System Agents"}, {"abbrev": "All", "name": "All Drugs and Chemicals"}]}}, "hasResults": true}