{"protocolSection": {"identificationModule": {"nctId": "NCT00683696", "orgStudyIdInfo": {"id": "EchoCRT"}, "organization": {"fullName": "Biotronik, Inc.", "class": "INDUSTRY"}, "briefTitle": "Echocardiography Guided Cardiac Resynchronization Therapy (EchoCRT)", "officialTitle": "Echocardiography Guided Cardiac Resynchronization Therapy (EchoCRT)", "acronym": "EchoCRT"}, "statusModule": {"statusVerifiedDate": "2018-01", "overallStatus": "TERMINATED", "expandedAccessInfo": {"hasExpandedAccess": false}, "startDateStruct": {"date": "2008-08"}, "primaryCompletionDateStruct": {"date": "2013-03", "type": "ACTUAL"}, "completionDateStruct": {"date": "2013-03", "type": "ACTUAL"}, "studyFirstSubmitDate": "2007-08-30", "studyFirstSubmitQcDate": "2008-05-21", "studyFirstPostDateStruct": {"date": "2008-05-23", "type": "ESTIMATED"}, "resultsFirstSubmitDate": "2014-03-12", "resultsFirstSubmitQcDate": "2014-03-12", "resultsFirstPostDateStruct": {"date": "2014-04-17", "type": "ESTIMATED"}, "lastUpdateSubmitDate": "2018-01-12", "lastUpdatePostDateStruct": {"date": "2018-01-17", "type": "ACTUAL"}}, "sponsorCollaboratorsModule": {"responsibleParty": {"type": "SPONSOR"}, "leadSponsor": {"name": "Biotronik, Inc.", "class": "INDUSTRY"}, "collaborators": [{"name": "University of Zurich", "class": "OTHER"}]}, "oversightModule": {"oversightHasDmc": true}, "descriptionModule": {"briefSummary": "The EchoCRT trial evaluates the effects of Cardiac Resynchronization Therapy (CRT) on mortality and morbidity of subjects with heart failure due to left ventricular systolic dysfunction, already receiving optimized HF medication, with a narrow QRS width (\\< 130 ms) and echocardiographic evidence of ventricular dyssynchrony."}, "conditionsModule": {"conditions": ["Heart Failure", "Ventricular Dyssynchrony"], "keywords": ["Cardiac Resynchronization Therapy", "Heart Failure", "Ventricular Dyssynchrony", "Mechanical Dyssynchrony", "Intraventricular Dyssynchrony", "Echocardiography", "Normal QRS", "Heart Disease", "EchoCRT"]}, "designModule": {"studyType": "INTERVENTIONAL", "phases": ["PHASE2", "PHASE3"], "designInfo": {"allocation": "RANDOMIZED", "interventionModel": "PARALLEL", "primaryPurpose": "TREATMENT", "maskingInfo": {"masking": "TRIPLE", "whoMasked": ["PARTICIPANT", "INVESTIGATOR", "OUTCOMES_ASSESSOR"]}}, "enrollmentInfo": {"count": 1680, "type": "ACTUAL"}}, "armsInterventionsModule": {"armGroups": [{"label": "CRT=ON", "type": "EXPERIMENTAL", "description": "Cardiac Resynchronization Therapy activated.", "interventionNames": ["Device: Implantable Cardioverter Defibrillator with Cardiac Resynchronization Therapy (BIOTRONIK Lumax HF-T CRT-D)"]}, {"label": "CRT=OFF", "type": "ACTIVE_COMPARATOR", "description": "Cardiac Resynchronization Therapy deactivated.", "interventionNames": ["Device: Implantable Cardioverter Defibrillator with Cardiac Resynchronization Therapy (BIOTRONIK Lumax HF-T CRT-D)"]}], "interventions": [{"type": "DEVICE", "name": "Implantable Cardioverter Defibrillator with Cardiac Resynchronization Therapy (BIOTRONIK Lumax HF-T CRT-D)", "description": "All patients will receive a commercially available BIOTRONIK Lumax HF-T CRT-D system with ICD back-up enabled. Patients will be randomized to CRT=ON or CRT=OFF.", "armGroupLabels": ["CRT=OFF", "CRT=ON"], "otherNames": ["Lumax HF-T CRT-D system"]}]}, "outcomesModule": {"primaryOutcomes": [{"measure": "Composite Primary Endpoint: Number of Subjects With First Hospitalization for Worsening Heart Failure or Death", "description": "The primary efficacy endpoint will evaluate the effect of CRT=ON versus CRT=OFF in time to event of a combined endpoint of all-cause mortality or first hospitalization for worsening heart failure.", "timeFrame": "From date of randomization until date of death from any cause or date of first hospitalization for worsening heart failure, whichever came first, assessed up to date of study exit, with a mean treatment duration of 1.6 years"}, {"measure": "Number of Subjects That Underwent Implant Attempt Without System- or Implant-Related Complications (Complication-Free)", "description": "The primary safety endpoint will evaluate the complication-free rate of the Lumax HF-T CRT-D devices in the narrow QRS subject population.", "timeFrame": "6 months"}], "secondaryOutcomes": [{"measure": "Rate of Hospitalizations for Worsening Heart Failure (Hospitalizations Per Subject-year)", "description": "Evaluate the effects of CRT=ON compared to CRT=OFF on the rate of hospitalization for worsening heart failure (WHF).", "timeFrame": "Study duration from randomization to study exit"}, {"measure": "New York Heart Association (NYHA) Classification Change", "description": "Evaluate the effects of CRT=ON compared to CRT=OFF in relation to the change in NYHA classification.\n\nNYHA classes:\n\nClass I - Subjects with cardiac disease, but without resulting limitation of physical activity. Ordinary physical activity does not cause undue fatigue, palpitation,dyspnea, or anginal pain.\n\nClass II - Subjects with cardiac disease resulting in slight limitation of physical activity. They are comfortable at rest. Ordinary physical activity results in fatigue, palpitation, dyspnea, or anginal pain.\n\nClass III - Subjects with cardiac disease resulting in marked limitation of physical activity. They are comfortable at rest. Less than ordinary activity causes fatigue, palpitation, dyspnea, or anginal pain.\n\nClass IV - Subjects with cardiac disease resulting in inability to carry on any physical activity without discomfort. Symptoms of cardiac insufficiency or of anginal syndrome may be present even at rest. If any physical activity is undertaken, discomfort is increased.", "timeFrame": "6 months"}, {"measure": "Change in Quality of Life (QOL) Scores From Baseline to 6-Month Follow-up", "description": "Quality of Life was evaluated using the Minnesota Living with Heart Failure (MLHF) Quality of Life (QOL) Questionnaire.The questionnaire consists of 21 questions to measure the subjects' perception of how their HF and its treatment affected their ability to live as they wanted during the last month. The questions describe different ways in which some people are affected (i.e. physical, socioeconomic, and psychological impairments). If a question does not apply to a subject or is not related to their HF, then they can answer with a 0. If it does apply to them, then they can rate (from 1 to 5) how much it has affected them. From the 21 questions, the lowest possible total score is 0, and the highest possible total score is 105. A lower score is desirable. Therefore, a negative change in QOL score from baseline to 6 months represents an improvement in quality of life, while a positive change in QOL score from baseline to 6 months represents a worsening in quality of life.", "timeFrame": "Changes between baseline and 6 months"}, {"measure": "Composite Score of Death, Hospitalization for Worsening Heart Failure and Change in Quality of Life (QOL)", "description": "Evaluate the effects of CRT=ON compared to CRT=OFF in relation to a composite endpoint of all-cause mortality, hospitalization for worsening heart failure and change in the MLHF Quality of Life Questionnaire.\n\nThis composite endpoint used a weighted scoring scale based on the African-American Heart Failure Trial (A-HeFT) study Endpoint Score. (Taylor, AL, Ziesche, S, Yancy, C, et al. Combination of Isosorbide Dinitrate and Hydralazine in Blacks with Heart Failure. N Engl J Med 2004; 351:2049-57.)\n\nComposite Endpoint Scoring:\n\nVital Status:\n\nDeath (-3),\n\nSurvival to end of trial (0),\n\nHospitalization:\n\n1st hospitalization for HF (-1),\n\nNo hospitalization (0),\n\nQOL score:\\*\n\nImprovement by \u2265 10 units (+2),\n\nImprovement by 5-9 units (+1),\n\nChange by \\< 5 units (0),\n\nWorsening by 5-9 units (-1),\n\nWorsening by \u2265 10 (-2).\n\nPossible total score -6 to +2.\n\n\\*QOL score details are provided in Secondary Outcome Measure 5.", "timeFrame": "Composite of death, worsening heart failure hospitalization (up to 24 months), and change in QOL (at 6 months)"}, {"measure": "Number of Subjects With All-cause Mortality", "description": "Evaluate the all-cause mortality rate between the CRT=ON compared to CRT=OFF group.", "timeFrame": "From date of randomization up to date of study exit, with a mean treatment duration of 1.6 years"}]}, "eligibilityModule": {"eligibilityCriteria": "Inclusion Criteria:\n\n* Men and women 18 years of age or older.\n* Understand the nature of the procedure.\n* Give written informed consent.\n* Willing and able to complete all testing required by the clinical protocol.\n* Indication for an implantable cardioverter defibrillator (ICD).\n* NYHA class III-IV within the last three months prior to enrollment and at baseline (at baseline only: also Stage C according to ACC/AHA guidelines).\n* Stable optimal pharmacologic therapy for HF.\n* An ejection fraction \u2264 35% within one year prior to enrollment and confirmed on the baseline echocardiogram.\n* Increased left ventricular dimension, defined as LVEDD \u2265 55 mm.\n* Resting QRS duration \\< 130 ms evidenced by a historical 12-lead ECG prior to enrollment and at baseline.\n* Ventricular dyssynchrony assessed by echocardiography locally and confirmed by the echo core lab. One of the two following criteria has to be present to include the subject in the study:\n\n  * Intra-left ventricular dyssynchrony measured by color Tissue Doppler Imaging (TDI) with an opposing wall delay of \u2265 80 ms in the 4-chamber or apical long-axis view.\n  * Speckle-tracking radial strain septal-posterior wall delay \u2265 130 ms.\n\nExclusion Criteria:\n\n* Implanted pacemaker or defibrillator with \\>10% ventricular pacing, as demonstrated by device statistics averaged over at least the last three months prior to enrollment.\n* Women who are pregnant, lactating, or planning to become pregnant during the course of the trial.\n* Bradycardia pacing indication.\n* Surgically correctable primary valvular heart disease, i.e. aortic stenosis, torn cordae, or flail segment.\n* Coronary artery bypass graft surgery or percutaneous coronary intervention (balloon and/or stent angioplasty) within the past 3 months prior to enrollment.\n* Enzyme-positive myocardial infarction within the past 3 months prior to enrollment.\n* Angiographic evidence of coronary disease, candidates for coronary revascularization likely to undergo coronary artery bypass graft surgery or percutaneous coronary intervention in the next 3 months.\n* Irreversible brain damage from preexisting cerebral disease.\n* Reversible non-ischemic cardiomyopathy such as acute viral myocarditis.\n* Permanent second or third degree heart block.\n* Chagas disease.\n* Persistent or paroxysmal atrial fibrillation within one month prior to enrollment.\n* Expected to receive heart transplantation within six months.\n* Current inotropic therapy.\n* Acutely decompensated heart failure.\n* Contrast dye allergy and unable or unwilling to undergo pretreatment with steroids and/or diphenhydramine.\n* Life expectancy of less than six months.\n* Presence of any disease, other than the subject's cardiac disease associated with a reduced likelihood of survival for the duration of the trial, (e.g. cancer).\n* Significant renal insufficiency defined as a serum creatinine \\> 2.5 mg/dL (\\> 221 \u00b5mol/L) within the last four weeks prior to enrollment..\n* Liver failure, defined as three times the upper limit of normal for aminotransferases.\n* Participation in any other clinical trial.\n* Unable to return for follow-up visits due to distance from the clinic.\n* Do not anticipate being a resident of the area for the scheduled duration of the trial.", "healthyVolunteers": false, "sex": "ALL", "minimumAge": "18 Years", "stdAges": ["ADULT", "OLDER_ADULT"]}, "contactsLocationsModule": {"overallOfficials": [{"name": "Frank Ruschitzka, MD", "affiliation": "University of Zurich, Switzerland", "role": "STUDY_CHAIR"}, {"name": "Johannes Holzmeister, MD", "affiliation": "University of Zurich, Switzerland", "role": "STUDY_CHAIR"}, {"name": "William Abraham, MD", "affiliation": "Principal Investigator (USA) at The Ohio State University, OH, USA", "role": "PRINCIPAL_INVESTIGATOR"}, {"name": "Jagmeet Singh, MD", "affiliation": "Principal Investigator (USA) at Massachusetts General Hospital, MA, USA", "role": "PRINCIPAL_INVESTIGATOR"}], "locations": [{"facility": "John Muir Medical Center", "city": "Concord", "state": "California", "zip": "94520", "country": "United States", "geoPoint": {"lat": 37.97798, "lon": -122.03107}}, {"facility": "Cedars-Sinai Medical Center", "city": "Los Angeles", "state": "California", "zip": "90048", "country": "United States", "geoPoint": {"lat": 34.05223, "lon": -118.24368}}, {"facility": "Desert Cardiology", "city": "Rancho Mirage", "state": "California", "zip": "92270", "country": "United States", "geoPoint": {"lat": 33.73974, "lon": -116.41279}}, {"facility": "University of California San Francisco", "city": "San Francisco", "state": "California", "zip": "94143", "country": "United States", "geoPoint": {"lat": 37.77493, "lon": -122.41942}}, {"facility": "Cardiology Associates Medical Group", "city": "Ventura", "state": "California", "zip": "93003", "country": "United States", "geoPoint": {"lat": 34.27834, "lon": -119.29317}}, {"facility": "Hartford Hospital", "city": "Hartford", "state": "Connecticut", "zip": "06102", "country": "United States", "geoPoint": {"lat": 41.76371, "lon": -72.68509}}, {"facility": "Osceola Regional Medical Center", "city": "Kissimmee", "state": "Florida", "zip": "34741", "country": "United States", "geoPoint": {"lat": 28.30468, "lon": -81.41667}}, {"facility": "University of Miami", "city": "Miami", "state": "Florida", "zip": "33136", "country": "United States", "geoPoint": {"lat": 25.77427, "lon": -80.19366}}, {"facility": "Tampa General Hospital", "city": "Tampa", "state": "Florida", "zip": "33606", "country": "United States", "geoPoint": {"lat": 27.94752, "lon": -82.45843}}, {"facility": "Tampa General Medical Center", "city": "Tampa", "state": "Florida", "country": "United States", "geoPoint": {"lat": 27.94752, "lon": -82.45843}}, {"facility": "Piedmont Hospital", "city": "Atlanta", "state": "Georgia", "zip": "30309", "country": "United States", "geoPoint": {"lat": 33.749, "lon": -84.38798}}, {"facility": "Emory University", "city": "Atlanta", "state": "Georgia", "zip": "30322", "country": "United States", "geoPoint": {"lat": 33.749, "lon": -84.38798}}, {"facility": "Saint Joseph's Hospital", "city": "Atlanta", "state": "Georgia", "country": "United States", "geoPoint": {"lat": 33.749, "lon": -84.38798}}, {"facility": "Northwestern University", "city": "Chicago", "state": "Illinois", "zip": "60611", "country": "United States", "geoPoint": {"lat": 41.85003, "lon": -87.65005}}, {"facility": "St. Francis Medical Group", "city": "Indianapolis", "state": "Indiana", "zip": "46237", "country": "United States", "geoPoint": {"lat": 39.76838, "lon": -86.15804}}, {"facility": "Community Heart and Vascular", "city": "Indianapolis", "state": "Indiana", "zip": "46250", "country": "United States", "geoPoint": {"lat": 39.76838, "lon": -86.15804}}, {"facility": "Central Baptist Hospital", "city": "Lexington", "state": "Kentucky", "zip": "40503", "country": "United States", "geoPoint": {"lat": 37.98869, "lon": -84.47772}}, {"facility": "Massachusetts General Hospital", "city": "Boston", "state": "Massachusetts", "zip": "02114-2696", "country": "United States", "geoPoint": {"lat": 42.35843, "lon": -71.05977}}, {"facility": "Boston Medical Center", "city": "Boston", "state": "Massachusetts", "zip": "02118", "country": "United States", "geoPoint": {"lat": 42.35843, "lon": -71.05977}}, {"facility": "Beth Israel Deaconess Medical Center", "city": "Boston", "state": "Massachusetts", "zip": "02215", "country": "United States", "geoPoint": {"lat": 42.35843, "lon": -71.05977}}, {"facility": "Boston Medical Center", "city": "Boston", "state": "Massachusetts", "country": "United States", "geoPoint": {"lat": 42.35843, "lon": -71.05977}}, {"facility": "University of Massachusetts", "city": "Worcester", "state": "Massachusetts", "zip": "01655", "country": "United States", "geoPoint": {"lat": 42.26259, "lon": -71.80229}}, {"facility": "Bay Regional Medical Center", "city": "Bay City", "state": "Michigan", "zip": "48708", "country": "United States", "geoPoint": {"lat": 43.59447, "lon": -83.88886}}, {"facility": "Thoracic & Cardiovascular Healthcare Foundation", "city": "Lansing", "state": "Michigan", "zip": "48910", "country": "United States", "geoPoint": {"lat": 42.73253, "lon": -84.55553}}, {"facility": "Michigan Heart, P.C./ St. Joseph Mercy Hospital", "city": "Ypsilanti", "state": "Michigan", "zip": "48197", "country": "United States", "geoPoint": {"lat": 42.24115, "lon": -83.61299}}, {"facility": "United Heart and Vascular Center", "city": "Saint Paul", "state": "Minnesota", "zip": "55102", "country": "United States", "geoPoint": {"lat": 44.94441, "lon": -93.09327}}, {"facility": "North Mississippi Medical Center", "city": "Tupelo", "state": "Mississippi", "country": "United States", "geoPoint": {"lat": 34.25807, "lon": -88.70464}}, {"facility": "Kansas City Heart Foundation", "city": "Kansas City", "state": "Missouri", "zip": "64132", "country": "United States", "geoPoint": {"lat": 39.09973, "lon": -94.57857}}, {"facility": "Research Medical Center", "city": "Kansas City", "state": "Missouri", "zip": "64132", "country": "United States", "geoPoint": {"lat": 39.09973, "lon": -94.57857}}, {"facility": "Research Medical Center", "city": "Kansas City", "state": "Missouri", "country": "United States", "geoPoint": {"lat": 39.09973, "lon": -94.57857}}, {"facility": "Washington University", "city": "Saint Louis", "state": "Missouri", "zip": "63102", "country": "United States", "geoPoint": {"lat": 38.62727, "lon": -90.19789}}, {"facility": "Deborah Heart and Lung Center", "city": "Browns Mills", "state": "New Jersey", "zip": "08015", "country": "United States", "geoPoint": {"lat": 39.97261, "lon": -74.58293}}, {"facility": "Montefiore Medical Center", "city": "Bronx", "state": "New York", "zip": "10467", "country": "United States", "geoPoint": {"lat": 40.84985, "lon": -73.86641}}, {"facility": "St. Lukes-Roosevelt Hospital Center", "city": "New York", "state": "New York", "zip": "10025", "country": "United States", "geoPoint": {"lat": 40.71427, "lon": -74.00597}}, {"facility": "University of Rochester", "city": "Rochester", "state": "New York", "zip": "14642", "country": "United States", "geoPoint": {"lat": 43.15478, "lon": -77.61556}}, {"facility": "Stony Brook University Medical Center", "city": "Stony Brook", "state": "New York", "zip": "11794", "country": "United States", "geoPoint": {"lat": 40.92565, "lon": -73.14094}}, {"facility": "Sanger Heart & Vascular Institute", "city": "Charlotte", "state": "North Carolina", "zip": "28203", "country": "United States", "geoPoint": {"lat": 35.22709, "lon": -80.84313}}, {"facility": "Duke University", "city": "Durham", "state": "North Carolina", "country": "United States", "geoPoint": {"lat": 35.99403, "lon": -78.89862}}, {"facility": "Lindner Clinical Trial Center", "city": "Cincinnati", "state": "Ohio", "zip": "45219", "country": "United States", "geoPoint": {"lat": 39.12713, "lon": -84.51435}}, {"facility": "University of Cincinnati", "city": "Cincinnati", "state": "Ohio", "zip": "45219", "country": "United States", "geoPoint": {"lat": 39.12713, "lon": -84.51435}}, {"facility": "Cleveland Clinic", "city": "Cleveland", "state": "Ohio", "zip": "44145", "country": "United States", "geoPoint": {"lat": 41.4995, "lon": -81.69541}}, {"facility": "The Ohio State University Richard M. Ross Heart Hospital", "city": "Columbus", "state": "Ohio", "zip": "43210", "country": "United States", "geoPoint": {"lat": 39.96118, "lon": -82.99879}}, {"facility": "Promedica Northwest Ohio Cardiology Consultants", "city": "Toledo", "state": "Ohio", "zip": "43615", "country": "United States", "geoPoint": {"lat": 41.66394, "lon": -83.55521}}, {"facility": "Oregon Health Sciences University", "city": "Portland", "state": "Oregon", "zip": "97239", "country": "United States", "geoPoint": {"lat": 45.52345, "lon": -122.67621}}, {"facility": "Lehigh Valley Heart Specialists", "city": "Allentown", "state": "Pennsylvania", "zip": "18103", "country": "United States", "geoPoint": {"lat": 40.60843, "lon": -75.49018}}, {"facility": "Drexel Cardiology", "city": "Philadelphia", "state": "Pennsylvania", "zip": "19107", "country": "United States", "geoPoint": {"lat": 39.95233, "lon": -75.16379}}, {"facility": "Jefferson Heart Institute, Thomas Jefferson University Hospital", "city": "Philadelphia", "state": "Pennsylvania", "zip": "19107", "country": "United States", "geoPoint": {"lat": 39.95233, "lon": -75.16379}}, {"facility": "University of Pittsburgh Medical Center", "city": "Pittsburgh", "state": "Pennsylvania", "zip": "15213", "country": "United States", "geoPoint": {"lat": 40.44062, "lon": -79.99589}}, {"facility": "South Carolina Heart Center", "city": "Columbia", "state": "South Carolina", "zip": "29204", "country": "United States", "geoPoint": {"lat": 34.00071, "lon": -81.03481}}, {"facility": "The Stern Cardiovascular Center", "city": "Memphis", "state": "Tennessee", "zip": "38138", "country": "United States", "geoPoint": {"lat": 35.14953, "lon": -90.04898}}, {"facility": "Cardiology Center of Amarillo", "city": "Amarillo", "state": "Texas", "zip": "79106", "country": "United States", "geoPoint": {"lat": 35.222, "lon": -101.8313}}, {"facility": "Texas Cardiac Arrhythmia", "city": "Austin", "state": "Texas", "zip": "78705", "country": "United States", "geoPoint": {"lat": 30.26715, "lon": -97.74306}}, {"facility": "Cardiology Associates of Corpus Christi", "city": "Corpus Christi", "state": "Texas", "zip": "78404", "country": "United States", "geoPoint": {"lat": 27.80058, "lon": -97.39638}}, {"facility": "University of Virginia", "city": "Charlottesville", "state": "Virginia", "zip": "22908", "country": "United States", "geoPoint": {"lat": 38.02931, "lon": -78.47668}}, {"facility": "INOVA Fairfax Hospital", "city": "Falls Church", "state": "Virginia", "zip": "22042", "country": "United States", "geoPoint": {"lat": 38.88233, "lon": -77.17109}}, {"facility": "Bon Secours Heart & Vascular Institute", "city": "Mechanicsville", "state": "Virginia", "zip": "23116", "country": "United States", "geoPoint": {"lat": 37.60876, "lon": -77.37331}}, {"facility": "Virginia Cardiovascular Specialists", "city": "Richmond", "state": "Virginia", "zip": "23225", "country": "United States", "geoPoint": {"lat": 37.55376, "lon": -77.46026}}, {"facility": "Bon Secours Heart & Vascular Institute", "city": "Richmond", "state": "Virginia", "country": "United States", "geoPoint": {"lat": 37.55376, "lon": -77.46026}}, {"facility": "Virginia Cardiovascular Specialists", "city": "Richmond", "state": "Virginia", "country": "United States", "geoPoint": {"lat": 37.55376, "lon": -77.46026}}, {"facility": "Cardiovascular Associates Ltd", "city": "Virginia Beach", "state": "Virginia", "zip": "23454", "country": "United States", "geoPoint": {"lat": 36.85293, "lon": -75.97799}}, {"facility": "Kootenai Heart Clinics", "city": "Spokane", "state": "Washington", "zip": "99204", "country": "United States", "geoPoint": {"lat": 47.65966, "lon": -117.42908}}, {"facility": "Aurora Cardiovascular Services", "city": "Milwaukee", "state": "Wisconsin", "zip": "53215", "country": "United States", "geoPoint": {"lat": 43.0389, "lon": -87.90647}}, {"facility": "Flinders Medical Center Adelaide", "city": "Adelaide", "country": "Australia", "geoPoint": {"lat": -34.92866, "lon": 138.59863}}, {"facility": "Princess Alexandra Hospital", "city": "Brisbane", "country": "Australia", "geoPoint": {"lat": -27.46794, "lon": 153.02809}}, {"facility": "St. Vincent's Hospital", "city": "Melbourne", "country": "Australia", "geoPoint": {"lat": -37.814, "lon": 144.96332}}, {"facility": "Sir Charles Gairdner Hospital", "city": "Nedland", "country": "Australia"}, {"facility": "Royal Perth Hospital", "city": "Perth", "country": "Australia", "geoPoint": {"lat": -31.95224, "lon": 115.8614}}, {"facility": "LKH Universitatsklinikum Graz", "city": "Graz", "country": "Austria", "geoPoint": {"lat": 47.06667, "lon": 15.45}}, {"facility": "OLV Hospital (OLV Ziekenhuis) Aalst", "city": "Aalst", "country": "Belgium", "geoPoint": {"lat": 50.93604, "lon": 4.0355}}, {"facility": "Universitair Ziekenhuis Brussel", "city": "Brussels", "country": "Belgium", "geoPoint": {"lat": 50.85045, "lon": 4.34878}}, {"facility": "UHN Toronto General Hospital", "city": "Toronto", "state": "Ontario", "country": "Canada", "geoPoint": {"lat": 43.70011, "lon": -79.4163}}, {"facility": "Edmonton Cardiology", "city": "Edmonton", "country": "Canada", "geoPoint": {"lat": 53.55014, "lon": -113.46871}}, {"facility": "Olomouc University Hospital", "city": "Olomouc", "country": "Czechia", "geoPoint": {"lat": 49.59552, "lon": 17.25175}}, {"facility": "IKEM - Institute for Clinical and Experimental Medicine", "city": "Prague", "country": "Czechia", "geoPoint": {"lat": 50.08804, "lon": 14.42076}}, {"facility": "Na Homolce Hospital", "city": "Prague", "country": "Czechia", "geoPoint": {"lat": 50.08804, "lon": 14.42076}}, {"facility": "Aalborg Sygehus", "city": "Aalborg", "country": "Denmark", "geoPoint": {"lat": 57.048, "lon": 9.9187}}, {"facility": "Skejby Sygehus Aarhus", "city": "Aarhus", "country": "Denmark", "geoPoint": {"lat": 56.15674, "lon": 10.21076}}, {"facility": "Rigshospitalet", "city": "Copenhagen", "country": "Denmark", "geoPoint": {"lat": 55.67594, "lon": 12.56553}}, {"facility": "Gentofte Hospital", "city": "Hellerup", "country": "Denmark", "geoPoint": {"lat": 55.73204, "lon": 12.57093}}, {"facility": "Nouvelles Cliniques Nantes", "city": "Nantes", "country": "France", "geoPoint": {"lat": 47.21725, "lon": -1.55336}}, {"facility": "CHU Pontchaillou de Rennes", "city": "Rennes", "country": "France", "geoPoint": {"lat": 48.11198, "lon": -1.67429}}, {"facility": "CHU Charles Nicolle", "city": "Rouen", "country": "France", "geoPoint": {"lat": 49.44313, "lon": 1.09932}}, {"facility": "Herz- und Diabeteszentrum NRW", "city": "Bad Oeynhausen", "country": "Germany", "geoPoint": {"lat": 52.20699, "lon": 8.80365}}, {"facility": "Charite Campus Virchow Klinikum", "city": "Berlin", "country": "Germany", "geoPoint": {"lat": 52.52437, "lon": 13.41053}}, {"facility": "Judisches Krankenhaus Berlin", "city": "Berlin", "country": "Germany", "geoPoint": {"lat": 52.52437, "lon": 13.41053}}, {"facility": "Evangelisch-Freikirchliches Krankenhaus und Herzzentrum Brandenburg in Bernau", "city": "Bernau", "country": "Germany", "geoPoint": {"lat": 52.67982, "lon": 13.58708}}, {"facility": "Alfried Krupp Krankenhaus", "city": "Essen", "country": "Germany", "geoPoint": {"lat": 51.45657, "lon": 7.01228}}, {"facility": "Elisabeth-Krankenhaus Essen", "city": "Essen", "country": "Germany", "geoPoint": {"lat": 51.45657, "lon": 7.01228}}, {"facility": "Westdeutsches Herzzentrum Essen", "city": "Essen", "country": "Germany", "geoPoint": {"lat": 51.45657, "lon": 7.01228}}, {"facility": "Asklepios Klinik St. Georg Hamburg", "city": "Hamburg", "country": "Germany", "geoPoint": {"lat": 53.57532, "lon": 10.01534}}, {"facility": "Universitares Herzzentrum Hamburg GmbH", "city": "Hamburg", "country": "Germany", "geoPoint": {"lat": 53.57532, "lon": 10.01534}}, {"facility": "Universitatsklinikum Jena", "city": "Jena", "country": "Germany", "geoPoint": {"lat": 50.92878, "lon": 11.5899}}, {"facility": "Herzzentrum Leipzig GmbH", "city": "Leipzig", "country": "Germany", "geoPoint": {"lat": 51.33962, "lon": 12.37129}}, {"facility": "St. Marien Hospital Lunen", "city": "Lunen", "country": "Germany", "geoPoint": {"lat": 51.61634, "lon": 7.52872}}, {"facility": "Klinikum L\u00fcdenscheid", "city": "L\u00fcdenscheid", "country": "Germany", "geoPoint": {"lat": 51.21977, "lon": 7.6273}}, {"facility": "University Hospital of Magdeburg", "city": "Magdeburg", "country": "Germany", "geoPoint": {"lat": 52.12773, "lon": 11.62916}}, {"facility": "Barzilai Medical Center", "city": "Ashkelon", "country": "Israel", "geoPoint": {"lat": 31.66926, "lon": 34.57149}}, {"facility": "Soroka Medical Center", "city": "Beer Sheva", "country": "Israel", "geoPoint": {"lat": 31.25181, "lon": 34.7913}}, {"facility": "Hadassah Medical Organization", "city": "Jerusalem", "country": "Israel", "geoPoint": {"lat": 31.76904, "lon": 35.21633}}, {"facility": "Sourasky Medical Center", "city": "Tel Aviv", "country": "Israel", "geoPoint": {"lat": 32.08088, "lon": 34.78057}}, {"facility": "Sheba Medical Center", "city": "Tel Hashomer", "country": "Israel", "geoPoint": {"lat": 32.04195, "lon": 34.85623}}, {"facility": "A.O.U. Consorziale Policlinico di Bari", "city": "Bari", "country": "Italy", "geoPoint": {"lat": 41.11148, "lon": 16.8554}}, {"facility": "A.O. Spedali Civili di Brescia", "city": "Brescia", "country": "Italy", "geoPoint": {"lat": 45.53558, "lon": 10.21472}}, {"facility": "P.O. Santa Maria di Loreto Nuovo", "city": "Naples", "country": "Italy", "geoPoint": {"lat": 40.85216, "lon": 14.26811}}, {"facility": "A.O.U. Maggiore della Carita", "city": "Novara", "country": "Italy", "geoPoint": {"lat": 45.44694, "lon": 8.62118}}, {"facility": "VU MC Amsterdam", "city": "Amsterdam", "country": "Netherlands", "geoPoint": {"lat": 52.37403, "lon": 4.88969}}, {"facility": "Leiden University Medical Center", "city": "Leiden", "country": "Netherlands", "geoPoint": {"lat": 52.15833, "lon": 4.49306}}, {"facility": "Instytut Kardiologii", "city": "Warsaw", "country": "Poland", "geoPoint": {"lat": 52.22977, "lon": 21.01178}}, {"facility": "4 Wojskowy Szpital Kliniczny", "city": "Wroclaw", "country": "Poland", "geoPoint": {"lat": 51.1, "lon": 17.03333}}, {"facility": "Hospital Santa Maria de Lisboa", "city": "Lisbon", "country": "Portugal", "geoPoint": {"lat": 38.71667, "lon": -9.13333}}, {"facility": "Hospital Santa Marta", "city": "Lisbon", "country": "Portugal", "geoPoint": {"lat": 38.71667, "lon": -9.13333}}, {"facility": "University of Alicante General Hospital", "city": "Alicante", "country": "Spain", "geoPoint": {"lat": 38.34517, "lon": -0.48149}}, {"facility": "Hospital Clinic of Barcelona", "city": "Barcelona", "country": "Spain", "geoPoint": {"lat": 41.38879, "lon": 2.15899}}, {"facility": "Hopitaux Universitaires de Geneve", "city": "Geneve", "country": "Switzerland", "geoPoint": {"lat": 46.20222, "lon": 6.14569}}, {"facility": "CHU Vaudois Lausanne", "city": "Lausanne", "country": "Switzerland", "geoPoint": {"lat": 46.516, "lon": 6.63282}}, {"facility": "Triemli Hospital (Stadtspital Triemli)", "city": "Zurich", "country": "Switzerland", "geoPoint": {"lat": 47.36667, "lon": 8.54999}}, {"facility": "University of Zurich Hospital", "city": "Zurich", "country": "Switzerland", "geoPoint": {"lat": 47.36667, "lon": 8.54999}}, {"facility": "University Hospitals of Coventry and Warwickshire", "city": "Coventry", "country": "United Kingdom", "geoPoint": {"lat": 52.40656, "lon": -1.51217}}, {"facility": "Glenfield Hospital", "city": "Leicester", "country": "United Kingdom", "geoPoint": {"lat": 52.6386, "lon": -1.13169}}, {"facility": "St. George's Hospital", "city": "London", "country": "United Kingdom", "geoPoint": {"lat": 51.50853, "lon": -0.12574}}, {"facility": "St. Thomas' Hospital", "city": "London", "country": "United Kingdom", "geoPoint": {"lat": 51.50853, "lon": -0.12574}}, {"facility": "Russells Hall Hospital", "city": "West Midlands", "country": "United Kingdom"}]}, "referencesModule": {"references": [{"pmid": "29807890", "type": "DERIVED", "citation": "Varma N, Sogaard P, Bax JJ, Abraham WT, Borer JS, Dickstein K, Singh JP, Gras D, Holzmeister J, Brugada J, Ruschitzka F. Interaction of Left Ventricular Size and Sex on Outcome of Cardiac Resynchronization Therapy Among Patients With a Narrow QRS Duration in the EchoCRT Trial. J Am Heart Assoc. 2018 May 27;7(11):e009592. doi: 10.1161/JAHA.118.009592. Erratum In: J Am Heart Assoc. 2018 Jun 17;7(12):"}, {"pmid": "29566816", "type": "DERIVED", "citation": "Tayal B, Gorcsan J 3rd, Bax JJ, Risum N, Olsen NT, Singh JP, Abraham WT, Borer JS, Dickstein K, Gras D, Krum H, Brugada J, Robertson M, Ford I, Holzmeister J, Ruschitzka F, Sogaard P. Cardiac Resynchronization Therapy in Patients With Heart Failure and Narrow QRS Complexes. J Am Coll Cardiol. 2018 Mar 27;71(12):1325-1333. doi: 10.1016/j.jacc.2018.01.042."}, {"pmid": "27282848", "type": "DERIVED", "citation": "Steffel J, Varma N, Robertson M, Singh JP, Bax JJ, Borer JS, Dickstein K, Ford I, Gorcsan J 3rd, Gras D, Krum H, Sogaard P, Holzmeister J, Brugada J, Abraham WT, Ruschitzka F. Effect of Gender on Outcomes After Cardiac Resynchronization Therapy in Patients With a Narrow QRS Complex: A Subgroup Analysis of the EchoCRT Trial. Circ Arrhythm Electrophysiol. 2016 Jun;9(6):e003924. doi: 10.1161/CIRCEP.115.003924."}, {"pmid": "23998714", "type": "DERIVED", "citation": "Ruschitzka F, Abraham WT, Singh JP, Bax JJ, Borer JS, Brugada J, Dickstein K, Ford I, Gorcsan J 3rd, Gras D, Krum H, Sogaard P, Holzmeister J; EchoCRT Study Group. Cardiac-resynchronization therapy in heart failure with a narrow QRS complex. N Engl J Med. 2013 Oct 10;369(15):1395-405. doi: 10.1056/NEJMoa1306687. Epub 2013 Sep 2."}]}}, "resultsSection": {"participantFlowModule": {"preAssignmentDetails": "After enrollment, baseline eligibility criteria were assessed (e.g. ventricular dyssynchrony, NYHA, QRS width, etc.) to qualify for implant. 1680 subjects were enrolled. 825 subjects did not qualify for implant and were exited from the study. 855 subjects qualified for implant. 821 subjects were successfully implanted. 809 subjects were randomized.", "groups": [{"id": "FG000", "title": "CRT=ON", "description": "Cardiac Resynchronization Therapy activated.\n\nSubject implanted with BIOTRONIK Lumax HF-T CRT-D system with ICD back-up enabled and randomized to CRT=ON."}, {"id": "FG001", "title": "CRT=OFF", "description": "Cardiac Resynchronization Therapy deactivated.\n\nSubject implanted with BIOTRONIK Lumax HF-T CRT-D system with ICD back-up enabled and randomized to CRT=OFF."}], "periods": [{"title": "Overall Study", "milestones": [{"type": "STARTED", "achievements": [{"groupId": "FG000", "numSubjects": "404"}, {"groupId": "FG001", "numSubjects": "405"}]}, {"type": "COMPLETED", "achievements": [{"groupId": "FG000", "numSubjects": "0"}, {"groupId": "FG001", "numSubjects": "0"}]}, {"type": "NOT COMPLETED", "achievements": [{"groupId": "FG000", "numSubjects": "404"}, {"groupId": "FG001", "numSubjects": "405"}]}], "dropWithdraws": [{"type": "Withdrawn due to study closure", "reasons": [{"groupId": "FG000", "numSubjects": "337"}, {"groupId": "FG001", "numSubjects": "338"}]}, {"type": "Withdrawn prior to study closure", "reasons": [{"groupId": "FG000", "numSubjects": "13"}, {"groupId": "FG001", "numSubjects": "28"}]}, {"type": "Lost to Follow-up", "reasons": [{"groupId": "FG000", "numSubjects": "5"}, {"groupId": "FG001", "numSubjects": "6"}]}, {"type": "Vital status follow-up only", "reasons": [{"groupId": "FG000", "numSubjects": "3"}, {"groupId": "FG001", "numSubjects": "3"}]}, {"type": "Death", "reasons": [{"groupId": "FG000", "numSubjects": "46"}, {"groupId": "FG001", "numSubjects": "30"}]}]}]}, "baselineCharacteristicsModule": {"populationDescription": "Baseline characterisics were analzed for the randomized population.", "groups": [{"id": "BG000", "title": "CRT=ON", "description": "Cardiac Resynchronization Therapy activated."}, {"id": "BG001", "title": "CRT=OFF", "description": "Cardiac Resynchronization Therapy deactivated."}, {"id": "BG002", "title": "Total", "description": "Total of all reporting groups"}], "denoms": [{"units": "Participants", "counts": [{"groupId": "BG000", "value": "404"}, {"groupId": "BG001", "value": "405"}, {"groupId": "BG002", "value": "809"}]}], "measures": [{"title": "Age, Continuous", "paramType": "MEAN", "dispersionType": "STANDARD_DEVIATION", "unitOfMeasure": "years", "classes": [{"categories": [{"measurements": [{"groupId": "BG000", "value": "57.6", "spread": "12.9"}, {"groupId": "BG001", "value": "58.3", "spread": "12.6"}, {"groupId": "BG002", "value": "58.0", "spread": "12.7"}]}]}]}, {"title": "Sex: Female, Male", "paramType": "COUNT_OF_PARTICIPANTS", "unitOfMeasure": "Participants", "classes": [{"categories": [{"title": "Female", "measurements": [{"groupId": "BG000", "value": "110"}, {"groupId": "BG001", "value": "114"}, {"groupId": "BG002", "value": "224"}]}, {"title": "Male", "measurements": [{"groupId": "BG000", "value": "294"}, {"groupId": "BG001", "value": "291"}, {"groupId": "BG002", "value": "585"}]}]}]}, {"title": "Region of Enrollment", "paramType": "NUMBER", "unitOfMeasure": "participants", "classes": [{"title": "Portugal", "categories": [{"measurements": [{"groupId": "BG000", "value": "4"}, {"groupId": "BG001", "value": "3"}, {"groupId": "BG002", "value": "7"}]}]}, {"title": "United States", "categories": [{"measurements": [{"groupId": "BG000", "value": "196"}, {"groupId": "BG001", "value": "198"}, {"groupId": "BG002", "value": "394"}]}]}, {"title": "Spain", "categories": [{"measurements": [{"groupId": "BG000", "value": "18"}, {"groupId": "BG001", "value": "18"}, {"groupId": "BG002", "value": "36"}]}]}, {"title": "Austria", "categories": [{"measurements": [{"groupId": "BG000", "value": "6"}, {"groupId": "BG001", "value": "8"}, {"groupId": "BG002", "value": "14"}]}]}, {"title": "Israel", "categories": [{"measurements": [{"groupId": "BG000", "value": "18"}, {"groupId": "BG001", "value": "16"}, {"groupId": "BG002", "value": "34"}]}]}, {"title": "United Kingdom", "categories": [{"measurements": [{"groupId": "BG000", "value": "19"}, {"groupId": "BG001", "value": "18"}, {"groupId": "BG002", "value": "37"}]}]}, {"title": "Switzerland", "categories": [{"measurements": [{"groupId": "BG000", "value": "11"}, {"groupId": "BG001", "value": "11"}, {"groupId": "BG002", "value": "22"}]}]}, {"title": "Italy", "categories": [{"measurements": [{"groupId": "BG000", "value": "4"}, {"groupId": "BG001", "value": "4"}, {"groupId": "BG002", "value": "8"}]}]}, {"title": "France", "categories": [{"measurements": [{"groupId": "BG000", "value": "10"}, {"groupId": "BG001", "value": "11"}, {"groupId": "BG002", "value": "21"}]}]}, {"title": "Czech Republic", "categories": [{"measurements": [{"groupId": "BG000", "value": "12"}, {"groupId": "BG001", "value": "11"}, {"groupId": "BG002", "value": "23"}]}]}, {"title": "Canada", "categories": [{"measurements": [{"groupId": "BG000", "value": "13"}, {"groupId": "BG001", "value": "14"}, {"groupId": "BG002", "value": "27"}]}]}, {"title": "Poland", "categories": [{"measurements": [{"groupId": "BG000", "value": "0"}, {"groupId": "BG001", "value": "2"}, {"groupId": "BG002", "value": "2"}]}]}, {"title": "Belgium", "categories": [{"measurements": [{"groupId": "BG000", "value": "6"}, {"groupId": "BG001", "value": "6"}, {"groupId": "BG002", "value": "12"}]}]}, {"title": "Australia", "categories": [{"measurements": [{"groupId": "BG000", "value": "12"}, {"groupId": "BG001", "value": "11"}, {"groupId": "BG002", "value": "23"}]}]}, {"title": "Denmark", "categories": [{"measurements": [{"groupId": "BG000", "value": "24"}, {"groupId": "BG001", "value": "23"}, {"groupId": "BG002", "value": "47"}]}]}, {"title": "Germany", "categories": [{"measurements": [{"groupId": "BG000", "value": "41"}, {"groupId": "BG001", "value": "41"}, {"groupId": "BG002", "value": "82"}]}]}, {"title": "Netherlands", "categories": [{"measurements": [{"groupId": "BG000", "value": "10"}, {"groupId": "BG001", "value": "10"}, {"groupId": "BG002", "value": "20"}]}]}]}]}, "outcomeMeasuresModule": {"outcomeMeasures": [{"type": "PRIMARY", "title": "Composite Primary Endpoint: Number of Subjects With First Hospitalization for Worsening Heart Failure or Death", "description": "The primary efficacy endpoint will evaluate the effect of CRT=ON versus CRT=OFF in time to event of a combined endpoint of all-cause mortality or first hospitalization for worsening heart failure.", "populationDescription": "This analysis was carried out according to the intention-to-treat principle. Follow-up was censored at study closure, date of death, LVAD, heart transplant, withdrawal from the study, or loss to follow-up, whichever came first. 4 deaths in CRT OFF group and 1 death in CRT ON group were after LVAD/transplant and are not included in this analysis.", "reportingStatus": "POSTED", "paramType": "NUMBER", "unitOfMeasure": "participants", "timeFrame": "From date of randomization until date of death from any cause or date of first hospitalization for worsening heart failure, whichever came first, assessed up to date of study exit, with a mean treatment duration of 1.6 years", "groups": [{"id": "OG000", "title": "CRT=ON", "description": "Cardiac Resynchronization Therapy activated."}, {"id": "OG001", "title": "CRT=OFF", "description": "Cardiac Resynchronization Therapy deactivated."}], "denoms": [{"units": "Participants", "counts": [{"groupId": "OG000", "value": "404"}, {"groupId": "OG001", "value": "405"}]}], "classes": [{"categories": [{"measurements": [{"groupId": "OG000", "value": "116"}, {"groupId": "OG001", "value": "102"}]}]}]}, {"type": "PRIMARY", "title": "Number of Subjects That Underwent Implant Attempt Without System- or Implant-Related Complications (Complication-Free)", "description": "The primary safety endpoint will evaluate the complication-free rate of the Lumax HF-T CRT-D devices in the narrow QRS subject population.", "populationDescription": "The primary safety endpoint included all subjects undergoing an implant procedure.", "reportingStatus": "POSTED", "paramType": "NUMBER", "unitOfMeasure": "participants", "timeFrame": "6 months", "groups": [{"id": "OG000", "title": "Subjects That Underwent an Implant Attempt"}], "denoms": [{"units": "Participants", "counts": [{"groupId": "OG000", "value": "855"}]}], "classes": [{"categories": [{"measurements": [{"groupId": "OG000", "value": "766"}]}]}]}, {"type": "SECONDARY", "title": "Rate of Hospitalizations for Worsening Heart Failure (Hospitalizations Per Subject-year)", "description": "Evaluate the effects of CRT=ON compared to CRT=OFF on the rate of hospitalization for worsening heart failure (WHF).", "reportingStatus": "POSTED", "paramType": "NUMBER", "unitOfMeasure": "Hospitalizations per subj-yr", "timeFrame": "Study duration from randomization to study exit", "groups": [{"id": "OG000", "title": "CRT=ON", "description": "Cardiac Resynchronization Therapy activated."}, {"id": "OG001", "title": "CRT=OFF", "description": "Cardiac Resynchronization Therapy deactivated."}], "denoms": [{"units": "Participants", "counts": [{"groupId": "OG000", "value": "404"}, {"groupId": "OG001", "value": "405"}]}], "classes": [{"categories": [{"measurements": [{"groupId": "OG000", "value": "0.36"}, {"groupId": "OG001", "value": "0.28"}]}]}]}, {"type": "SECONDARY", "title": "New York Heart Association (NYHA) Classification Change", "description": "Evaluate the effects of CRT=ON compared to CRT=OFF in relation to the change in NYHA classification.\n\nNYHA classes:\n\nClass I - Subjects with cardiac disease, but without resulting limitation of physical activity. Ordinary physical activity does not cause undue fatigue, palpitation,dyspnea, or anginal pain.\n\nClass II - Subjects with cardiac disease resulting in slight limitation of physical activity. They are comfortable at rest. Ordinary physical activity results in fatigue, palpitation, dyspnea, or anginal pain.\n\nClass III - Subjects with cardiac disease resulting in marked limitation of physical activity. They are comfortable at rest. Less than ordinary activity causes fatigue, palpitation, dyspnea, or anginal pain.\n\nClass IV - Subjects with cardiac disease resulting in inability to carry on any physical activity without discomfort. Symptoms of cardiac insufficiency or of anginal syndrome may be present even at rest. If any physical activity is undertaken, discomfort is increased.", "populationDescription": "Subjects with Baseline \\& 6-month NYHA classification. 18 subjects (9 CRT ON, 9 CRT OFF) that were in the study at least 6 months and that did not have 6-month NYHA data, had the most recent post-randomization NYHA inputted using the Last Observation Carried Forward (LOCF) principle.", "reportingStatus": "POSTED", "paramType": "COUNT_OF_PARTICIPANTS", "unitOfMeasure": "Participants", "timeFrame": "6 months", "groups": [{"id": "OG000", "title": "CRT=ON", "description": "Cardiac Resynchronization Therapy activated."}, {"id": "OG001", "title": "CRT=OFF", "description": "Cardiac Resynchronization Therapy deactivated."}], "denoms": [{"units": "Participants", "counts": [{"groupId": "OG000", "value": "347"}, {"groupId": "OG001", "value": "338"}]}], "classes": [{"title": "Improved at least 1 Class", "categories": [{"measurements": [{"groupId": "OG000", "value": "213"}, {"groupId": "OG001", "value": "185"}]}]}, {"title": "No Change", "categories": [{"measurements": [{"groupId": "OG000", "value": "116"}, {"groupId": "OG001", "value": "141"}]}]}, {"title": "Deteriorated at least 1 Class", "categories": [{"measurements": [{"groupId": "OG000", "value": "18"}, {"groupId": "OG001", "value": "12"}]}]}]}, {"type": "SECONDARY", "title": "Change in Quality of Life (QOL) Scores From Baseline to 6-Month Follow-up", "description": "Quality of Life was evaluated using the Minnesota Living with Heart Failure (MLHF) Quality of Life (QOL) Questionnaire.The questionnaire consists of 21 questions to measure the subjects' perception of how their HF and its treatment affected their ability to live as they wanted during the last month. The questions describe different ways in which some people are affected (i.e. physical, socioeconomic, and psychological impairments). If a question does not apply to a subject or is not related to their HF, then they can answer with a 0. If it does apply to them, then they can rate (from 1 to 5) how much it has affected them. From the 21 questions, the lowest possible total score is 0, and the highest possible total score is 105. A lower score is desirable. Therefore, a negative change in QOL score from baseline to 6 months represents an improvement in quality of life, while a positive change in QOL score from baseline to 6 months represents a worsening in quality of life.", "populationDescription": "Subjects with Baseline \\& 6-month QOL scores. 25 subjects (15 CRT ON, 10 CRT OFF) that were in the study at least 6 months and that did not have 6-month QOL data, had 3-month data inputted using the LOCF principle.", "reportingStatus": "POSTED", "paramType": "MEAN", "dispersionType": "Standard Deviation", "unitOfMeasure": "units on a scale", "timeFrame": "Changes between baseline and 6 months", "groups": [{"id": "OG000", "title": "CRT=ON", "description": "Cardiac Resynchronization Therapy activated."}, {"id": "OG001", "title": "CRT=OFF", "description": "Cardiac Resynchronization Therapy deactivated."}], "denoms": [{"units": "Participants", "counts": [{"groupId": "OG000", "value": "333"}, {"groupId": "OG001", "value": "330"}]}], "classes": [{"categories": [{"measurements": [{"groupId": "OG000", "value": "-12.1", "spread": "21.9"}, {"groupId": "OG001", "value": "-13.5", "spread": "21.4"}]}]}]}, {"type": "SECONDARY", "title": "Composite Score of Death, Hospitalization for Worsening Heart Failure and Change in Quality of Life (QOL)", "description": "Evaluate the effects of CRT=ON compared to CRT=OFF in relation to a composite endpoint of all-cause mortality, hospitalization for worsening heart failure and change in the MLHF Quality of Life Questionnaire.\n\nThis composite endpoint used a weighted scoring scale based on the African-American Heart Failure Trial (A-HeFT) study Endpoint Score. (Taylor, AL, Ziesche, S, Yancy, C, et al. Combination of Isosorbide Dinitrate and Hydralazine in Blacks with Heart Failure. N Engl J Med 2004; 351:2049-57.)\n\nComposite Endpoint Scoring:\n\nVital Status:\n\nDeath (-3),\n\nSurvival to end of trial (0),\n\nHospitalization:\n\n1st hospitalization for HF (-1),\n\nNo hospitalization (0),\n\nQOL score:\\*\n\nImprovement by \u2265 10 units (+2),\n\nImprovement by 5-9 units (+1),\n\nChange by \\< 5 units (0),\n\nWorsening by 5-9 units (-1),\n\nWorsening by \u2265 10 (-2).\n\nPossible total score -6 to +2.\n\n\\*QOL score details are provided in Secondary Outcome Measure 5.", "populationDescription": "Subjects with a potential of 24 months of follow-up.", "reportingStatus": "POSTED", "paramType": "MEAN", "dispersionType": "Standard Deviation", "unitOfMeasure": "Composite score", "timeFrame": "Composite of death, worsening heart failure hospitalization (up to 24 months), and change in QOL (at 6 months)", "groups": [{"id": "OG000", "title": "CRT=ON", "description": "Cardiac Resynchronization Therapy activated."}, {"id": "OG001", "title": "CRT=OFF", "description": "Cardiac Resynchronization Therapy deactivated."}], "denoms": [{"units": "Participants", "counts": [{"groupId": "OG000", "value": "163"}, {"groupId": "OG001", "value": "163"}]}], "classes": [{"categories": [{"measurements": [{"groupId": "OG000", "value": "-1.6", "spread": "1.9"}, {"groupId": "OG001", "value": "-1.5", "spread": "1.6"}]}]}]}, {"type": "SECONDARY", "title": "Number of Subjects With All-cause Mortality", "description": "Evaluate the all-cause mortality rate between the CRT=ON compared to CRT=OFF group.", "reportingStatus": "POSTED", "paramType": "COUNT_OF_PARTICIPANTS", "unitOfMeasure": "Participants", "timeFrame": "From date of randomization up to date of study exit, with a mean treatment duration of 1.6 years", "groups": [{"id": "OG000", "title": "CRT=ON", "description": "Cardiac Resynchronization Therapy activated."}, {"id": "OG001", "title": "CRT=OFF", "description": "Cardiac Resynchronization Therapy deactivated."}], "denoms": [{"units": "Participants", "counts": [{"groupId": "OG000", "value": "404"}, {"groupId": "OG001", "value": "405"}]}], "classes": [{"categories": [{"measurements": [{"groupId": "OG000", "value": "45"}, {"groupId": "OG001", "value": "26"}]}]}]}]}, "adverseEventsModule": {"frequencyThreshold": "5", "timeFrame": "Study duration from date of implant to date of study exit, with a mean implant duration of 1.7 years", "description": "Subjects could have more than one event. Other adverse event data includes data from non-serious adverse events.", "eventGroups": [{"id": "EG000", "title": "CRT=ON", "description": "Cardiac Resynchronization Therapy activated.", "deathsNumAffected": 45, "deathsNumAtRisk": 404, "seriousNumAffected": 259, "seriousNumAtRisk": 404, "otherNumAffected": 300, "otherNumAtRisk": 404}, {"id": "EG001", "title": "CRT=OFF", "description": "Cardiac Resynchronization Therapy deactivated.", "deathsNumAffected": 26, "deathsNumAtRisk": 405, "seriousNumAffected": 221, "seriousNumAtRisk": 405, "otherNumAffected": 274, "otherNumAtRisk": 405}], "seriousEvents": [{"term": "Worsening heart failure", "organSystem": "Cardiac disorders", "stats": [{"groupId": "EG000", "numEvents": 213, "numAffected": 101, "numAtRisk": 404}, {"groupId": "EG001", "numEvents": 181, "numAffected": 93, "numAtRisk": 405}]}, {"term": "Atrial arrhythmia", "organSystem": "Cardiac disorders", "stats": [{"groupId": "EG000", "numEvents": 34, "numAffected": 27, "numAtRisk": 404}, {"groupId": "EG001", "numEvents": 35, "numAffected": 25, "numAtRisk": 405}]}, {"term": "Ventricular arrhythmia", "organSystem": "Cardiac disorders", "stats": [{"groupId": "EG000", "numEvents": 36, "numAffected": 26, "numAtRisk": 404}, {"groupId": "EG001", "numEvents": 29, "numAffected": 22, "numAtRisk": 405}]}, {"term": "Chest pain", "organSystem": "Cardiac disorders", "stats": [{"groupId": "EG000", "numEvents": 31, "numAffected": 16, "numAtRisk": 404}, {"groupId": "EG001", "numEvents": 26, "numAffected": 21, "numAtRisk": 405}]}, {"term": "Other cardiovascular", "organSystem": "Cardiac disorders", "stats": [{"groupId": "EG000", "numEvents": 21, "numAffected": 18, "numAtRisk": 404}, {"groupId": "EG001", "numEvents": 20, "numAffected": 17, "numAtRisk": 405}]}, {"term": "Dyspnea", "organSystem": "Cardiac disorders", "stats": [{"groupId": "EG000", "numEvents": 16, "numAffected": 16, "numAtRisk": 404}, {"groupId": "EG001", "numEvents": 12, "numAffected": 11, "numAtRisk": 405}]}, {"term": "Coronary artery disease", "organSystem": "Cardiac disorders", "stats": [{"groupId": "EG000", "numEvents": 13, "numAffected": 13, "numAtRisk": 404}, {"groupId": "EG001", "numEvents": 11, "numAffected": 10, "numAtRisk": 405}]}, {"term": "Infection", "organSystem": "Infections and infestations", "stats": [{"groupId": "EG000", "numEvents": 77, "numAffected": 58, "numAtRisk": 404}, {"groupId": "EG001", "numEvents": 54, "numAffected": 45, "numAtRisk": 405}]}, {"term": "Gastrointestinal disorder", "organSystem": "Gastrointestinal disorders", "stats": [{"groupId": "EG000", "numEvents": 68, "numAffected": 43, "numAtRisk": 404}, {"groupId": "EG001", "numEvents": 41, "numAffected": 28, "numAtRisk": 405}]}, {"term": "Other noncardiovascular", "organSystem": "General disorders", "stats": [{"groupId": "EG000", "numEvents": 54, "numAffected": 40, "numAtRisk": 404}, {"groupId": "EG001", "numEvents": 55, "numAffected": 36, "numAtRisk": 405}]}, {"term": "Respiratory disorder", "organSystem": "Respiratory, thoracic and mediastinal disorders", "stats": [{"groupId": "EG000", "numEvents": 27, "numAffected": 14, "numAtRisk": 404}, {"groupId": "EG001", "numEvents": 38, "numAffected": 22, "numAtRisk": 405}]}, {"term": "Renal disorder", "organSystem": "Renal and urinary disorders", "stats": [{"groupId": "EG000", "numEvents": 38, "numAffected": 28, "numAtRisk": 404}, {"groupId": "EG001", "numEvents": 19, "numAffected": 16, "numAtRisk": 405}]}, {"term": "Musculoskeletal disorder", "organSystem": "Musculoskeletal and connective tissue disorders", "stats": [{"groupId": "EG000", "numEvents": 32, "numAffected": 25, "numAtRisk": 404}, {"groupId": "EG001", "numEvents": 18, "numAffected": 15, "numAtRisk": 405}]}, {"term": "Nervous system disorder", "organSystem": "Nervous system disorders", "stats": [{"groupId": "EG000", "numEvents": 16, "numAffected": 13, "numAtRisk": 404}, {"groupId": "EG001", "numEvents": 5, "numAffected": 5, "numAtRisk": 405}]}, {"term": "ICD lead", "organSystem": "Cardiac disorders", "stats": [{"groupId": "EG000", "numEvents": 26, "numAffected": 23, "numAtRisk": 404}, {"groupId": "EG001", "numEvents": 13, "numAffected": 13, "numAtRisk": 405}]}, {"term": "Lead for right atrial pacing", "organSystem": "Cardiac disorders", "stats": [{"groupId": "EG000", "numEvents": 21, "numAffected": 18, "numAtRisk": 404}, {"groupId": "EG001", "numEvents": 5, "numAffected": 5, "numAtRisk": 405}]}, {"term": "Lead for left ventricular pacing", "organSystem": "Cardiac disorders", "stats": [{"groupId": "EG000", "numEvents": 21, "numAffected": 18, "numAtRisk": 404}, {"groupId": "EG001", "numEvents": 4, "numAffected": 4, "numAtRisk": 405}]}, {"term": "Implantation related", "organSystem": "Surgical and medical procedures", "stats": [{"groupId": "EG000", "numEvents": 19, "numAffected": 17, "numAtRisk": 404}, {"groupId": "EG001", "numEvents": 18, "numAffected": 16, "numAtRisk": 405}]}, {"term": "Hypotension", "organSystem": "Cardiac disorders", "stats": [{"groupId": "EG000", "numEvents": 14, "numAffected": 11, "numAtRisk": 404}, {"groupId": "EG001", "numEvents": 9, "numAffected": 9, "numAtRisk": 405}]}, {"term": "Angina", "organSystem": "Cardiac disorders", "stats": [{"groupId": "EG000", "numEvents": 8, "numAffected": 7, "numAtRisk": 404}, {"groupId": "EG001", "numEvents": 13, "numAffected": 12, "numAtRisk": 405}]}, {"term": "Peripheral vascular disease", "organSystem": "Cardiac disorders", "stats": [{"groupId": "EG000", "numEvents": 8, "numAffected": 6, "numAtRisk": 404}, {"groupId": "EG001", "numEvents": 12, "numAffected": 10, "numAtRisk": 405}]}, {"term": "Syncope", "organSystem": "Cardiac disorders", "stats": [{"groupId": "EG000", "numEvents": 8, "numAffected": 8, "numAtRisk": 404}, {"groupId": "EG001", "numEvents": 9, "numAffected": 7, "numAtRisk": 405}]}, {"term": "Cardiac arrest", "organSystem": "Cardiac disorders", "stats": [{"groupId": "EG000", "numEvents": 13, "numAffected": 11, "numAtRisk": 404}, {"groupId": "EG001", "numEvents": 3, "numAffected": 3, "numAtRisk": 405}]}, {"term": "Myocardial infarction", "organSystem": "Cardiac disorders", "stats": [{"groupId": "EG000", "numEvents": 6, "numAffected": 6, "numAtRisk": 404}, {"groupId": "EG001", "numEvents": 8, "numAffected": 6, "numAtRisk": 405}]}, {"term": "Anemia", "organSystem": "Cardiac disorders", "stats": [{"groupId": "EG000", "numEvents": 9, "numAffected": 5, "numAtRisk": 404}, {"groupId": "EG001", "numEvents": 4, "numAffected": 4, "numAtRisk": 405}]}, {"term": "Stroke", "organSystem": "Cardiac disorders", "stats": [{"groupId": "EG000", "numEvents": 7, "numAffected": 6, "numAtRisk": 404}, {"groupId": "EG001", "numEvents": 6, "numAffected": 6, "numAtRisk": 405}]}, {"term": "Pulmonary embolism", "organSystem": "Cardiac disorders", "stats": [{"groupId": "EG000", "numEvents": 5, "numAffected": 5, "numAtRisk": 404}, {"groupId": "EG001", "numEvents": 7, "numAffected": 5, "numAtRisk": 405}]}, {"term": "Transischemic attack", "organSystem": "Cardiac disorders", "stats": [{"groupId": "EG000", "numEvents": 6, "numAffected": 6, "numAtRisk": 404}, {"groupId": "EG001", "numEvents": 4, "numAffected": 4, "numAtRisk": 405}]}, {"term": "Thrombosis", "organSystem": "Cardiac disorders", "stats": [{"groupId": "EG000", "numEvents": 3, "numAffected": 3, "numAtRisk": 404}, {"groupId": "EG001", "numEvents": 6, "numAffected": 5, "numAtRisk": 405}]}, {"term": "Fluid accumulation", "organSystem": "Cardiac disorders", "stats": [{"groupId": "EG000", "numEvents": 7, "numAffected": 5, "numAtRisk": 404}, {"groupId": "EG001", "numEvents": 1, "numAffected": 1, "numAtRisk": 405}]}, {"term": "Pulmonary edema", "organSystem": "Cardiac disorders", "stats": [{"groupId": "EG000", "numEvents": 5, "numAffected": 5, "numAtRisk": 404}, {"groupId": "EG001", "numEvents": 3, "numAffected": 2, "numAtRisk": 405}]}, {"term": "Cardiac catheterization", "organSystem": "Cardiac disorders", "stats": [{"groupId": "EG000", "numEvents": 5, "numAffected": 5, "numAtRisk": 404}, {"groupId": "EG001", "numEvents": 2, "numAffected": 2, "numAtRisk": 405}]}, {"term": "Cardiovascular medication related", "organSystem": "Cardiac disorders", "stats": [{"groupId": "EG000", "numEvents": 3, "numAffected": 3, "numAtRisk": 404}, {"groupId": "EG001", "numEvents": 4, "numAffected": 4, "numAtRisk": 405}]}, {"term": "Dizziness", "organSystem": "Cardiac disorders", "stats": [{"groupId": "EG000", "numEvents": 4, "numAffected": 4, "numAtRisk": 404}, {"groupId": "EG001", "numEvents": 3, "numAffected": 3, "numAtRisk": 405}]}, {"term": "Pleural effusion", "organSystem": "Cardiac disorders", "stats": [{"groupId": "EG000", "numEvents": 4, "numAffected": 4, "numAtRisk": 404}, {"groupId": "EG001", "numEvents": 2, "numAffected": 2, "numAtRisk": 405}]}, {"term": "Valvular heart disease", "organSystem": "Cardiac disorders", "stats": [{"groupId": "EG000", "numEvents": 5, "numAffected": 4, "numAtRisk": 404}, {"groupId": "EG001", "numEvents": 1, "numAffected": 1, "numAtRisk": 405}]}, {"term": "Abdominal Aortic Aneurysm", "organSystem": "Cardiac disorders", "stats": [{"groupId": "EG000", "numEvents": 3, "numAffected": 3, "numAtRisk": 404}, {"groupId": "EG001", "numEvents": 2, "numAffected": 2, "numAtRisk": 405}]}, {"term": "Edema", "organSystem": "Cardiac disorders", "stats": [{"groupId": "EG000", "numEvents": 1, "numAffected": 1, "numAtRisk": 404}, {"groupId": "EG001", "numEvents": 3, "numAffected": 3, "numAtRisk": 405}]}, {"term": "Increased INR", "organSystem": "Cardiac disorders", "stats": [{"groupId": "EG000", "numEvents": 3, "numAffected": 2, "numAtRisk": 404}, {"groupId": "EG001", "numEvents": 1, "numAffected": 1, "numAtRisk": 405}]}, {"term": "Palpitations", "organSystem": "Cardiac disorders", "stats": [{"groupId": "EG000", "numEvents": 1, "numAffected": 1, "numAtRisk": 404}, {"groupId": "EG001", "numEvents": 2, "numAffected": 2, "numAtRisk": 405}]}, {"term": "Bradycardia", "organSystem": "Cardiac disorders", "stats": [{"groupId": "EG000", "numEvents": 1, "numAffected": 1, "numAtRisk": 404}, {"groupId": "EG001", "numEvents": 1, "numAffected": 1, "numAtRisk": 405}]}, {"term": "Dilated cardiomyopathy", "organSystem": "Cardiac disorders", "stats": [{"groupId": "EG000", "numEvents": 1, "numAffected": 1, "numAtRisk": 404}, {"groupId": "EG001", "numEvents": 1, "numAffected": 1, "numAtRisk": 405}]}, {"term": "Hypertension", "organSystem": "Cardiac disorders", "stats": [{"groupId": "EG000", "numEvents": 1, "numAffected": 1, "numAtRisk": 404}, {"groupId": "EG001", "numEvents": 1, "numAffected": 1, "numAtRisk": 405}]}, {"term": "Ischemic cardiomyopathy", "organSystem": "Cardiac disorders", "stats": [{"groupId": "EG000", "numEvents": 1, "numAffected": 1, "numAtRisk": 404}, {"groupId": "EG001", "numEvents": 1, "numAffected": 1, "numAtRisk": 405}]}, {"term": "Weight gain", "organSystem": "Cardiac disorders", "stats": [{"groupId": "EG000", "numEvents": 2, "numAffected": 2, "numAtRisk": 404}, {"groupId": "EG001", "numEvents": 0, "numAffected": 0, "numAtRisk": 405}]}, {"term": "Fatigue", "organSystem": "Cardiac disorders", "stats": [{"groupId": "EG000", "numEvents": 1, "numAffected": 1, "numAtRisk": 404}, {"groupId": "EG001", "numEvents": 0, "numAffected": 0, "numAtRisk": 405}]}, {"term": "Endocrine", "organSystem": "Endocrine disorders", "stats": [{"groupId": "EG000", "numEvents": 13, "numAffected": 12, "numAtRisk": 404}, {"groupId": "EG001", "numEvents": 6, "numAffected": 4, "numAtRisk": 405}]}, {"term": "Cancer", "organSystem": "General disorders", "stats": [{"groupId": "EG000", "numEvents": 5, "numAffected": 5, "numAtRisk": 404}, {"groupId": "EG001", "numEvents": 13, "numAffected": 10, "numAtRisk": 405}]}, {"term": "Traumatic injury", "organSystem": "General disorders", "stats": [{"groupId": "EG000", "numEvents": 12, "numAffected": 11, "numAtRisk": 404}, {"groupId": "EG001", "numEvents": 4, "numAffected": 4, "numAtRisk": 405}]}, {"term": "Headache", "organSystem": "Nervous system disorders", "stats": [{"groupId": "EG000", "numEvents": 0, "numAffected": 0, "numAtRisk": 404}, {"groupId": "EG001", "numEvents": 4, "numAffected": 3, "numAtRisk": 405}]}, {"term": "Hepatic", "organSystem": "Hepatobiliary disorders", "stats": [{"groupId": "EG000", "numEvents": 2, "numAffected": 1, "numAtRisk": 404}, {"groupId": "EG001", "numEvents": 2, "numAffected": 2, "numAtRisk": 405}]}, {"term": "Fatigue", "organSystem": "General disorders", "stats": [{"groupId": "EG000", "numEvents": 3, "numAffected": 3, "numAtRisk": 404}, {"groupId": "EG001", "numEvents": 0, "numAffected": 0, "numAtRisk": 405}]}, {"term": "Device related", "organSystem": "Cardiac disorders", "stats": [{"groupId": "EG000", "numEvents": 6, "numAffected": 6, "numAtRisk": 404}, {"groupId": "EG001", "numEvents": 10, "numAffected": 9, "numAtRisk": 405}]}], "otherEvents": [{"term": "Worsening heart failure", "organSystem": "Cardiac disorders", "stats": [{"groupId": "EG000", "numEvents": 32, "numAffected": 29, "numAtRisk": 404}, {"groupId": "EG001", "numEvents": 34, "numAffected": 29, "numAtRisk": 405}]}, {"term": "Atrial arrhythmia", "organSystem": "Cardiac disorders", "stats": [{"groupId": "EG000", "numEvents": 44, "numAffected": 39, "numAtRisk": 404}, {"groupId": "EG001", "numEvents": 43, "numAffected": 35, "numAtRisk": 405}]}, {"term": "Ventricular arrhythmia", "organSystem": "Cardiac disorders", "stats": [{"groupId": "EG000", "numEvents": 39, "numAffected": 33, "numAtRisk": 404}, {"groupId": "EG001", "numEvents": 29, "numAffected": 25, "numAtRisk": 405}]}, {"term": "Chest pain", "organSystem": "Cardiac disorders", "stats": [{"groupId": "EG000", "numEvents": 21, "numAffected": 20, "numAtRisk": 404}, {"groupId": "EG001", "numEvents": 32, "numAffected": 29, "numAtRisk": 405}]}, {"term": "Dyspnea", "organSystem": "Cardiac disorders", "stats": [{"groupId": "EG000", "numEvents": 27, "numAffected": 20, "numAtRisk": 404}, {"groupId": "EG001", "numEvents": 32, "numAffected": 30, "numAtRisk": 405}]}, {"term": "Hypotension", "organSystem": "Cardiac disorders", "stats": [{"groupId": "EG000", "numEvents": 28, "numAffected": 27, "numAtRisk": 404}, {"groupId": "EG001", "numEvents": 30, "numAffected": 27, "numAtRisk": 405}]}, {"term": "Dizziness", "organSystem": "Cardiac disorders", "stats": [{"groupId": "EG000", "numEvents": 25, "numAffected": 21, "numAtRisk": 404}, {"groupId": "EG001", "numEvents": 15, "numAffected": 14, "numAtRisk": 405}]}, {"term": "Edema", "organSystem": "Cardiac disorders", "stats": [{"groupId": "EG000", "numEvents": 23, "numAffected": 21, "numAtRisk": 404}, {"groupId": "EG001", "numEvents": 16, "numAffected": 15, "numAtRisk": 405}]}, {"term": "Non-cardiovascular", "organSystem": "General disorders", "stats": [{"groupId": "EG000", "numEvents": 602, "numAffected": 203, "numAtRisk": 404}, {"groupId": "EG001", "numEvents": 548, "numAffected": 201, "numAtRisk": 405}]}, {"term": "Implant Procedure", "organSystem": "Surgical and medical procedures", "stats": [{"groupId": "EG000", "numEvents": 33, "numAffected": 31, "numAtRisk": 404}, {"groupId": "EG001", "numEvents": 46, "numAffected": 41, "numAtRisk": 405}]}, {"term": "ICD lead", "organSystem": "Cardiac disorders", "stats": [{"groupId": "EG000", "numEvents": 34, "numAffected": 28, "numAtRisk": 404}, {"groupId": "EG001", "numEvents": 6, "numAffected": 6, "numAtRisk": 405}]}, {"term": "Lead for left ventricular pacing", "organSystem": "Cardiac disorders", "stats": [{"groupId": "EG000", "numEvents": 55, "numAffected": 49, "numAtRisk": 404}, {"groupId": "EG001", "numEvents": 11, "numAffected": 10, "numAtRisk": 405}]}]}, "moreInfoModule": {"limitationsAndCaveats": {"description": "Endpoint results should be interpreted with caution and take into consideration the early study closure and subsequent reduction in sample size (809 vs. 1258) and events (218 vs. 381). These changes impact the statistical power of the findings."}, "certainAgreement": {"piSponsorEmployee": false, "restrictiveAgreement": false}, "pointOfContact": {"title": "Kelly Mohr", "organization": "Biotronik, Inc.", "email": "kelly.mohr@biotronik.com", "phone": "800-547-0394"}}}, "derivedSection": {"miscInfoModule": {"versionHolder": "2024-06-24", "removedCountries": ["Czech Republic"]}, "conditionBrowseModule": {"meshes": [{"id": "D000006333", "term": "Heart Failure"}], "ancestors": [{"id": "D000006331", "term": "Heart Diseases"}, {"id": "D000002318", "term": "Cardiovascular Diseases"}], "browseLeaves": [{"id": "M9419", "name": "Heart Diseases", "relevance": "LOW"}, {"id": "M9421", "name": "Heart Failure", "asFound": "Heart Failure", "relevance": "HIGH"}], "browseBranches": [{"abbrev": "BC14", "name": "Heart and Blood Diseases"}, {"abbrev": "All", "name": "All Conditions"}]}}, "hasResults": true}