{"protocolSection": {"identificationModule": {"nctId": "NCT00980057", "orgStudyIdInfo": {"id": "Adaptive CRT"}, "organization": {"fullName": "Medtronic Cardiac Rhythm and Heart Failure", "class": "INDUSTRY"}, "briefTitle": "Adaptive Cardiac Resynchronization Therapy Study", "officialTitle": "Adaptive Cardiac Resynchronization Therapy Study", "acronym": "aCRT"}, "statusModule": {"statusVerifiedDate": "2018-09", "overallStatus": "COMPLETED", "expandedAccessInfo": {"hasExpandedAccess": false}, "startDateStruct": {"date": "2009-10-01", "type": "ACTUAL"}, "primaryCompletionDateStruct": {"date": "2011-08-04", "type": "ACTUAL"}, "completionDateStruct": {"date": "2012-03-08", "type": "ACTUAL"}, "studyFirstSubmitDate": "2009-09-16", "studyFirstSubmitQcDate": "2009-09-17", "studyFirstPostDateStruct": {"date": "2009-09-18", "type": "ESTIMATED"}, "resultsFirstSubmitDate": "2018-02-20", "resultsFirstSubmitQcDate": "2018-09-18", "resultsFirstPostDateStruct": {"date": "2018-10-16", "type": "ACTUAL"}, "dispFirstSubmitDate": "2012-07-11", "dispFirstSubmitQcDate": "2012-08-06", "dispFirstPostDateStruct": {"date": "2012-08-15", "type": "ESTIMATED"}, "lastUpdateSubmitDate": "2018-09-18", "lastUpdatePostDateStruct": {"date": "2018-10-16", "type": "ACTUAL"}}, "sponsorCollaboratorsModule": {"responsibleParty": {"type": "SPONSOR"}, "leadSponsor": {"name": "Medtronic Cardiac Rhythm and Heart Failure", "class": "INDUSTRY"}}, "oversightModule": {"oversightHasDmc": false}, "descriptionModule": {"briefSummary": "The purpose of this study is to demonstrate the AdaptivCRT algorithm is at least as good as manual echo based optimization in regard to patient outcomes and cardiac performance", "detailedDescription": "The trial has 3 primary end points:\n\n* to demonstrate that over 6-month follow-up, the proportion of the patients improved in the aCRT arm is at least as high as in the Echo arm\n* to demonstrate that cardiac function is similar when using aCRT versus echo-optimized settings\n* to demonstrate that aCRT does not result in inappropriate AV or VV delay settings"}, "conditionsModule": {"conditions": ["Heart Failure"]}, "designModule": {"studyType": "INTERVENTIONAL", "phases": ["NA"], "designInfo": {"allocation": "RANDOMIZED", "interventionModel": "PARALLEL", "primaryPurpose": "TREATMENT", "maskingInfo": {"masking": "DOUBLE", "whoMasked": ["PARTICIPANT", "INVESTIGATOR"]}}, "enrollmentInfo": {"count": 522, "type": "ACTUAL"}}, "armsInterventionsModule": {"armGroups": [{"label": "Adaptive CRT (aCRT) arm", "type": "EXPERIMENTAL", "description": "Intervention: Cardiac resynchronization therapy (CRT-D) with Adaptive CRT algorithm ON", "interventionNames": ["Device: Adaptive CRT (aCRT)"]}, {"label": "Echo-optimized arm", "type": "ACTIVE_COMPARATOR", "description": "Intervention: Cardiac resynchronization therapy (CRT-D) with standard biventricular pacing (Adaptive CRT algorithm OFF)", "interventionNames": ["Device: Echo"]}], "interventions": [{"type": "DEVICE", "name": "Adaptive CRT (aCRT)", "description": "Adaptive CRT (aCRT) is an algorithm, which provides ambulatory adjustment of pacing configuration (LV-only or BiV) and AV and VV delays based on periodic automatic evaluation of electrical conduction to optimize cardiac function", "armGroupLabels": ["Adaptive CRT (aCRT) arm"], "otherNames": ["aCRT"]}, {"type": "DEVICE", "name": "Echo", "description": "Standard BiV pacing with settings optimized using a standardized echocardiographic protocol", "armGroupLabels": ["Echo-optimized arm"], "otherNames": ["Control"]}]}, "outcomesModule": {"primaryOutcomes": [{"measure": "Percentage of Patients With Improved Heart Failure Outcomes Clinical Composite Score", "description": "Patients considered worsened if they died, were hospitalized with worsening heart failure (HF), crossed over to other arm, demonstrated worsening in New York Heart Association (NYHA) functional class, or reported moderately/markedly worse on 'patient global assessment' compared to before CRT implant. Patients are improved if they are not worsened and have an improved NYHA or reported moderately/markedly improved on the 'patient global assessment' compared to before CRT implant\n\nGlobal assessment question for the patient: Specifically in reference to your heart failure symptoms, how do you feel today as compared to how you felt before your CRT system was implanted? O Markedly improved O Moderately improved O Mildly improved O No change O Slightly worse O Moderately worse O Markedly worse", "timeFrame": "randomization to six month visit"}, {"measure": "Correlation Between Aortic Velocity Time Integral (AoVTI) at Adaptive CRT and Echo-optimized Device Settings", "description": "Correlation between aortic velocity time integral (AoVTI) at Adaptive CRT and echo-optimized device settings. AoVTI is an echocardiographic representative of stroke volume and cardiac performance.", "timeFrame": "randomization visit and six month visit"}, {"measure": "Percentage of Patients With a Safety Event (Inappropriate AV or VV Delay Settings Related to the aCRT Feature)", "description": "For each subject, the Adaptive CRT-determined AV and VV delay settings from randomization up to 183-days post-randomization were evaluated to identify any period of 28-days with a wide delay range (\\>60 ms)", "timeFrame": "randomization to 6 months post randomization"}], "secondaryOutcomes": [{"measure": "Right Ventricular Pacing Percentage", "description": "The percentage of time the right ventricle is paced by the device", "timeFrame": "implant to six months post randomization"}, {"measure": "Change in Left Ventricular End Systolic Volume Index (LVESVi)", "description": "Change in left ventricular end systolic volume index (LVESVi).", "timeFrame": "baseline to six month visit"}, {"measure": "Change in Left Ventricular Ejection Fraction (LVEF)", "timeFrame": "baseline to six month visit"}, {"measure": "Change in New York Heart Association (NYHA) Classification", "description": "The New York Heart Association (NYHA) Functional Classification places patients in one of four categories based on how much they are limited during physical activity.\n\nClass - Patient Symptoms I - No limitation of physical activity. Ordinary physical activity does not cause undue fatigue, palpitation, dyspnea (shortness of breath).\n\nII- Slight limitation of physical activity. Comfortable at rest. Ordinary physical activity results in fatigue, palpitation, dyspnea (shortness of breath).\n\nIII- Marked limitation of physical activity. Comfortable at rest. Less than ordinary activity causes fatigue, palpitation, or dyspnea.\n\nIV- Unable to carry on any physical activity without discomfort. Symptoms of heart failure at rest. If any physical activity is undertaken, discomfort increases.", "timeFrame": "baseline to six month visit"}, {"measure": "Change in Distance Walked During the Six Minute Hall Walk", "timeFrame": "baseline to six month visit"}, {"measure": "Change in Quality of Life Measured by the Minnesota Living With Heart Failure Questionnaire (MLWHF)", "description": "The MLWHF is a 21 question survey. Scores range from 0-105, with lower scores indicating better health.", "timeFrame": "baseline to six month visit"}]}, "eligibilityModule": {"eligibilityCriteria": "Inclusion Criteria:\n\n* Subject is willing to sign and date the study Informed Consent form\n* Subject is at least 18 years of age (or older, if required by local law)\n* Subject is expected to remain available for at least six months of follow-up visits\n* Subject is indicated for a study device that will be implanted within 30 days after signing the Informed Consent form\n* Subject has an intrinsic QRS duration greater than or equal to 120 milliseconds (documented within 30 days prior to enrollment)\n* Subject has a left ventricular ejection fraction less than or equal to 35 percent (method per physician discretion) (documented within 180 days prior to enrollment)\n* Subject is diagnosed with New York Heart Association (NYHA) class III or IV (within 30 days prior to enrollment) despite optimal medical therapy which is defined as: ACE-inhibitor (Angiotensin-Converting Enzyme) or Angiotensin II Receptor Blocker (ARB), if tolerated, for at least one month prior to implant, AND beta-blocker for at least three months preceding implant, if tolerated, and stable for one month, OR subject has an urgent medical need for an implantable cardioverter defibrillator (ICD) that precludes waiting the one or three months for the medication requirements for ACE inhibitor, ARB or beta-blocker\n\nExclusion Criteria:\n\n* Subject has chronic (permanent) atrial arrhythmias for which pharmacological therapy and/or cardioversion have been unsuccessful or have not been attempted\n* Subject has existing CRT system\n* Subject has non-intact or unstable leads\n* Subject has medical conditions that would limit study participation (per physician discretion)\n* Subject is enrolled in one or more concurrent studies that would confound the study results of this study as determined by Medtronic\n* Subject has unstable angina, or experienced an acute myocardial infarction (MI) or received coronary artery revascularization (CABG) or coronary angioplasty (PTCA) (documented within 30 days prior to enrollment)\n* Subject has a mechanical right heart valve or is scheduled to undergo valve repair or valve replacement during the course of the study\n* Subject is post-heart transplant (subjects on the heart transplant list for the first time are not excluded)\n* Subject has a limited life expectancy that would not allow completion of the 6 month visit\n* Subject is pregnant (In the United States, all women of child-bearing potential must undergo a pregnancy test within seven days prior to aCRT download into device)\n* Subject meets the exclusion criteria required by local law", "healthyVolunteers": false, "sex": "ALL", "minimumAge": "18 Years", "stdAges": ["ADULT", "OLDER_ADULT"]}, "contactsLocationsModule": {"overallOfficials": [{"name": "Adaptive CRT Trial Leader", "affiliation": "Medtronic", "role": "STUDY_CHAIR"}], "locations": [{"city": "Huntsville", "state": "Alabama", "zip": "36264", "country": "United States", "geoPoint": {"lat": 34.7304, "lon": -86.58594}}, {"city": "Anchorage", "state": "Alaska", "zip": "36264", "country": "United States", "geoPoint": {"lat": 61.21806, "lon": -149.90028}}, {"city": "Phoenix", "state": "Arizona", "zip": "36264", "country": "United States", "geoPoint": {"lat": 33.44838, "lon": -112.07404}}, {"city": "Little Rock", "state": "Arkansas", "zip": "36264", "country": "United States", "geoPoint": {"lat": 34.74648, "lon": -92.28959}}, {"city": "Glendale", "state": "California", "zip": "36264", "country": "United States", "geoPoint": {"lat": 34.14251, "lon": -118.25508}}, {"city": "San Bernardino", "state": "California", "zip": "36264", "country": "United States", "geoPoint": {"lat": 34.10834, "lon": -117.28977}}, {"city": "San Diego", "state": "California", "zip": "36264", "country": "United States", "geoPoint": {"lat": 32.71533, "lon": -117.15726}}, {"city": "Colorado Springs", "state": "Colorado", "zip": "36264", "country": "United States", "geoPoint": {"lat": 38.83388, "lon": -104.82136}}, {"city": "Denver", "state": "Colorado", "zip": "36264", "country": "United States", "geoPoint": {"lat": 39.73915, "lon": -104.9847}}, {"city": "Clearwater", "state": "Florida", "zip": "36264", "country": "United States", "geoPoint": {"lat": 27.96585, "lon": -82.8001}}, {"city": "Jacksonville", "state": "Florida", "zip": "36264", "country": "United States", "geoPoint": {"lat": 30.33218, "lon": -81.65565}}, {"city": "Orlando", "state": "Florida", "zip": "36264", "country": "United States", "geoPoint": {"lat": 28.53834, "lon": -81.37924}}, {"city": "Pensacola", "state": "Florida", "zip": "36264", "country": "United States", "geoPoint": {"lat": 30.42131, "lon": -87.21691}}, {"city": "Augusta", "state": "Georgia", "zip": "36264", "country": "United States", "geoPoint": {"lat": 33.47097, "lon": -81.97484}}, {"city": "Barrington", "state": "Illinois", "zip": "36264", "country": "United States", "geoPoint": {"lat": 42.15391, "lon": -88.13619}}, {"city": "Fort Wayne", "state": "Indiana", "zip": "36264", "country": "United States", "geoPoint": {"lat": 41.1306, "lon": -85.12886}}, {"city": "Davenport", "state": "Iowa", "zip": "36264", "country": "United States", "geoPoint": {"lat": 41.52364, "lon": -90.57764}}, {"city": "Des Moines", "state": "Iowa", "zip": "36264", "country": "United States", "geoPoint": {"lat": 41.60054, "lon": -93.60911}}, {"city": "Kansas City", "state": "Kansas", "zip": "36264", "country": "United States", "geoPoint": {"lat": 39.11417, "lon": -94.62746}}, {"city": "Louisville", "state": "Kentucky", "zip": "36264", "country": "United States", "geoPoint": {"lat": 38.25424, "lon": -85.75941}}, {"city": "Takoma Park", "state": "Maryland", "zip": "36264", "country": "United States", "geoPoint": {"lat": 38.97789, "lon": -77.00748}}, {"city": "Burlington", "state": "Massachusetts", "zip": "36264", "country": "United States", "geoPoint": {"lat": 42.50482, "lon": -71.19561}}, {"city": "Detroit", "state": "Michigan", "zip": "36264", "country": "United States", "geoPoint": {"lat": 42.33143, "lon": -83.04575}}, {"city": "Grand Rapids", "state": "Michigan", "zip": "36264", "country": "United States", "geoPoint": {"lat": 42.96336, "lon": -85.66809}}, {"city": "Saginaw", "state": "Michigan", "zip": "36264", "country": "United States", "geoPoint": {"lat": 43.41947, "lon": -83.95081}}, {"city": "Saint Cloud", "state": "Minnesota", "zip": "36264", "country": "United States", "geoPoint": {"lat": 45.5608, "lon": -94.16249}}, {"city": "Saint Louis Park", "state": "Minnesota", "zip": "36264", "country": "United States", "geoPoint": {"lat": 44.9483, "lon": -93.34801}}, {"city": "Saint Paul", "state": "Minnesota", "zip": "36264", "country": "United States", "geoPoint": {"lat": 44.94441, "lon": -93.09327}}, {"city": "Tupelo", "state": "Mississippi", "zip": "36264", "country": "United States", "geoPoint": {"lat": 34.25807, "lon": -88.70464}}, {"city": "Kansas City", "state": "Missouri", "zip": "36264", "country": "United States", "geoPoint": {"lat": 39.09973, "lon": -94.57857}}, {"city": "Saint Louis", "state": "Missouri", "zip": "36264", "country": "United States", "geoPoint": {"lat": 38.62727, "lon": -90.19789}}, {"city": "Lincoln", "state": "Nebraska", "zip": "36264", "country": "United States", "geoPoint": {"lat": 40.8, "lon": -96.66696}}, {"city": "Morristown", "state": "New Jersey", "zip": "36264", "country": "United States", "geoPoint": {"lat": 40.79677, "lon": -74.48154}}, {"city": "Brooklyn", "state": "New York", "zip": "36264", "country": "United States", "geoPoint": {"lat": 40.6501, "lon": -73.94958}}, {"city": "Buffalo", "state": "New York", "zip": "36264", "country": "United States", "geoPoint": {"lat": 42.88645, "lon": -78.87837}}, {"city": "New York", "state": "New York", "zip": "36264", "country": "United States", "geoPoint": {"lat": 40.71427, "lon": -74.00597}}, {"city": "Charlotte", "state": "North Carolina", "zip": "36264", "country": "United States", "geoPoint": {"lat": 35.22709, "lon": -80.84313}}, {"city": "Greensboro", "state": "North Carolina", "zip": "36264", "country": "United States", "geoPoint": {"lat": 36.07264, "lon": -79.79198}}, {"city": "Cleveland", "state": "Ohio", "zip": "36264", "country": "United States", "geoPoint": {"lat": 41.4995, "lon": -81.69541}}, {"city": "Columbus", "state": "Ohio", "zip": "36264", "country": "United States", "geoPoint": {"lat": 39.96118, "lon": -82.99879}}, {"city": "Oklahoma City", "state": "Oklahoma", "zip": "36264", "country": "United States", "geoPoint": {"lat": 35.46756, "lon": -97.51643}}, {"city": "Portland", "state": "Oregon", "zip": "36264", "country": "United States", "geoPoint": {"lat": 45.52345, "lon": -122.67621}}, {"city": "Charleston", "state": "South Carolina", "zip": "36264", "country": "United States", "geoPoint": {"lat": 32.77657, "lon": -79.93092}}, {"city": "Spartanburg", "state": "South Carolina", "zip": "36264", "country": "United States", "geoPoint": {"lat": 34.94957, "lon": -81.93205}}, {"city": "Chattanooga", "state": "Tennessee", "zip": "36264", "country": "United States", "geoPoint": {"lat": 35.04563, "lon": -85.30968}}, {"city": "Austin", "state": "Texas", "zip": "36264", "country": "United States", "geoPoint": {"lat": 30.26715, "lon": -97.74306}}, {"city": "Dallas", "state": "Texas", "zip": "36264", "country": "United States", "geoPoint": {"lat": 32.78306, "lon": -96.80667}}, {"city": "Tyler", "state": "Texas", "zip": "36264", "country": "United States", "geoPoint": {"lat": 32.35126, "lon": -95.30106}}, {"city": "Burlington", "state": "Vermont", "zip": "36264", "country": "United States", "geoPoint": {"lat": 44.47588, "lon": -73.21207}}, {"city": "Norfolk", "state": "Virginia", "zip": "36264", "country": "United States", "geoPoint": {"lat": 36.84681, "lon": -76.28522}}, {"city": "Richmond", "state": "Virginia", "zip": "36264", "country": "United States", "geoPoint": {"lat": 37.55376, "lon": -77.46026}}, {"city": "Bellingham", "state": "Washington", "zip": "36264", "country": "United States", "geoPoint": {"lat": 48.75955, "lon": -122.48822}}, {"city": "Spokane", "state": "Washington", "zip": "36264", "country": "United States", "geoPoint": {"lat": 47.65966, "lon": -117.42908}}, {"city": "Morgantown", "state": "West Virginia", "zip": "36264", "country": "United States", "geoPoint": {"lat": 39.62953, "lon": -79.9559}}, {"city": "Milwaukee", "state": "Wisconsin", "zip": "36264", "country": "United States", "geoPoint": {"lat": 43.0389, "lon": -87.90647}}, {"city": "Adelaide", "country": "Australia", "geoPoint": {"lat": -34.92866, "lon": 138.59863}}, {"city": "Camperdown", "country": "Australia", "geoPoint": {"lat": -33.88965, "lon": 151.17642}}, {"city": "Chermside", "country": "Australia", "geoPoint": {"lat": -27.38472, "lon": 153.03062}}, {"city": "Darlinghurst", "country": "Australia", "geoPoint": {"lat": -33.87939, "lon": 151.21925}}, {"city": "Perth", "country": "Australia", "geoPoint": {"lat": -31.95224, "lon": 115.8614}}, {"city": "Spring Hill", "country": "Australia", "geoPoint": {"lat": -27.46141, "lon": 153.02311}}, {"city": "Linz", "country": "Austria", "geoPoint": {"lat": 48.30639, "lon": 14.28611}}, {"city": "Genk", "country": "Belgium", "geoPoint": {"lat": 50.965, "lon": 5.50082}}, {"city": "Leuven", "country": "Belgium", "geoPoint": {"lat": 50.87959, "lon": 4.70093}}, {"city": "Yvoir", "country": "Belgium", "geoPoint": {"lat": 50.3279, "lon": 4.88059}}, {"city": "Calgary", "country": "Canada", "geoPoint": {"lat": 51.05011, "lon": -114.08529}}, {"city": "London", "country": "Canada", "geoPoint": {"lat": 42.98339, "lon": -81.23304}}, {"city": "Montreal", "country": "Canada", "geoPoint": {"lat": 45.50884, "lon": -73.58781}}, {"city": "Newmarket", "country": "Canada", "geoPoint": {"lat": 44.05011, "lon": -79.46631}}, {"city": "Ottawa", "country": "Canada", "geoPoint": {"lat": 45.41117, "lon": -75.69812}}, {"city": "Victoria", "country": "Canada", "geoPoint": {"lat": 48.43294, "lon": -123.3693}}, {"city": "Aalborg", "country": "Denmark", "geoPoint": {"lat": 57.048, "lon": 9.9187}}, {"city": "K\u00f8benhavn", "country": "Denmark", "geoPoint": {"lat": 55.67594, "lon": 12.56553}}, {"city": "Odense", "country": "Denmark", "geoPoint": {"lat": 55.39594, "lon": 10.38831}}, {"city": "\u00c5rhus", "country": "Denmark", "geoPoint": {"lat": 56.15674, "lon": 10.21076}}, {"city": "Bochum", "country": "Germany", "geoPoint": {"lat": 51.48165, "lon": 7.21648}}, {"city": "Hamburg", "country": "Germany", "geoPoint": {"lat": 53.57532, "lon": 10.01534}}, {"city": "Ludenscheid", "country": "Germany", "geoPoint": {"lat": 51.21977, "lon": 7.6273}}, {"city": "Reinbek", "country": "Germany", "geoPoint": {"lat": 53.51703, "lon": 10.2488}}, {"city": "Trier", "country": "Germany", "geoPoint": {"lat": 49.75565, "lon": 6.63935}}, {"city": "Athens", "country": "Greece", "geoPoint": {"lat": 37.97945, "lon": 23.71622}}, {"city": "Hong Kong", "country": "Hong Kong", "geoPoint": {"lat": 22.27832, "lon": 114.17469}}, {"city": "Budapest", "country": "Hungary", "geoPoint": {"lat": 47.49801, "lon": 19.03991}}, {"city": "Milano", "country": "Italy", "geoPoint": {"lat": 45.46427, "lon": 9.18951}}, {"city": "Pavia", "country": "Italy", "geoPoint": {"lat": 45.19205, "lon": 9.15917}}, {"city": "Pedara", "country": "Italy", "geoPoint": {"lat": 37.62386, "lon": 15.05672}}, {"city": "Rozzano", "country": "Italy", "geoPoint": {"lat": 45.38193, "lon": 9.1559}}, {"city": "Osaka", "country": "Japan", "geoPoint": {"lat": 34.69374, "lon": 135.50218}}, {"city": "Tokyo", "country": "Japan", "geoPoint": {"lat": 35.6895, "lon": 139.69171}}, {"city": "Tsukuba city", "country": "Japan", "geoPoint": {"lat": 36.2, "lon": 140.1}}, {"city": "Nijmegen", "country": "Netherlands", "geoPoint": {"lat": 51.8425, "lon": 5.85278}}, {"city": "Rotterdam", "country": "Netherlands", "geoPoint": {"lat": 51.9225, "lon": 4.47917}}, {"city": "Bergen", "country": "Norway", "geoPoint": {"lat": 60.39299, "lon": 5.32415}}, {"city": "Oslo", "country": "Norway", "geoPoint": {"lat": 59.91273, "lon": 10.74609}}, {"city": "Tyumen", "country": "Russian Federation", "geoPoint": {"lat": 57.15222, "lon": 65.52722}}, {"city": "Riyadh", "country": "Saudi Arabia", "geoPoint": {"lat": 24.68773, "lon": 46.72185}}, {"city": "Belgrade", "country": "Serbia", "geoPoint": {"lat": 44.80401, "lon": 20.46513}}, {"city": "Nis", "country": "Serbia", "geoPoint": {"lat": 43.32472, "lon": 21.90333}}, {"city": "Sremska Kamenica", "country": "Serbia", "geoPoint": {"lat": 45.22158, "lon": 19.84367}}, {"city": "Albacete", "country": "Spain", "geoPoint": {"lat": 38.99424, "lon": -1.85643}}, {"city": "Madrid", "country": "Spain", "geoPoint": {"lat": 40.4165, "lon": -3.70256}}, {"city": "Majadahonda", "country": "Spain", "geoPoint": {"lat": 40.47353, "lon": -3.87182}}, {"city": "Vitoria-Gasteiz", "country": "Spain", "geoPoint": {"lat": 42.84998, "lon": -2.67268}}, {"city": "Lund", "country": "Sweden", "geoPoint": {"lat": 55.70584, "lon": 13.19321}}, {"city": "Stockholm", "country": "Sweden", "geoPoint": {"lat": 59.33258, "lon": 18.0649}}]}, "referencesModule": {"references": [{"pmid": "30991823", "type": "DERIVED", "citation": "Gasparini M, Birnie D, Lemke B, Aonuma K, Lee KL, Gorcsan J 3rd, Landolina M, Klepfer R, Meloni S, Cicconelli M, Grammatico A, Martin DO. Adaptive Cardiac Resynchronization Therapy Reduces Atrial Fibrillation Incidence in Heart Failure Patients With Prolonged AV Conduction: The Adaptive CRT Randomized Trial. Circ Arrhythm Electrophysiol. 2019 May;12(5):e007260. doi: 10.1161/CIRCEP.119.007260. No abstract available."}, {"pmid": "28893549", "type": "DERIVED", "citation": "Birnie D, Hudnall H, Lemke B, Aonuma K, Lee KL, Gasparini M, Gorcsan J 3rd, Cerkvenik J, Martin DO. Continuous optimization of cardiac resynchronization therapy reduces atrial fibrillation in heart failure patients: Results of the Adaptive Cardiac Resynchronization Therapy Trial. Heart Rhythm. 2017 Dec;14(12):1820-1825. doi: 10.1016/j.hrthm.2017.08.017. Epub 2017 Sep 9."}, {"pmid": "28416247", "type": "DERIVED", "citation": "Yamasaki H, Lustgarten D, Cerkvenik J, Birnie D, Gasparini M, Lee KL, Sekiguchi Y, Varma N, Lemke B, Starling RC, Aonuma K. Adaptive CRT in patients with normal AV conduction and left bundle branch block: Does QRS duration matter? Int J Cardiol. 2017 Aug 1;240:297-301. doi: 10.1016/j.ijcard.2017.04.036. Epub 2017 Apr 12."}, {"pmid": "26071616", "type": "DERIVED", "citation": "Starling RC, Krum H, Bril S, Tsintzos SI, Rogers T, Hudnall JH, Martin DO. Impact of a Novel Adaptive Optimization Algorithm on 30-Day Readmissions: Evidence From the Adaptive CRT Trial. JACC Heart Fail. 2015 Jul;3(7):565-572. doi: 10.1016/j.jchf.2015.03.001. Epub 2015 Jun 10."}, {"pmid": "23851059", "type": "DERIVED", "citation": "Birnie D, Lemke B, Aonuma K, Krum H, Lee KL, Gasparini M, Starling RC, Milasinovic G, Gorcsan J 3rd, Houmsse M, Abeyratne A, Sambelashvili A, Martin DO. Clinical outcomes with synchronized left ventricular pacing: analysis of the adaptive CRT trial. Heart Rhythm. 2013 Sep;10(9):1368-74. doi: 10.1016/j.hrthm.2013.07.007. Epub 2013 Jul 11."}, {"pmid": "22607850", "type": "DERIVED", "citation": "Krum H, Lemke B, Birnie D, Lee KL, Aonuma K, Starling RC, Gasparini M, Gorcsan J, Rogers T, Sambelashvili A, Kalmes A, Martin D. A novel algorithm for individualized cardiac resynchronization therapy: rationale and design of the adaptive cardiac resynchronization therapy trial. Am Heart J. 2012 May;163(5):747-752.e1. doi: 10.1016/j.ahj.2012.02.007."}]}}, "resultsSection": {"participantFlowModule": {"preAssignmentDetails": "Total number of:\n\n* 522 pts enrolled, 1 exit\n* 521 pts with baseline information, 16 exits\n* 505 pts of which 14 unsuccessful implants and 491 successful implants, 12 exits and 1 death\n* 478 randomized (318 to aCRT, 160 to control)", "groups": [{"id": "FG000", "title": "Adaptive CRT (aCRT) Pacing", "description": "Cardiac resynchronization therapy (CRT) with adaptive pacing\n\nCardiac Resynchronization Therapy-Defibrillator (CRT-D): Market approved Medtronic Vision 3D\u2122 CRT-D implantable device (Consulta\u00ae CRT-D, Maximo II\u00ae CRT-D, or Concerto II\u00ae CRT-D)\n\nAdaptive CRT (aCRT) Pacing: Adaptive CRT pacing software adjusts how the device paces the heart based on the patient's current heart status"}, {"id": "FG001", "title": "Standard Biventricular Pacing", "description": "Cardiac resynchronization therapy (CRT) with biventricular pacing only (without adaptive pacing)\n\nCardiac Resynchronization Therapy-Defibrillator (CRT-D): Market approved Medtronic Vision 3D\u2122 CRT-D implantable device (Consulta\u00ae CRT-D, Maximo II\u00ae CRT-D, or Concerto II\u00ae CRT-D)"}], "periods": [{"title": "Overall Study", "milestones": [{"type": "STARTED", "achievements": [{"groupId": "FG000", "numSubjects": "318"}, {"groupId": "FG001", "numSubjects": "160"}]}, {"type": "COMPLETED", "achievements": [{"groupId": "FG000", "numSubjects": "299"}, {"groupId": "FG001", "numSubjects": "155"}]}, {"type": "NOT COMPLETED", "achievements": [{"groupId": "FG000", "numSubjects": "19"}, {"groupId": "FG001", "numSubjects": "5"}]}], "dropWithdraws": [{"type": "Death", "reasons": [{"groupId": "FG000", "numSubjects": "13"}, {"groupId": "FG001", "numSubjects": "3"}]}, {"type": "Adverse Event", "reasons": [{"groupId": "FG000", "numSubjects": "0"}, {"groupId": "FG001", "numSubjects": "1"}]}, {"type": "Physician Decision", "reasons": [{"groupId": "FG000", "numSubjects": "4"}, {"groupId": "FG001", "numSubjects": "0"}]}, {"type": "Lost to Follow-up", "reasons": [{"groupId": "FG000", "numSubjects": "1"}, {"groupId": "FG001", "numSubjects": "0"}]}, {"type": "Withdrawal by Subject", "reasons": [{"groupId": "FG000", "numSubjects": "1"}, {"groupId": "FG001", "numSubjects": "1"}]}]}]}, "baselineCharacteristicsModule": {"groups": [{"id": "BG000", "title": "Adaptive CRT (aCRT) Pacing", "description": "Cardiac resynchronization therapy (CRT) with adaptive pacing\n\nCardiac Resynchronization Therapy-Defibrillator (CRT-D): Market approved Medtronic Vision 3D\u2122 CRT-D implantable device (Consulta\u00ae CRT-D, Maximo II\u00ae CRT-D, or Concerto II\u00ae CRT-D)\n\nAdaptive CRT (aCRT) Pacing: Adaptive CRT pacing software adjusts how the device paces the heart based on the patient's current heart status"}, {"id": "BG001", "title": "Standard Biventricular Pacing", "description": "Cardiac resynchronization therapy (CRT) with biventricular pacing only (without adaptive pacing)\n\nCardiac Resynchronization Therapy-Defibrillator (CRT-D): Market approved Medtronic Vision 3D\u2122 CRT-D implantable device (Consulta\u00ae CRT-D, Maximo II\u00ae CRT-D, or Concerto II\u00ae CRT-D)"}, {"id": "BG002", "title": "Total", "description": "Total of all reporting groups"}], "denoms": [{"units": "Participants", "counts": [{"groupId": "BG000", "value": "318"}, {"groupId": "BG001", "value": "160"}, {"groupId": "BG002", "value": "478"}]}], "measures": [{"title": "Age, Continuous", "paramType": "MEAN", "dispersionType": "STANDARD_DEVIATION", "unitOfMeasure": "years", "classes": [{"categories": [{"measurements": [{"groupId": "BG000", "value": "65.4", "spread": "11.2"}, {"groupId": "BG001", "value": "66.2", "spread": "9.7"}, {"groupId": "BG002", "value": "65.7", "spread": "10.7"}]}]}]}, {"title": "Sex: Female, Male", "paramType": "COUNT_OF_PARTICIPANTS", "unitOfMeasure": "Participants", "classes": [{"categories": [{"title": "Female", "measurements": [{"groupId": "BG000", "value": "97"}, {"groupId": "BG001", "value": "51"}, {"groupId": "BG002", "value": "148"}]}, {"title": "Male", "measurements": [{"groupId": "BG000", "value": "221"}, {"groupId": "BG001", "value": "109"}, {"groupId": "BG002", "value": "330"}]}]}]}, {"title": "Race/Ethnicity, Customized", "paramType": "COUNT_OF_PARTICIPANTS", "unitOfMeasure": "Participants", "calculatePct": false, "classes": [{"title": "Asian", "categories": [{"measurements": [{"groupId": "BG000", "value": "8"}, {"groupId": "BG001", "value": "3"}, {"groupId": "BG002", "value": "11"}]}]}, {"title": "Black or African American", "categories": [{"measurements": [{"groupId": "BG000", "value": "29"}, {"groupId": "BG001", "value": "6"}, {"groupId": "BG002", "value": "35"}]}]}, {"title": "Hispanic or Latino", "categories": [{"measurements": [{"groupId": "BG000", "value": "13"}, {"groupId": "BG001", "value": "5"}, {"groupId": "BG002", "value": "18"}]}]}, {"title": "Native Hawaiian or Pacific Islander", "categories": [{"measurements": [{"groupId": "BG000", "value": "0"}, {"groupId": "BG001", "value": "1"}, {"groupId": "BG002", "value": "1"}]}]}, {"title": "White or Caucasian", "categories": [{"measurements": [{"groupId": "BG000", "value": "257"}, {"groupId": "BG001", "value": "139"}, {"groupId": "BG002", "value": "396"}]}]}, {"title": "Two or more races", "categories": [{"measurements": [{"groupId": "BG000", "value": "3"}, {"groupId": "BG001", "value": "1"}, {"groupId": "BG002", "value": "4"}]}]}, {"title": "Other race", "categories": [{"measurements": [{"groupId": "BG000", "value": "0"}, {"groupId": "BG001", "value": "0"}, {"groupId": "BG002", "value": "0"}]}]}, {"title": "Not available", "categories": [{"measurements": [{"groupId": "BG000", "value": "7"}, {"groupId": "BG001", "value": "5"}, {"groupId": "BG002", "value": "12"}]}]}]}, {"title": "Region of Enrollment", "paramType": "NUMBER", "unitOfMeasure": "participants", "classes": [{"title": "Russia", "categories": [{"measurements": [{"groupId": "BG000", "value": "1"}, {"groupId": "BG001", "value": "0"}, {"groupId": "BG002", "value": "1"}]}]}, {"title": "Hong Kong", "categories": [{"measurements": [{"groupId": "BG000", "value": "2"}, {"groupId": "BG001", "value": "1"}, {"groupId": "BG002", "value": "3"}]}]}, {"title": "United States", "categories": [{"measurements": [{"groupId": "BG000", "value": "176"}, {"groupId": "BG001", "value": "87"}, {"groupId": "BG002", "value": "263"}]}]}, {"title": "Japan", "categories": [{"measurements": [{"groupId": "BG000", "value": "4"}, {"groupId": "BG001", "value": "2"}, {"groupId": "BG002", "value": "6"}]}]}, {"title": "Spain", "categories": [{"measurements": [{"groupId": "BG000", "value": "1"}, {"groupId": "BG001", "value": "0"}, {"groupId": "BG002", "value": "1"}]}]}, {"title": "Saudi Arabia", "categories": [{"measurements": [{"groupId": "BG000", "value": "1"}, {"groupId": "BG001", "value": "1"}, {"groupId": "BG002", "value": "2"}]}]}, {"title": "Canada", "categories": [{"measurements": [{"groupId": "BG000", "value": "17"}, {"groupId": "BG001", "value": "8"}, {"groupId": "BG002", "value": "25"}]}]}, {"title": "Austria", "categories": [{"measurements": [{"groupId": "BG000", "value": "5"}, {"groupId": "BG001", "value": "2"}, {"groupId": "BG002", "value": "7"}]}]}, {"title": "Netherlands", "categories": [{"measurements": [{"groupId": "BG000", "value": "11"}, {"groupId": "BG001", "value": "5"}, {"groupId": "BG002", "value": "16"}]}]}, {"title": "Sweden", "categories": [{"measurements": [{"groupId": "BG000", "value": "2"}, {"groupId": "BG001", "value": "2"}, {"groupId": "BG002", "value": "4"}]}]}, {"title": "Belgium", "categories": [{"measurements": [{"groupId": "BG000", "value": "6"}, {"groupId": "BG001", "value": "3"}, {"groupId": "BG002", "value": "9"}]}]}, {"title": "Norway", "categories": [{"measurements": [{"groupId": "BG000", "value": "7"}, {"groupId": "BG001", "value": "3"}, {"groupId": "BG002", "value": "10"}]}]}, {"title": "Denmark", "categories": [{"measurements": [{"groupId": "BG000", "value": "11"}, {"groupId": "BG001", "value": "7"}, {"groupId": "BG002", "value": "18"}]}]}, {"title": "Italy", "categories": [{"measurements": [{"groupId": "BG000", "value": "3"}, {"groupId": "BG001", "value": "2"}, {"groupId": "BG002", "value": "5"}]}]}, {"title": "Australia", "categories": [{"measurements": [{"groupId": "BG000", "value": "18"}, {"groupId": "BG001", "value": "12"}, {"groupId": "BG002", "value": "30"}]}]}, {"title": "Serbia", "categories": [{"measurements": [{"groupId": "BG000", "value": "23"}, {"groupId": "BG001", "value": "10"}, {"groupId": "BG002", "value": "33"}]}]}, {"title": "Germany", "categories": [{"measurements": [{"groupId": "BG000", "value": "31"}, {"groupId": "BG001", "value": "14"}, {"groupId": "BG002", "value": "45"}]}]}]}]}, "outcomeMeasuresModule": {"outcomeMeasures": [{"type": "PRIMARY", "title": "Percentage of Patients With Improved Heart Failure Outcomes Clinical Composite Score", "description": "Patients considered worsened if they died, were hospitalized with worsening heart failure (HF), crossed over to other arm, demonstrated worsening in New York Heart Association (NYHA) functional class, or reported moderately/markedly worse on 'patient global assessment' compared to before CRT implant. Patients are improved if they are not worsened and have an improved NYHA or reported moderately/markedly improved on the 'patient global assessment' compared to before CRT implant\n\nGlobal assessment question for the patient: Specifically in reference to your heart failure symptoms, how do you feel today as compared to how you felt before your CRT system was implanted? O Markedly improved O Moderately improved O Mildly improved O No change O Slightly worse O Moderately worse O Markedly worse", "reportingStatus": "POSTED", "paramType": "COUNT_OF_PARTICIPANTS", "unitOfMeasure": "Participants", "timeFrame": "randomization to six month visit", "groups": [{"id": "OG000", "title": "Adaptive CRT (aCRT) Pacing", "description": "Cardiac resynchronization therapy (CRT) with adaptive pacing\n\nCardiac Resynchronization Therapy-Defibrillator (CRT-D): Market approved Medtronic Vision 3D\u2122 CRT-D implantable device (Consulta\u00ae CRT-D, Maximo II\u00ae CRT-D, or Concerto II\u00ae CRT-D)\n\nAdaptive CRT (aCRT) Pacing: Adaptive CRT pacing software adjusts how the device paces the heart based on the patient's current heart status"}, {"id": "OG001", "title": "Standard Biventricular Pacing", "description": "Cardiac resynchronization therapy (CRT) with biventricular pacing only (without adaptive pacing)\n\nCardiac Resynchronization Therapy-Defibrillator (CRT-D): Market approved Medtronic Vision 3D\u2122 CRT-D implantable device (Consulta\u00ae CRT-D, Maximo II\u00ae CRT-D, or Concerto II\u00ae CRT-D)"}], "denoms": [{"units": "Participants", "counts": [{"groupId": "OG000", "value": "318"}, {"groupId": "OG001", "value": "160"}]}], "classes": [{"categories": [{"measurements": [{"groupId": "OG000", "value": "234"}, {"groupId": "OG001", "value": "114"}]}]}], "analyses": [{"groupIds": ["OG000", "OG001"], "nonInferiorityType": "NON_INFERIORITY", "nonInferiorityComment": "The non-inferiority margin was 12%.", "pValue": "0.0002", "statisticalMethod": "Farrington-Manning test of two ind. prop"}]}, {"type": "PRIMARY", "title": "Correlation Between Aortic Velocity Time Integral (AoVTI) at Adaptive CRT and Echo-optimized Device Settings", "description": "Correlation between aortic velocity time integral (AoVTI) at Adaptive CRT and echo-optimized device settings. AoVTI is an echocardiographic representative of stroke volume and cardiac performance.", "populationDescription": "Concordance correlations have been calculated between AoVTI at Adaptive CRT AV and VV settings vs. echo-optimized AV and VV settings at randomization and 6 M. Paired AoVTI measurements were used for concordance correlation analysis, where each subject served as his/her own control. AoVTI was not obtained at both settings for 79 patients.", "reportingStatus": "POSTED", "paramType": "NUMBER", "dispersionType": "95% Confidence Interval", "unitOfMeasure": "Concordance correlation coefficient", "timeFrame": "randomization visit and six month visit", "groups": [{"id": "OG000", "title": "All Randomized Patients", "description": "The AoVTI was calculated for each Adaptive CRT subject under two different parameter settings: AV and VV settings determined by Adaptive CRT, and AV and VV settings determined by echo-optimization.\n\nSubsequently a concordance correlation was calculated and reported, thus this measure cannot be reported per treatment arm."}], "denoms": [{"units": "Participants", "counts": [{"groupId": "OG000", "value": "399"}]}], "classes": [{"categories": [{"measurements": [{"groupId": "OG000", "value": "0.93", "lowerLimit": "0.91", "upperLimit": "0.94"}]}]}], "analyses": [{"groupIds": ["OG000"], "nonInferiorityType": "SUPERIORITY", "nonInferiorityComment": "The pre-specified minimum objective performance criteria was 0.82", "pValue": "<0.0001", "statisticalMethod": "t-test, 1 sided"}]}, {"type": "PRIMARY", "title": "Percentage of Patients With a Safety Event (Inappropriate AV or VV Delay Settings Related to the aCRT Feature)", "description": "For each subject, the Adaptive CRT-determined AV and VV delay settings from randomization up to 183-days post-randomization were evaluated to identify any period of 28-days with a wide delay range (\\>60 ms)", "populationDescription": "17 participants did not have data available for analysis of this endpoint.", "reportingStatus": "POSTED", "paramType": "COUNT_OF_PARTICIPANTS", "unitOfMeasure": "Participants", "timeFrame": "randomization to 6 months post randomization", "groups": [{"id": "OG000", "title": "Adaptive CRT (aCRT) Pacing", "description": "Cardiac resynchronization therapy (CRT) with adaptive pacing\n\nCardiac Resynchronization Therapy-Defibrillator (CRT-D): Market approved Medtronic Vision 3D\u2122 CRT-D implantable device (Consulta\u00ae CRT-D, Maximo II\u00ae CRT-D, or Concerto II\u00ae CRT-D)\n\nAdaptive CRT (aCRT) Pacing: Adaptive CRT pacing software adjusts how the device paces the heart based on the patient's current heart status"}], "denoms": [{"units": "Participants", "counts": [{"groupId": "OG000", "value": "301"}]}], "classes": [{"categories": [{"measurements": [{"groupId": "OG000", "value": "0"}]}]}]}, {"type": "SECONDARY", "title": "Right Ventricular Pacing Percentage", "description": "The percentage of time the right ventricle is paced by the device", "reportingStatus": "POSTED", "paramType": "MEAN", "dispersionType": "Standard Deviation", "unitOfMeasure": "percentage of right ventricle pacing", "timeFrame": "implant to six months post randomization", "groups": [{"id": "OG000", "title": "Adaptive CRT (aCRT) Pacing", "description": "Cardiac resynchronization therapy (CRT) with adaptive pacing\n\nCardiac Resynchronization Therapy-Defibrillator (CRT-D): Market approved Medtronic Vision 3D\u2122 CRT-D implantable device (Consulta\u00ae CRT-D, Maximo II\u00ae CRT-D, or Concerto II\u00ae CRT-D)\n\nAdaptive CRT (aCRT) Pacing: Adaptive CRT pacing software adjusts how the device paces the heart based on the patient's current heart status"}, {"id": "OG001", "title": "Standard Biventricular Pacing", "description": "Cardiac resynchronization therapy (CRT) with biventricular pacing only (without adaptive pacing)\n\nCardiac Resynchronization Therapy-Defibrillator (CRT-D): Market approved Medtronic Vision 3D\u2122 CRT-D implantable device (Consulta\u00ae CRT-D, Maximo II\u00ae CRT-D, or Concerto II\u00ae CRT-D)"}], "denoms": [{"units": "Participants", "counts": [{"groupId": "OG000", "value": "314"}, {"groupId": "OG001", "value": "160"}]}], "classes": [{"categories": [{"measurements": [{"groupId": "OG000", "value": "51.3", "spread": "37.9"}, {"groupId": "OG001", "value": "95.1", "spread": "10.5"}]}]}], "analyses": [{"groupIds": ["OG000", "OG001"], "nonInferiorityType": "SUPERIORITY", "pValue": "<0.0001", "statisticalMethod": "t-test, 2 sided"}]}, {"type": "SECONDARY", "title": "Change in Left Ventricular End Systolic Volume Index (LVESVi)", "description": "Change in left ventricular end systolic volume index (LVESVi).", "reportingStatus": "POSTED", "paramType": "MEAN", "dispersionType": "Standard Deviation", "unitOfMeasure": "milliliters per meter squared", "timeFrame": "baseline to six month visit", "groups": [{"id": "OG000", "title": "Adaptive CRT (aCRT) Pacing", "description": "Cardiac resynchronization therapy (CRT) with adaptive pacing\n\nCardiac Resynchronization Therapy-Defibrillator (CRT-D): Market approved Medtronic Vision 3D\u2122 CRT-D implantable device (Consulta\u00ae CRT-D, Maximo II\u00ae CRT-D, or Concerto II\u00ae CRT-D)\n\nAdaptive CRT (aCRT) Pacing: Adaptive CRT pacing software adjusts how the device paces the heart based on the patient's current heart status"}, {"id": "OG001", "title": "Standard Biventricular Pacing", "description": "Cardiac resynchronization therapy (CRT) with biventricular pacing only (without adaptive pacing)\n\nCardiac Resynchronization Therapy-Defibrillator (CRT-D): Market approved Medtronic Vision 3D\u2122 CRT-D implantable device (Consulta\u00ae CRT-D, Maximo II\u00ae CRT-D, or Concerto II\u00ae CRT-D)"}], "denoms": [{"units": "Participants", "counts": [{"groupId": "OG000", "value": "250"}, {"groupId": "OG001", "value": "123"}]}], "classes": [{"categories": [{"measurements": [{"groupId": "OG000", "value": "-8.3", "spread": "23.3"}, {"groupId": "OG001", "value": "-10.5", "spread": "24.2"}]}]}], "analyses": [{"groupIds": ["OG000", "OG001"], "nonInferiorityType": "NON_INFERIORITY", "nonInferiorityComment": "The non-inferiority margin is 15", "pValue": "<0.0001", "statisticalMethod": "t-test, 1 sided"}]}, {"type": "SECONDARY", "title": "Change in Left Ventricular Ejection Fraction (LVEF)", "reportingStatus": "POSTED", "paramType": "MEAN", "dispersionType": "Standard Deviation", "unitOfMeasure": "percent", "timeFrame": "baseline to six month visit", "groups": [{"id": "OG000", "title": "Adaptive CRT (aCRT) Pacing", "description": "Cardiac resynchronization therapy (CRT) with adaptive pacing\n\nCardiac Resynchronization Therapy-Defibrillator (CRT-D): Market approved Medtronic Vision 3D\u2122 CRT-D implantable device (Consulta\u00ae CRT-D, Maximo II\u00ae CRT-D, or Concerto II\u00ae CRT-D)\n\nAdaptive CRT (aCRT) Pacing: Adaptive CRT pacing software adjusts how the device paces the heart based on the patient's current heart status"}, {"id": "OG001", "title": "Standard Biventricular Pacing", "description": "Cardiac resynchronization therapy (CRT) with biventricular pacing only (without adaptive pacing)\n\nCardiac Resynchronization Therapy-Defibrillator (CRT-D): Market approved Medtronic Vision 3D\u2122 CRT-D implantable device (Consulta\u00ae CRT-D, Maximo II\u00ae CRT-D, or Concerto II\u00ae CRT-D)"}], "denoms": [{"units": "Participants", "counts": [{"groupId": "OG000", "value": "250"}, {"groupId": "OG001", "value": "123"}]}], "classes": [{"categories": [{"measurements": [{"groupId": "OG000", "value": "3.9", "spread": "10.0"}, {"groupId": "OG001", "value": "2.9", "spread": "9.8"}]}]}], "analyses": [{"groupIds": ["OG000", "OG001"], "nonInferiorityType": "NON_INFERIORITY", "nonInferiorityComment": "The non-inferiority margin is 2.5", "pValue": "0.0009", "statisticalMethod": "t-test, 1 sided"}]}, {"type": "SECONDARY", "title": "Change in New York Heart Association (NYHA) Classification", "description": "The New York Heart Association (NYHA) Functional Classification places patients in one of four categories based on how much they are limited during physical activity.\n\nClass - Patient Symptoms I - No limitation of physical activity. Ordinary physical activity does not cause undue fatigue, palpitation, dyspnea (shortness of breath).\n\nII- Slight limitation of physical activity. Comfortable at rest. Ordinary physical activity results in fatigue, palpitation, dyspnea (shortness of breath).\n\nIII- Marked limitation of physical activity. Comfortable at rest. Less than ordinary activity causes fatigue, palpitation, or dyspnea.\n\nIV- Unable to carry on any physical activity without discomfort. Symptoms of heart failure at rest. If any physical activity is undertaken, discomfort increases.", "reportingStatus": "POSTED", "paramType": "MEAN", "dispersionType": "Standard Deviation", "unitOfMeasure": "NYHA class", "timeFrame": "baseline to six month visit", "groups": [{"id": "OG000", "title": "Adaptive CRT (aCRT) Pacing", "description": "Cardiac resynchronization therapy (CRT) with adaptive pacing\n\nCardiac Resynchronization Therapy-Defibrillator (CRT-D): Market approved Medtronic Vision 3D\u2122 CRT-D implantable device (Consulta\u00ae CRT-D, Maximo II\u00ae CRT-D, or Concerto II\u00ae CRT-D)\n\nAdaptive CRT (aCRT) Pacing: Adaptive CRT pacing software adjusts how the device paces the heart based on the patient's current heart status"}, {"id": "OG001", "title": "Standard Biventricular Pacing", "description": "Cardiac resynchronization therapy (CRT) with biventricular pacing only (without adaptive pacing)\n\nCardiac Resynchronization Therapy-Defibrillator (CRT-D): Market approved Medtronic Vision 3D\u2122 CRT-D implantable device (Consulta\u00ae CRT-D, Maximo II\u00ae CRT-D, or Concerto II\u00ae CRT-D)"}], "denoms": [{"units": "Participants", "counts": [{"groupId": "OG000", "value": "296"}, {"groupId": "OG001", "value": "153"}]}], "classes": [{"categories": [{"measurements": [{"groupId": "OG000", "value": "-1.0", "spread": "0.8"}, {"groupId": "OG001", "value": "-0.8", "spread": "0.8"}]}]}], "analyses": [{"groupIds": ["OG000", "OG001"], "nonInferiorityType": "NON_INFERIORITY", "nonInferiorityComment": "The non-inferiority margin is 0.3", "pValue": "<0.0001", "statisticalMethod": "t-test, 1 sided"}]}, {"type": "SECONDARY", "title": "Change in Distance Walked During the Six Minute Hall Walk", "reportingStatus": "POSTED", "paramType": "MEAN", "dispersionType": "Standard Deviation", "unitOfMeasure": "meters", "timeFrame": "baseline to six month visit", "groups": [{"id": "OG000", "title": "Adaptive CRT (aCRT) Pacing", "description": "Cardiac resynchronization therapy (CRT) with adaptive pacing\n\nCardiac Resynchronization Therapy-Defibrillator (CRT-D): Market approved Medtronic Vision 3D\u2122 CRT-D implantable device (Consulta\u00ae CRT-D, Maximo II\u00ae CRT-D, or Concerto II\u00ae CRT-D)\n\nAdaptive CRT (aCRT) Pacing: Adaptive CRT pacing software adjusts how the device paces the heart based on the patient's current heart status"}, {"id": "OG001", "title": "Standard Biventricular Pacing", "description": "Cardiac resynchronization therapy (CRT) with biventricular pacing only (without adaptive pacing)\n\nCardiac Resynchronization Therapy-Defibrillator (CRT-D): Market approved Medtronic Vision 3D\u2122 CRT-D implantable device (Consulta\u00ae CRT-D, Maximo II\u00ae CRT-D, or Concerto II\u00ae CRT-D)"}], "denoms": [{"units": "Participants", "counts": [{"groupId": "OG000", "value": "284"}, {"groupId": "OG001", "value": "142"}]}], "classes": [{"categories": [{"measurements": [{"groupId": "OG000", "value": "42.4", "spread": "103.3"}, {"groupId": "OG001", "value": "29.0", "spread": "123.0"}]}]}], "analyses": [{"groupIds": ["OG000", "OG001"], "nonInferiorityType": "NON_INFERIORITY", "nonInferiorityComment": "The non-inferiority margin is 30", "pValue": "0.0002", "statisticalMethod": "t-test, 1 sided"}]}, {"type": "SECONDARY", "title": "Change in Quality of Life Measured by the Minnesota Living With Heart Failure Questionnaire (MLWHF)", "description": "The MLWHF is a 21 question survey. Scores range from 0-105, with lower scores indicating better health.", "reportingStatus": "POSTED", "paramType": "MEAN", "dispersionType": "Standard Deviation", "unitOfMeasure": "units on a scale", "timeFrame": "baseline to six month visit", "groups": [{"id": "OG000", "title": "Adaptive CRT (aCRT) Pacing", "description": "Cardiac resynchronization therapy (CRT) with adaptive pacing\n\nCardiac Resynchronization Therapy-Defibrillator (CRT-D): Market approved Medtronic Vision 3D\u2122 CRT-D implantable device (Consulta\u00ae CRT-D, Maximo II\u00ae CRT-D, or Concerto II\u00ae CRT-D)\n\nAdaptive CRT (aCRT) Pacing: Adaptive CRT pacing software adjusts how the device paces the heart based on the patient's current heart status"}, {"id": "OG001", "title": "Standard Biventricular Pacing", "description": "Cardiac resynchronization therapy (CRT) with biventricular pacing only (without adaptive pacing)\n\nCardiac Resynchronization Therapy-Defibrillator (CRT-D): Market approved Medtronic Vision 3D\u2122 CRT-D implantable device (Consulta\u00ae CRT-D, Maximo II\u00ae CRT-D, or Concerto II\u00ae CRT-D)"}], "denoms": [{"units": "Participants", "counts": [{"groupId": "OG000", "value": "261"}, {"groupId": "OG001", "value": "135"}]}], "classes": [{"categories": [{"measurements": [{"groupId": "OG000", "value": "-19.3", "spread": "20.7"}, {"groupId": "OG001", "value": "-17.6", "spread": "23.8"}]}]}], "analyses": [{"groupIds": ["OG000", "OG001"], "nonInferiorityType": "NON_INFERIORITY", "nonInferiorityComment": "The non-inferiority margin is 5.1", "pValue": "0.002", "statisticalMethod": "t-test, 1 sided"}]}]}, "adverseEventsModule": {"frequencyThreshold": "5", "timeFrame": "From randomization to the end of the study, which was 31.3 months for the longest-randomized patient. The average follow-up time was 20.2 months.", "eventGroups": [{"id": "EG000", "title": "Adaptive CRT (aCRT) Pacing", "description": "Cardiac resynchronization therapy (CRT) with adaptive pacing\n\nCardiac Resynchronization Therapy-Defibrillator (CRT-D): Market approved Medtronic Vision 3D\u2122 CRT-D implantable device (Consulta\u00ae CRT-D, Maximo II\u00ae CRT-D, or Concerto II\u00ae CRT-D)\n\nAdaptive CRT (aCRT) Pacing: Adaptive CRT pacing software adjusts how the device paces the heart based on the patient's current heart status", "deathsNumAffected": 35, "deathsNumAtRisk": 318, "seriousNumAffected": 158, "seriousNumAtRisk": 318, "otherNumAffected": 50, "otherNumAtRisk": 318}, {"id": "EG001", "title": "Standard Biventricular Pacing", "description": "Cardiac resynchronization therapy (CRT) with biventricular pacing only (without adaptive pacing)\n\nCardiac Resynchronization Therapy-Defibrillator (CRT-D): Market approved Medtronic Vision 3D\u2122 CRT-D implantable device (Consulta\u00ae CRT-D, Maximo II\u00ae CRT-D, or Concerto II\u00ae CRT-D)", "deathsNumAffected": 19, "deathsNumAtRisk": 160, "seriousNumAffected": 86, "seriousNumAtRisk": 160, "otherNumAffected": 34, "otherNumAtRisk": 160}], "seriousEvents": [{"term": "Anaemia", "organSystem": "Blood and lymphatic system disorders", "sourceVocabulary": "MedDRA 15.1", "assessmentType": "SYSTEMATIC_ASSESSMENT", "stats": [{"groupId": "EG000", "numEvents": 4, "numAffected": 4, "numAtRisk": 318}, {"groupId": "EG001", "numEvents": 6, "numAffected": 6, "numAtRisk": 160}]}, {"term": "Coagulopathy", "organSystem": "Blood and lymphatic system disorders", "sourceVocabulary": "MedDRA 15.1", "assessmentType": "SYSTEMATIC_ASSESSMENT", "stats": [{"groupId": "EG000", "numEvents": 0, "numAffected": 0, "numAtRisk": 318}, {"groupId": "EG001", "numEvents": 1, "numAffected": 1, "numAtRisk": 160}]}, {"term": "Iron deficiency anaemia", "organSystem": "Blood and lymphatic system disorders", "sourceVocabulary": "MedDRA 15.1", "assessmentType": "SYSTEMATIC_ASSESSMENT", "stats": [{"groupId": "EG000", "numEvents": 1, "numAffected": 1, "numAtRisk": 318}, {"groupId": "EG001", "numEvents": 0, "numAffected": 0, "numAtRisk": 160}]}, {"term": "Splenic infarction", "organSystem": "Blood and lymphatic system disorders", "sourceVocabulary": "MedDRA 15.1", "assessmentType": "SYSTEMATIC_ASSESSMENT", "stats": [{"groupId": "EG000", "numEvents": 1, "numAffected": 1, "numAtRisk": 318}, {"groupId": "EG001", "numEvents": 0, "numAffected": 0, "numAtRisk": 160}]}, {"term": "Thrombocytopenia", "organSystem": "Blood and lymphatic system disorders", "sourceVocabulary": "MedDRA 15.1", "assessmentType": "SYSTEMATIC_ASSESSMENT", "stats": [{"groupId": "EG000", "numEvents": 0, "numAffected": 0, "numAtRisk": 318}, {"groupId": "EG001", "numEvents": 1, "numAffected": 1, "numAtRisk": 160}]}, {"term": "Acute coronary syndrome", "organSystem": "Cardiac disorders", "sourceVocabulary": "MedDRA 15.1", "assessmentType": "SYSTEMATIC_ASSESSMENT", "stats": [{"groupId": "EG000", "numEvents": 0, "numAffected": 0, "numAtRisk": 318}, {"groupId": "EG001", "numEvents": 1, "numAffected": 1, "numAtRisk": 160}]}, {"term": "Acute myocardial infarction", "organSystem": "Cardiac disorders", "sourceVocabulary": "MedDRA 15.1", "assessmentType": "SYSTEMATIC_ASSESSMENT", "stats": [{"groupId": "EG000", "numEvents": 4, "numAffected": 4, "numAtRisk": 318}, {"groupId": "EG001", "numEvents": 2, "numAffected": 2, "numAtRisk": 160}]}, {"term": "Angina pectoris", "organSystem": "Cardiac disorders", "sourceVocabulary": "MedDRA 15.1", "assessmentType": "SYSTEMATIC_ASSESSMENT", "stats": [{"groupId": "EG000", "numEvents": 3, "numAffected": 3, "numAtRisk": 318}, {"groupId": "EG001", "numEvents": 1, "numAffected": 1, "numAtRisk": 160}]}, {"term": "Angina unstable", "organSystem": "Cardiac disorders", "sourceVocabulary": "MedDRA 15.1", "assessmentType": "SYSTEMATIC_ASSESSMENT", "stats": [{"groupId": "EG000", "numEvents": 1, "numAffected": 1, "numAtRisk": 318}, {"groupId": "EG001", "numEvents": 0, "numAffected": 0, "numAtRisk": 160}]}, {"term": "Aortic valve stenosis", "organSystem": "Cardiac disorders", "sourceVocabulary": "MedDRA 15.1", "assessmentType": "SYSTEMATIC_ASSESSMENT", "stats": [{"groupId": "EG000", "numEvents": 1, "numAffected": 1, "numAtRisk": 318}, {"groupId": "EG001", "numEvents": 0, "numAffected": 0, "numAtRisk": 160}]}, {"term": "Arrhythmia supraventricular", "organSystem": "Cardiac disorders", "sourceVocabulary": "MedDRA 15.1", "assessmentType": "SYSTEMATIC_ASSESSMENT", "stats": [{"groupId": "EG000", "numEvents": 1, "numAffected": 1, "numAtRisk": 318}, {"groupId": "EG001", "numEvents": 0, "numAffected": 0, "numAtRisk": 160}]}, {"term": "Atrial fibrillation", "organSystem": "Cardiac disorders", "sourceVocabulary": "MedDRA 15.1", "assessmentType": "SYSTEMATIC_ASSESSMENT", "stats": [{"groupId": "EG000", "numEvents": 5, "numAffected": 4, "numAtRisk": 318}, {"groupId": "EG001", "numEvents": 8, "numAffected": 5, "numAtRisk": 160}]}, {"term": "Atrial flutter", "organSystem": "Cardiac disorders", "sourceVocabulary": "MedDRA 15.1", "assessmentType": "SYSTEMATIC_ASSESSMENT", "stats": [{"groupId": "EG000", "numEvents": 5, "numAffected": 4, "numAtRisk": 318}, {"groupId": "EG001", "numEvents": 0, "numAffected": 0, "numAtRisk": 160}]}, {"term": "Cardiac arrest", "organSystem": "Cardiac disorders", "sourceVocabulary": "MedDRA 15.1", "assessmentType": "SYSTEMATIC_ASSESSMENT", "stats": [{"groupId": "EG000", "numEvents": 4, "numAffected": 4, "numAtRisk": 318}, {"groupId": "EG001", "numEvents": 1, "numAffected": 1, "numAtRisk": 160}]}, {"term": "Cardiac failure", "organSystem": "Cardiac disorders", "sourceVocabulary": "MedDRA 15.1", "assessmentType": "SYSTEMATIC_ASSESSMENT", "stats": [{"groupId": "EG000", "numEvents": 112, "numAffected": 63, "numAtRisk": 318}, {"groupId": "EG001", "numEvents": 58, "numAffected": 35, "numAtRisk": 160}]}, {"term": "Cardiac failure chronic", "organSystem": "Cardiac disorders", "sourceVocabulary": "MedDRA 15.1", "assessmentType": "SYSTEMATIC_ASSESSMENT", "stats": [{"groupId": "EG000", "numEvents": 1, "numAffected": 1, "numAtRisk": 318}, {"groupId": "EG001", "numEvents": 0, "numAffected": 0, "numAtRisk": 160}]}, {"term": "Cardiac tamponade", "organSystem": "Cardiac disorders", "sourceVocabulary": "MedDRA 15.1", "assessmentType": "SYSTEMATIC_ASSESSMENT", "stats": [{"groupId": "EG000", "numEvents": 1, "numAffected": 1, "numAtRisk": 318}, {"groupId": "EG001", "numEvents": 0, "numAffected": 0, "numAtRisk": 160}]}, {"term": "Cardio-respiratory arrest", "organSystem": "Cardiac disorders", "sourceVocabulary": "MedDRA 15.1", "assessmentType": "SYSTEMATIC_ASSESSMENT", "stats": [{"groupId": "EG000", "numEvents": 0, "numAffected": 0, "numAtRisk": 318}, {"groupId": "EG001", "numEvents": 1, "numAffected": 1, "numAtRisk": 160}]}, {"term": "Cardiogenic shock", "organSystem": "Cardiac disorders", "sourceVocabulary": "MedDRA 15.1", "assessmentType": "SYSTEMATIC_ASSESSMENT", "stats": [{"groupId": "EG000", "numEvents": 1, "numAffected": 1, "numAtRisk": 318}, {"groupId": "EG001", "numEvents": 1, "numAffected": 1, "numAtRisk": 160}]}, {"term": "Coronary artery disease", "organSystem": "Cardiac disorders", "sourceVocabulary": "MedDRA 15.1", "assessmentType": "SYSTEMATIC_ASSESSMENT", "stats": [{"groupId": "EG000", "numEvents": 7, "numAffected": 7, "numAtRisk": 318}, {"groupId": "EG001", "numEvents": 0, "numAffected": 0, "numAtRisk": 160}]}, {"term": "Heart valve incompetence", "organSystem": "Cardiac disorders", "sourceVocabulary": "MedDRA 15.1", "assessmentType": "SYSTEMATIC_ASSESSMENT", "stats": [{"groupId": "EG000", "numEvents": 1, "numAffected": 1, "numAtRisk": 318}, {"groupId": "EG001", "numEvents": 0, "numAffected": 0, "numAtRisk": 160}]}, {"term": "Intracardiac thrombus", "organSystem": "Cardiac disorders", "sourceVocabulary": "MedDRA 15.1", "assessmentType": "SYSTEMATIC_ASSESSMENT", "stats": [{"groupId": "EG000", "numEvents": 1, "numAffected": 1, "numAtRisk": 318}, {"groupId": "EG001", "numEvents": 3, "numAffected": 3, "numAtRisk": 160}]}, {"term": "Mitral valve incompetence", "organSystem": "Cardiac disorders", "sourceVocabulary": "MedDRA 15.1", "assessmentType": "SYSTEMATIC_ASSESSMENT", "stats": [{"groupId": "EG000", "numEvents": 1, "numAffected": 1, "numAtRisk": 318}, {"groupId": "EG001", "numEvents": 0, "numAffected": 0, "numAtRisk": 160}]}, {"term": "Myocardial infarction", "organSystem": "Cardiac disorders", "sourceVocabulary": "MedDRA 15.1", "assessmentType": "SYSTEMATIC_ASSESSMENT", "stats": [{"groupId": "EG000", "numEvents": 3, "numAffected": 2, "numAtRisk": 318}, {"groupId": "EG001", "numEvents": 0, "numAffected": 0, "numAtRisk": 160}]}, {"term": "Pericardial effusion", "organSystem": "Cardiac disorders", "sourceVocabulary": "MedDRA 15.1", "assessmentType": "SYSTEMATIC_ASSESSMENT", "stats": [{"groupId": "EG000", "numEvents": 2, "numAffected": 2, "numAtRisk": 318}, {"groupId": "EG001", "numEvents": 0, "numAffected": 0, "numAtRisk": 160}]}, {"term": "Pulseless electrical activity", "organSystem": "Cardiac disorders", "sourceVocabulary": "MedDRA 15.1", "assessmentType": "SYSTEMATIC_ASSESSMENT", "stats": [{"groupId": "EG000", "numEvents": 0, "numAffected": 0, "numAtRisk": 318}, {"groupId": "EG001", "numEvents": 1, "numAffected": 1, "numAtRisk": 160}]}, {"term": "Sinus tachycardia", "organSystem": "Cardiac disorders", "sourceVocabulary": "MedDRA 15.1", "assessmentType": "SYSTEMATIC_ASSESSMENT", "stats": [{"groupId": "EG000", "numEvents": 0, "numAffected": 0, "numAtRisk": 318}, {"groupId": "EG001", "numEvents": 1, "numAffected": 1, "numAtRisk": 160}]}, {"term": "Supraventricular tachyarrhythmia", "organSystem": "Cardiac disorders", "sourceVocabulary": "MedDRA 15.1", "assessmentType": "SYSTEMATIC_ASSESSMENT", "stats": [{"groupId": "EG000", "numEvents": 0, "numAffected": 0, "numAtRisk": 318}, {"groupId": "EG001", "numEvents": 1, "numAffected": 1, "numAtRisk": 160}]}, {"term": "Supraventricular tachycardia", "organSystem": "Cardiac disorders", "sourceVocabulary": "MedDRA 15.1", "assessmentType": "SYSTEMATIC_ASSESSMENT", "stats": [{"groupId": "EG000", "numEvents": 3, "numAffected": 3, "numAtRisk": 318}, {"groupId": "EG001", "numEvents": 0, "numAffected": 0, "numAtRisk": 160}]}, {"term": "Tachycardia", "organSystem": "Cardiac disorders", "sourceVocabulary": "MedDRA 15.1", "assessmentType": "SYSTEMATIC_ASSESSMENT", "stats": [{"groupId": "EG000", "numEvents": 0, "numAffected": 0, "numAtRisk": 318}, {"groupId": "EG001", "numEvents": 1, "numAffected": 1, "numAtRisk": 160}]}, {"term": "Tricuspid valve disease", "organSystem": "Cardiac disorders", "sourceVocabulary": "MedDRA 15.1", "assessmentType": "SYSTEMATIC_ASSESSMENT", "stats": [{"groupId": "EG000", "numEvents": 1, "numAffected": 1, "numAtRisk": 318}, {"groupId": "EG001", "numEvents": 0, "numAffected": 0, "numAtRisk": 160}]}, {"term": "Tricuspid valve incompetence", "organSystem": "Cardiac disorders", "sourceVocabulary": "MedDRA 15.1", "assessmentType": "SYSTEMATIC_ASSESSMENT", "stats": [{"groupId": "EG000", "numEvents": 0, "numAffected": 0, "numAtRisk": 318}, {"groupId": "EG001", "numEvents": 1, "numAffected": 1, "numAtRisk": 160}]}, {"term": "Ventricular arrhythmia", "organSystem": "Cardiac disorders", "sourceVocabulary": "MedDRA 15.1", "assessmentType": "SYSTEMATIC_ASSESSMENT", "stats": [{"groupId": "EG000", "numEvents": 1, "numAffected": 1, "numAtRisk": 318}, {"groupId": "EG001", "numEvents": 1, "numAffected": 1, "numAtRisk": 160}]}, {"term": "Ventricular fibrillation", "organSystem": "Cardiac disorders", "sourceVocabulary": "MedDRA 15.1", "assessmentType": "SYSTEMATIC_ASSESSMENT", "stats": [{"groupId": "EG000", "numEvents": 2, "numAffected": 2, "numAtRisk": 318}, {"groupId": "EG001", "numEvents": 1, "numAffected": 1, "numAtRisk": 160}]}, {"term": "Ventricular tachyarrhythmia", "organSystem": "Cardiac disorders", "sourceVocabulary": "MedDRA 15.1", "assessmentType": "SYSTEMATIC_ASSESSMENT", "stats": [{"groupId": "EG000", "numEvents": 1, "numAffected": 1, "numAtRisk": 318}, {"groupId": "EG001", "numEvents": 0, "numAffected": 0, "numAtRisk": 160}]}, {"term": "Ventricular tachycardia", "organSystem": "Cardiac disorders", "sourceVocabulary": "MedDRA 15.1", "assessmentType": "SYSTEMATIC_ASSESSMENT", "stats": [{"groupId": "EG000", "numEvents": 8, "numAffected": 8, "numAtRisk": 318}, {"groupId": "EG001", "numEvents": 6, "numAffected": 4, "numAtRisk": 160}]}, {"term": "Atrial septal defect", "organSystem": "Congenital, familial and genetic disorders", "sourceVocabulary": "MedDRA 15.1", "assessmentType": "SYSTEMATIC_ASSESSMENT", "stats": [{"groupId": "EG000", "numEvents": 0, "numAffected": 0, "numAtRisk": 318}, {"groupId": "EG001", "numEvents": 1, "numAffected": 1, "numAtRisk": 160}]}, {"term": "Vertigo", "organSystem": "Ear and labyrinth disorders", "sourceVocabulary": "MedDRA 15.1", "assessmentType": "SYSTEMATIC_ASSESSMENT", "stats": [{"groupId": "EG000", "numEvents": 0, "numAffected": 0, "numAtRisk": 318}, {"groupId": "EG001", "numEvents": 1, "numAffected": 1, "numAtRisk": 160}]}, {"term": "Vertigo positional", "organSystem": "Ear and labyrinth disorders", "sourceVocabulary": "MedDRA 15.1", "assessmentType": "SYSTEMATIC_ASSESSMENT", "stats": [{"groupId": "EG000", "numEvents": 0, "numAffected": 0, "numAtRisk": 318}, {"groupId": "EG001", "numEvents": 1, "numAffected": 1, "numAtRisk": 160}]}, {"term": "Cataract", "organSystem": "Eye disorders", "sourceVocabulary": "MedDRA 15.1", "assessmentType": "SYSTEMATIC_ASSESSMENT", "stats": [{"groupId": "EG000", "numEvents": 1, "numAffected": 1, "numAtRisk": 318}, {"groupId": "EG001", "numEvents": 0, "numAffected": 0, "numAtRisk": 160}]}, {"term": "Ascites", "organSystem": "Gastrointestinal disorders", "sourceVocabulary": "MedDRA 15.1", "assessmentType": "SYSTEMATIC_ASSESSMENT", "stats": [{"groupId": "EG000", "numEvents": 1, "numAffected": 1, "numAtRisk": 318}, {"groupId": "EG001", "numEvents": 0, "numAffected": 0, "numAtRisk": 160}]}, {"term": "Colitis", "organSystem": "Gastrointestinal disorders", "sourceVocabulary": "MedDRA 15.1", "assessmentType": "SYSTEMATIC_ASSESSMENT", "stats": [{"groupId": "EG000", "numEvents": 1, "numAffected": 1, "numAtRisk": 318}, {"groupId": "EG001", "numEvents": 0, "numAffected": 0, "numAtRisk": 160}]}, {"term": "Colonic polyp", "organSystem": "Gastrointestinal disorders", "sourceVocabulary": "MedDRA 15.1", "assessmentType": "SYSTEMATIC_ASSESSMENT", "stats": [{"groupId": "EG000", "numEvents": 0, "numAffected": 0, "numAtRisk": 318}, {"groupId": "EG001", "numEvents": 1, "numAffected": 1, "numAtRisk": 160}]}, {"term": "Constipation", "organSystem": "Gastrointestinal disorders", "sourceVocabulary": "MedDRA 15.1", "assessmentType": "SYSTEMATIC_ASSESSMENT", "stats": [{"groupId": "EG000", "numEvents": 1, "numAffected": 1, "numAtRisk": 318}, {"groupId": "EG001", "numEvents": 0, "numAffected": 0, "numAtRisk": 160}]}, {"term": "Diarrhoea", "organSystem": "Gastrointestinal disorders", "sourceVocabulary": "MedDRA 15.1", "assessmentType": "SYSTEMATIC_ASSESSMENT", "stats": [{"groupId": "EG000", "numEvents": 1, "numAffected": 1, "numAtRisk": 318}, {"groupId": "EG001", "numEvents": 1, "numAffected": 1, "numAtRisk": 160}]}, {"term": "Diverticular perforation", "organSystem": "Gastrointestinal disorders", "sourceVocabulary": "MedDRA 15.1", "assessmentType": "SYSTEMATIC_ASSESSMENT", "stats": [{"groupId": "EG000", "numEvents": 1, "numAffected": 1, "numAtRisk": 318}, {"groupId": "EG001", "numEvents": 0, "numAffected": 0, "numAtRisk": 160}]}, {"term": "Dysphagia", "organSystem": "Gastrointestinal disorders", "sourceVocabulary": "MedDRA 15.1", "assessmentType": "SYSTEMATIC_ASSESSMENT", "stats": [{"groupId": "EG000", "numEvents": 1, "numAffected": 1, "numAtRisk": 318}, {"groupId": "EG001", "numEvents": 0, "numAffected": 0, "numAtRisk": 160}]}, {"term": "Enterocutaneous fistula", "organSystem": "Gastrointestinal disorders", "sourceVocabulary": "MedDRA 15.1", "assessmentType": "SYSTEMATIC_ASSESSMENT", "stats": [{"groupId": "EG000", "numEvents": 1, "numAffected": 1, "numAtRisk": 318}, {"groupId": "EG001", "numEvents": 0, "numAffected": 0, "numAtRisk": 160}]}, {"term": "Food poisoning", "organSystem": "Gastrointestinal disorders", "sourceVocabulary": "MedDRA 15.1", "assessmentType": "SYSTEMATIC_ASSESSMENT", "stats": [{"groupId": "EG000", "numEvents": 1, "numAffected": 1, "numAtRisk": 318}, {"groupId": "EG001", "numEvents": 0, "numAffected": 0, "numAtRisk": 160}]}, {"term": "Gastric haemorrhage", "organSystem": "Gastrointestinal disorders", "sourceVocabulary": "MedDRA 15.1", "assessmentType": "SYSTEMATIC_ASSESSMENT", "stats": [{"groupId": "EG000", "numEvents": 1, "numAffected": 1, "numAtRisk": 318}, {"groupId": "EG001", "numEvents": 0, "numAffected": 0, "numAtRisk": 160}]}, {"term": "Gastritis", "organSystem": "Gastrointestinal disorders", "sourceVocabulary": "MedDRA 15.1", "assessmentType": "SYSTEMATIC_ASSESSMENT", "stats": [{"groupId": "EG000", "numEvents": 1, "numAffected": 1, "numAtRisk": 318}, {"groupId": "EG001", "numEvents": 2, "numAffected": 2, "numAtRisk": 160}]}, {"term": "Gastrointestinal haemorrhage", "organSystem": "Gastrointestinal disorders", "sourceVocabulary": "MedDRA 15.1", "assessmentType": "SYSTEMATIC_ASSESSMENT", "stats": [{"groupId": "EG000", "numEvents": 4, "numAffected": 4, "numAtRisk": 318}, {"groupId": "EG001", "numEvents": 5, "numAffected": 4, "numAtRisk": 160}]}, {"term": "Haematochezia", "organSystem": "Gastrointestinal disorders", "sourceVocabulary": "MedDRA 15.1", "assessmentType": "SYSTEMATIC_ASSESSMENT", "stats": [{"groupId": "EG000", "numEvents": 0, "numAffected": 0, "numAtRisk": 318}, {"groupId": "EG001", "numEvents": 1, "numAffected": 1, "numAtRisk": 160}]}, {"term": "Inguinal hernia", "organSystem": "Gastrointestinal disorders", "sourceVocabulary": "MedDRA 15.1", "assessmentType": "SYSTEMATIC_ASSESSMENT", "stats": [{"groupId": "EG000", "numEvents": 1, "numAffected": 1, "numAtRisk": 318}, {"groupId": "EG001", "numEvents": 0, "numAffected": 0, "numAtRisk": 160}]}, {"term": "Intestinal ischaemia", "organSystem": "Gastrointestinal disorders", "sourceVocabulary": "MedDRA 15.1", "assessmentType": "SYSTEMATIC_ASSESSMENT", "stats": [{"groupId": "EG000", "numEvents": 1, "numAffected": 1, "numAtRisk": 318}, {"groupId": "EG001", "numEvents": 0, "numAffected": 0, "numAtRisk": 160}]}, {"term": "Intestinal obstruction", "organSystem": "Gastrointestinal disorders", "sourceVocabulary": "MedDRA 15.1", "assessmentType": "SYSTEMATIC_ASSESSMENT", "stats": [{"groupId": "EG000", "numEvents": 1, "numAffected": 1, "numAtRisk": 318}, {"groupId": "EG001", "numEvents": 0, "numAffected": 0, "numAtRisk": 160}]}, {"term": "Pancreatitis acute", "organSystem": "Gastrointestinal disorders", "sourceVocabulary": "MedDRA 15.1", "assessmentType": "SYSTEMATIC_ASSESSMENT", "stats": [{"groupId": "EG000", "numEvents": 1, "numAffected": 1, "numAtRisk": 318}, {"groupId": "EG001", "numEvents": 0, "numAffected": 0, "numAtRisk": 160}]}, {"term": "Peptic ulcer", "organSystem": "Gastrointestinal disorders", "sourceVocabulary": "MedDRA 15.1", "assessmentType": "SYSTEMATIC_ASSESSMENT", "stats": [{"groupId": "EG000", "numEvents": 0, "numAffected": 0, "numAtRisk": 318}, {"groupId": "EG001", "numEvents": 1, "numAffected": 1, "numAtRisk": 160}]}, {"term": "Peritoneal haemorrhage", "organSystem": "Gastrointestinal disorders", "sourceVocabulary": "MedDRA 15.1", "assessmentType": "SYSTEMATIC_ASSESSMENT", "stats": [{"groupId": "EG000", "numEvents": 1, "numAffected": 1, "numAtRisk": 318}, {"groupId": "EG001", "numEvents": 0, "numAffected": 0, "numAtRisk": 160}]}, {"term": "Rectal haemorrhage", "organSystem": "Gastrointestinal disorders", "sourceVocabulary": "MedDRA 15.1", "assessmentType": "SYSTEMATIC_ASSESSMENT", "stats": [{"groupId": "EG000", "numEvents": 1, "numAffected": 1, "numAtRisk": 318}, {"groupId": "EG001", "numEvents": 0, "numAffected": 0, "numAtRisk": 160}]}, {"term": "Vomiting", "organSystem": "Gastrointestinal disorders", "sourceVocabulary": "MedDRA 15.1", "assessmentType": "SYSTEMATIC_ASSESSMENT", "stats": [{"groupId": "EG000", "numEvents": 0, "numAffected": 0, "numAtRisk": 318}, {"groupId": "EG001", "numEvents": 2, "numAffected": 1, "numAtRisk": 160}]}, {"term": "Asthenia", "organSystem": "General disorders", "sourceVocabulary": "MedDRA 15.1", "assessmentType": "SYSTEMATIC_ASSESSMENT", "stats": [{"groupId": "EG000", "numEvents": 1, "numAffected": 1, "numAtRisk": 318}, {"groupId": "EG001", "numEvents": 0, "numAffected": 0, "numAtRisk": 160}]}, {"term": "Chest discomfort", "organSystem": "General disorders", "sourceVocabulary": "MedDRA 15.1", "assessmentType": "SYSTEMATIC_ASSESSMENT", "stats": [{"groupId": "EG000", "numEvents": 1, "numAffected": 1, "numAtRisk": 318}, {"groupId": "EG001", "numEvents": 0, "numAffected": 0, "numAtRisk": 160}]}, {"term": "Chest pain", "organSystem": "General disorders", "sourceVocabulary": "MedDRA 15.1", "assessmentType": "SYSTEMATIC_ASSESSMENT", "stats": [{"groupId": "EG000", "numEvents": 6, "numAffected": 6, "numAtRisk": 318}, {"groupId": "EG001", "numEvents": 4, "numAffected": 4, "numAtRisk": 160}]}, {"term": "Device capturing issue", "organSystem": "General disorders", "sourceVocabulary": "MedDRA 15.1", "assessmentType": "SYSTEMATIC_ASSESSMENT", "stats": [{"groupId": "EG000", "numEvents": 1, "numAffected": 1, "numAtRisk": 318}, {"groupId": "EG001", "numEvents": 0, "numAffected": 0, "numAtRisk": 160}]}, {"term": "Device connection issue", "organSystem": "General disorders", "sourceVocabulary": "MedDRA 15.1", "assessmentType": "SYSTEMATIC_ASSESSMENT", "stats": [{"groupId": "EG000", "numEvents": 0, "numAffected": 0, "numAtRisk": 318}, {"groupId": "EG001", "numEvents": 2, "numAffected": 2, "numAtRisk": 160}]}, {"term": "Device dislocation", "organSystem": "General disorders", "sourceVocabulary": "MedDRA 15.1", "assessmentType": "SYSTEMATIC_ASSESSMENT", "stats": [{"groupId": "EG000", "numEvents": 11, "numAffected": 11, "numAtRisk": 318}, {"groupId": "EG001", "numEvents": 10, "numAffected": 7, "numAtRisk": 160}]}, {"term": "Device electrical impedance issue", "organSystem": "General disorders", "sourceVocabulary": "MedDRA 15.1", "assessmentType": "SYSTEMATIC_ASSESSMENT", "stats": [{"groupId": "EG000", "numEvents": 1, "numAffected": 1, "numAtRisk": 318}, {"groupId": "EG001", "numEvents": 0, "numAffected": 0, "numAtRisk": 160}]}, {"term": "Device lead damage", "organSystem": "General disorders", "sourceVocabulary": "MedDRA 15.1", "assessmentType": "SYSTEMATIC_ASSESSMENT", "stats": [{"groupId": "EG000", "numEvents": 1, "numAffected": 1, "numAtRisk": 318}, {"groupId": "EG001", "numEvents": 1, "numAffected": 1, "numAtRisk": 160}]}, {"term": "Device misuse", "organSystem": "General disorders", "sourceVocabulary": "MedDRA 15.1", "assessmentType": "SYSTEMATIC_ASSESSMENT", "stats": [{"groupId": "EG000", "numEvents": 1, "numAffected": 1, "numAtRisk": 318}, {"groupId": "EG001", "numEvents": 1, "numAffected": 1, "numAtRisk": 160}]}, {"term": "Device pacing issue", "organSystem": "General disorders", "sourceVocabulary": "MedDRA 15.1", "assessmentType": "SYSTEMATIC_ASSESSMENT", "stats": [{"groupId": "EG000", "numEvents": 0, "numAffected": 0, "numAtRisk": 318}, {"groupId": "EG001", "numEvents": 1, "numAffected": 1, "numAtRisk": 160}]}, {"term": "Device psychogenic complication", "organSystem": "General disorders", "sourceVocabulary": "MedDRA 15.1", "assessmentType": "SYSTEMATIC_ASSESSMENT", "stats": [{"groupId": "EG000", "numEvents": 0, "numAffected": 0, "numAtRisk": 318}, {"groupId": "EG001", "numEvents": 1, "numAffected": 1, "numAtRisk": 160}]}, {"term": "Device stimulation issue", "organSystem": "General disorders", "sourceVocabulary": "MedDRA 15.1", "assessmentType": "SYSTEMATIC_ASSESSMENT", "stats": [{"groupId": "EG000", "numEvents": 2, "numAffected": 2, "numAtRisk": 318}, {"groupId": "EG001", "numEvents": 2, "numAffected": 2, "numAtRisk": 160}]}, {"term": "Hernia", "organSystem": "General disorders", "sourceVocabulary": "MedDRA 15.1", "assessmentType": "SYSTEMATIC_ASSESSMENT", "stats": [{"groupId": "EG000", "numEvents": 1, "numAffected": 1, "numAtRisk": 318}, {"groupId": "EG001", "numEvents": 0, "numAffected": 0, "numAtRisk": 160}]}, {"term": "Implant site haematoma", "organSystem": "General disorders", "sourceVocabulary": "MedDRA 15.1", "assessmentType": "SYSTEMATIC_ASSESSMENT", "stats": [{"groupId": "EG000", "numEvents": 2, "numAffected": 2, "numAtRisk": 318}, {"groupId": "EG001", "numEvents": 1, "numAffected": 1, "numAtRisk": 160}]}, {"term": "Implant site pain", "organSystem": "General disorders", "sourceVocabulary": "MedDRA 15.1", "assessmentType": "SYSTEMATIC_ASSESSMENT", "stats": [{"groupId": "EG000", "numEvents": 1, "numAffected": 1, "numAtRisk": 318}, {"groupId": "EG001", "numEvents": 0, "numAffected": 0, "numAtRisk": 160}]}, {"term": "Multi-organ failure", "organSystem": "General disorders", "sourceVocabulary": "MedDRA 15.1", "assessmentType": "SYSTEMATIC_ASSESSMENT", "stats": [{"groupId": "EG000", "numEvents": 1, "numAffected": 1, "numAtRisk": 318}, {"groupId": "EG001", "numEvents": 1, "numAffected": 1, "numAtRisk": 160}]}, {"term": "Non-cardiac chest pain", "organSystem": "General disorders", "sourceVocabulary": "MedDRA 15.1", "assessmentType": "SYSTEMATIC_ASSESSMENT", "stats": [{"groupId": "EG000", "numEvents": 1, "numAffected": 1, "numAtRisk": 318}, {"groupId": "EG001", "numEvents": 2, "numAffected": 2, "numAtRisk": 160}]}, {"term": "Polyp", "organSystem": "General disorders", "sourceVocabulary": "MedDRA 15.1", "assessmentType": "SYSTEMATIC_ASSESSMENT", "stats": [{"groupId": "EG000", "numEvents": 0, "numAffected": 0, "numAtRisk": 318}, {"groupId": "EG001", "numEvents": 1, "numAffected": 1, "numAtRisk": 160}]}, {"term": "Sudden cardiac death", "organSystem": "General disorders", "sourceVocabulary": "MedDRA 15.1", "assessmentType": "SYSTEMATIC_ASSESSMENT", "stats": [{"groupId": "EG000", "numEvents": 2, "numAffected": 2, "numAtRisk": 318}, {"groupId": "EG001", "numEvents": 1, "numAffected": 1, "numAtRisk": 160}]}, {"term": "Undersensing", "organSystem": "General disorders", "sourceVocabulary": "MedDRA 15.1", "assessmentType": "SYSTEMATIC_ASSESSMENT", "stats": [{"groupId": "EG000", "numEvents": 0, "numAffected": 0, "numAtRisk": 318}, {"groupId": "EG001", "numEvents": 1, "numAffected": 1, "numAtRisk": 160}]}, {"term": "Cholecystitis", "organSystem": "Hepatobiliary disorders", "sourceVocabulary": "MedDRA 15.1", "assessmentType": "SYSTEMATIC_ASSESSMENT", "stats": [{"groupId": "EG000", "numEvents": 0, "numAffected": 0, "numAtRisk": 318}, {"groupId": "EG001", "numEvents": 1, "numAffected": 1, "numAtRisk": 160}]}, {"term": "Cholecystitis acute", "organSystem": "Hepatobiliary disorders", "sourceVocabulary": "MedDRA 15.1", "assessmentType": "SYSTEMATIC_ASSESSMENT", "stats": [{"groupId": "EG000", "numEvents": 1, "numAffected": 1, "numAtRisk": 318}, {"groupId": "EG001", "numEvents": 0, "numAffected": 0, "numAtRisk": 160}]}, {"term": "Hypersensitivity", "organSystem": "Immune system disorders", "sourceVocabulary": "MedDRA 15.1", "assessmentType": "SYSTEMATIC_ASSESSMENT", "stats": [{"groupId": "EG000", "numEvents": 0, "numAffected": 0, "numAtRisk": 318}, {"groupId": "EG001", "numEvents": 1, "numAffected": 1, "numAtRisk": 160}]}, {"term": "Anal abscess", "organSystem": "Infections and infestations", "sourceVocabulary": "MedDRA 15.1", "assessmentType": "SYSTEMATIC_ASSESSMENT", "stats": [{"groupId": "EG000", "numEvents": 0, "numAffected": 0, "numAtRisk": 318}, {"groupId": "EG001", "numEvents": 1, "numAffected": 1, "numAtRisk": 160}]}, {"term": "Bacterial infection", "organSystem": "Infections and infestations", "sourceVocabulary": "MedDRA 15.1", "assessmentType": "SYSTEMATIC_ASSESSMENT", "stats": [{"groupId": "EG000", "numEvents": 1, "numAffected": 1, "numAtRisk": 318}, {"groupId": "EG001", "numEvents": 0, "numAffected": 0, "numAtRisk": 160}]}, {"term": "Bronchitis", "organSystem": "Infections and infestations", "sourceVocabulary": "MedDRA 15.1", "assessmentType": "SYSTEMATIC_ASSESSMENT", "stats": [{"groupId": "EG000", "numEvents": 4, "numAffected": 4, "numAtRisk": 318}, {"groupId": "EG001", "numEvents": 1, "numAffected": 1, "numAtRisk": 160}]}, {"term": "Bronchopneumonia", "organSystem": "Infections and infestations", "sourceVocabulary": "MedDRA 15.1", "assessmentType": "SYSTEMATIC_ASSESSMENT", "stats": [{"groupId": "EG000", "numEvents": 0, "numAffected": 0, "numAtRisk": 318}, {"groupId": "EG001", "numEvents": 1, "numAffected": 1, "numAtRisk": 160}]}, {"term": "Campylobacter gastroenteritis", "organSystem": "Infections and infestations", "sourceVocabulary": "MedDRA 15.1", "assessmentType": "SYSTEMATIC_ASSESSMENT", "stats": [{"groupId": "EG000", "numEvents": 0, "numAffected": 0, "numAtRisk": 318}, {"groupId": "EG001", "numEvents": 1, "numAffected": 1, "numAtRisk": 160}]}, {"term": "Cellulitis", "organSystem": "Infections and infestations", "sourceVocabulary": "MedDRA 15.1", "assessmentType": "SYSTEMATIC_ASSESSMENT", "stats": [{"groupId": "EG000", "numEvents": 2, "numAffected": 2, "numAtRisk": 318}, {"groupId": "EG001", "numEvents": 3, "numAffected": 3, "numAtRisk": 160}]}, {"term": "Clostridium difficile colitis", "organSystem": "Infections and infestations", "sourceVocabulary": "MedDRA 15.1", "assessmentType": "SYSTEMATIC_ASSESSMENT", "stats": [{"groupId": "EG000", "numEvents": 1, "numAffected": 1, "numAtRisk": 318}, {"groupId": "EG001", "numEvents": 0, "numAffected": 0, "numAtRisk": 160}]}, {"term": "Device related infection", "organSystem": "Infections and infestations", "sourceVocabulary": "MedDRA 15.1", "assessmentType": "SYSTEMATIC_ASSESSMENT", "stats": [{"groupId": "EG000", "numEvents": 1, "numAffected": 1, "numAtRisk": 318}, {"groupId": "EG001", "numEvents": 0, "numAffected": 0, "numAtRisk": 160}]}, {"term": "Empyema", "organSystem": "Infections and infestations", "sourceVocabulary": "MedDRA 15.1", "assessmentType": "SYSTEMATIC_ASSESSMENT", "stats": [{"groupId": "EG000", "numEvents": 0, "numAffected": 0, "numAtRisk": 318}, {"groupId": "EG001", "numEvents": 1, "numAffected": 1, "numAtRisk": 160}]}, {"term": "Gastroenteritis", "organSystem": "Infections and infestations", "sourceVocabulary": "MedDRA 15.1", "assessmentType": "SYSTEMATIC_ASSESSMENT", "stats": [{"groupId": "EG000", "numEvents": 0, "numAffected": 0, "numAtRisk": 318}, {"groupId": "EG001", "numEvents": 1, "numAffected": 1, "numAtRisk": 160}]}, {"term": "Gastroenteritis viral", "organSystem": "Infections and infestations", "sourceVocabulary": "MedDRA 15.1", "assessmentType": "SYSTEMATIC_ASSESSMENT", "stats": [{"groupId": "EG000", "numEvents": 0, "numAffected": 0, "numAtRisk": 318}, {"groupId": "EG001", "numEvents": 1, "numAffected": 1, "numAtRisk": 160}]}, {"term": "Implant site infection", "organSystem": "Infections and infestations", "sourceVocabulary": "MedDRA 15.1", "assessmentType": "SYSTEMATIC_ASSESSMENT", "stats": [{"groupId": "EG000", "numEvents": 1, "numAffected": 1, "numAtRisk": 318}, {"groupId": "EG001", "numEvents": 4, "numAffected": 4, "numAtRisk": 160}]}, {"term": "Infection", "organSystem": "Infections and infestations", "sourceVocabulary": "MedDRA 15.1", "assessmentType": "SYSTEMATIC_ASSESSMENT", "stats": [{"groupId": "EG000", "numEvents": 0, "numAffected": 0, "numAtRisk": 318}, {"groupId": "EG001", "numEvents": 2, "numAffected": 2, "numAtRisk": 160}]}, {"term": "Influenza", "organSystem": "Infections and infestations", "sourceVocabulary": "MedDRA 15.1", "assessmentType": "SYSTEMATIC_ASSESSMENT", "stats": [{"groupId": "EG000", "numEvents": 1, "numAffected": 1, "numAtRisk": 318}, {"groupId": "EG001", "numEvents": 0, "numAffected": 0, "numAtRisk": 160}]}, {"term": "Liver abscess", "organSystem": "Infections and infestations", "sourceVocabulary": "MedDRA 15.1", "assessmentType": "SYSTEMATIC_ASSESSMENT", "stats": [{"groupId": "EG000", "numEvents": 1, "numAffected": 1, "numAtRisk": 318}, {"groupId": "EG001", "numEvents": 0, "numAffected": 0, "numAtRisk": 160}]}, {"term": "Lower respiratory tract infection", "organSystem": "Infections and infestations", "sourceVocabulary": "MedDRA 15.1", "assessmentType": "SYSTEMATIC_ASSESSMENT", "stats": [{"groupId": "EG000", "numEvents": 1, "numAffected": 1, "numAtRisk": 318}, {"groupId": "EG001", "numEvents": 0, "numAffected": 0, "numAtRisk": 160}]}, {"term": "Parotitis", "organSystem": "Infections and infestations", "sourceVocabulary": "MedDRA 15.1", "assessmentType": "SYSTEMATIC_ASSESSMENT", "stats": [{"groupId": "EG000", "numEvents": 1, "numAffected": 1, "numAtRisk": 318}, {"groupId": "EG001", "numEvents": 0, "numAffected": 0, "numAtRisk": 160}]}, {"term": "Pelvic abscess", "organSystem": "Infections and infestations", "sourceVocabulary": "MedDRA 15.1", "assessmentType": "SYSTEMATIC_ASSESSMENT", "stats": [{"groupId": "EG000", "numEvents": 1, "numAffected": 1, "numAtRisk": 318}, {"groupId": "EG001", "numEvents": 0, "numAffected": 0, "numAtRisk": 160}]}, {"term": "Pneumonia", "organSystem": "Infections and infestations", "sourceVocabulary": "MedDRA 15.1", "assessmentType": "SYSTEMATIC_ASSESSMENT", "stats": [{"groupId": "EG000", "numEvents": 19, "numAffected": 16, "numAtRisk": 318}, {"groupId": "EG001", "numEvents": 12, "numAffected": 9, "numAtRisk": 160}]}, {"term": "Postoperative wound infection", "organSystem": "Infections and infestations", "sourceVocabulary": "MedDRA 15.1", "assessmentType": "SYSTEMATIC_ASSESSMENT", "stats": [{"groupId": "EG000", "numEvents": 1, "numAffected": 1, "numAtRisk": 318}, {"groupId": "EG001", "numEvents": 2, "numAffected": 1, "numAtRisk": 160}]}, {"term": "Respiratory tract infection", "organSystem": "Infections and infestations", "sourceVocabulary": "MedDRA 15.1", "assessmentType": "SYSTEMATIC_ASSESSMENT", "stats": [{"groupId": "EG000", "numEvents": 1, "numAffected": 1, "numAtRisk": 318}, {"groupId": "EG001", "numEvents": 0, "numAffected": 0, "numAtRisk": 160}]}, {"term": "Sepsis", "organSystem": "Infections and infestations", "sourceVocabulary": "MedDRA 15.1", "assessmentType": "SYSTEMATIC_ASSESSMENT", "stats": [{"groupId": "EG000", "numEvents": 9, "numAffected": 7, "numAtRisk": 318}, {"groupId": "EG001", "numEvents": 2, "numAffected": 2, "numAtRisk": 160}]}, {"term": "Septic shock", "organSystem": "Infections and infestations", "sourceVocabulary": "MedDRA 15.1", "assessmentType": "SYSTEMATIC_ASSESSMENT", "stats": [{"groupId": "EG000", "numEvents": 2, "numAffected": 2, "numAtRisk": 318}, {"groupId": "EG001", "numEvents": 0, "numAffected": 0, "numAtRisk": 160}]}, {"term": "Staphylococcal infection", "organSystem": "Infections and infestations", "sourceVocabulary": "MedDRA 15.1", "assessmentType": "SYSTEMATIC_ASSESSMENT", "stats": [{"groupId": "EG000", "numEvents": 1, "numAffected": 1, "numAtRisk": 318}, {"groupId": "EG001", "numEvents": 0, "numAffected": 0, "numAtRisk": 160}]}, {"term": "Upper respiratory tract infection", "organSystem": "Infections and infestations", "sourceVocabulary": "MedDRA 15.1", "assessmentType": "SYSTEMATIC_ASSESSMENT", "stats": [{"groupId": "EG000", "numEvents": 1, "numAffected": 1, "numAtRisk": 318}, {"groupId": "EG001", "numEvents": 0, "numAffected": 0, "numAtRisk": 160}]}, {"term": "Urinary tract infection", "organSystem": "Infections and infestations", "sourceVocabulary": "MedDRA 15.1", "assessmentType": "SYSTEMATIC_ASSESSMENT", "stats": [{"groupId": "EG000", "numEvents": 4, "numAffected": 4, "numAtRisk": 318}, {"groupId": "EG001", "numEvents": 4, "numAffected": 4, "numAtRisk": 160}]}, {"term": "Urosepsis", "organSystem": "Infections and infestations", "sourceVocabulary": "MedDRA 15.1", "assessmentType": "SYSTEMATIC_ASSESSMENT", "stats": [{"groupId": "EG000", "numEvents": 2, "numAffected": 2, "numAtRisk": 318}, {"groupId": "EG001", "numEvents": 1, "numAffected": 1, "numAtRisk": 160}]}, {"term": "Wound infection pseudomonas", "organSystem": "Infections and infestations", "sourceVocabulary": "MedDRA 15.1", "assessmentType": "SYSTEMATIC_ASSESSMENT", "stats": [{"groupId": "EG000", "numEvents": 1, "numAffected": 1, "numAtRisk": 318}, {"groupId": "EG001", "numEvents": 0, "numAffected": 0, "numAtRisk": 160}]}, {"term": "Arteriovenous fistula occlusion", "organSystem": "Injury, poisoning and procedural complications", "sourceVocabulary": "MedDRA 15.1", "assessmentType": "SYSTEMATIC_ASSESSMENT", "stats": [{"groupId": "EG000", "numEvents": 1, "numAffected": 1, "numAtRisk": 318}, {"groupId": "EG001", "numEvents": 0, "numAffected": 0, "numAtRisk": 160}]}, {"term": "Fall", "organSystem": "Injury, poisoning and procedural complications", "sourceVocabulary": "MedDRA 15.1", "assessmentType": "SYSTEMATIC_ASSESSMENT", "stats": [{"groupId": "EG000", "numEvents": 0, "numAffected": 0, "numAtRisk": 318}, {"groupId": "EG001", "numEvents": 1, "numAffected": 1, "numAtRisk": 160}]}, {"term": "Fracture", "organSystem": "Injury, poisoning and procedural complications", "sourceVocabulary": "MedDRA 15.1", "assessmentType": "SYSTEMATIC_ASSESSMENT", "stats": [{"groupId": "EG000", "numEvents": 0, "numAffected": 0, "numAtRisk": 318}, {"groupId": "EG001", "numEvents": 1, "numAffected": 1, "numAtRisk": 160}]}, {"term": "Head injury", "organSystem": "Injury, poisoning and procedural complications", "sourceVocabulary": "MedDRA 15.1", "assessmentType": "SYSTEMATIC_ASSESSMENT", "stats": [{"groupId": "EG000", "numEvents": 0, "numAffected": 0, "numAtRisk": 318}, {"groupId": "EG001", "numEvents": 1, "numAffected": 1, "numAtRisk": 160}]}, {"term": "Hip fracture", "organSystem": "Injury, poisoning and procedural complications", "sourceVocabulary": "MedDRA 15.1", "assessmentType": "SYSTEMATIC_ASSESSMENT", "stats": [{"groupId": "EG000", "numEvents": 1, "numAffected": 1, "numAtRisk": 318}, {"groupId": "EG001", "numEvents": 1, "numAffected": 1, "numAtRisk": 160}]}, {"term": "Lumbar vertebral fracture", "organSystem": "Injury, poisoning and procedural complications", "sourceVocabulary": "MedDRA 15.1", "assessmentType": "SYSTEMATIC_ASSESSMENT", "stats": [{"groupId": "EG000", "numEvents": 1, "numAffected": 1, "numAtRisk": 318}, {"groupId": "EG001", "numEvents": 0, "numAffected": 0, "numAtRisk": 160}]}, {"term": "Pocket erosion", "organSystem": "Injury, poisoning and procedural complications", "sourceVocabulary": "MedDRA 15.1", "assessmentType": "SYSTEMATIC_ASSESSMENT", "stats": [{"groupId": "EG000", "numEvents": 1, "numAffected": 1, "numAtRisk": 318}, {"groupId": "EG001", "numEvents": 0, "numAffected": 0, "numAtRisk": 160}]}, {"term": "Post procedural haemorrhage", "organSystem": "Injury, poisoning and procedural complications", "sourceVocabulary": "MedDRA 15.1", "assessmentType": "SYSTEMATIC_ASSESSMENT", "stats": [{"groupId": "EG000", "numEvents": 0, "numAffected": 0, "numAtRisk": 318}, {"groupId": "EG001", "numEvents": 1, "numAffected": 1, "numAtRisk": 160}]}, {"term": "Post-traumatic neck syndrome", "organSystem": "Injury, poisoning and procedural complications", "sourceVocabulary": "MedDRA 15.1", "assessmentType": "SYSTEMATIC_ASSESSMENT", "stats": [{"groupId": "EG000", "numEvents": 0, "numAffected": 0, "numAtRisk": 318}, {"groupId": "EG001", "numEvents": 1, "numAffected": 1, "numAtRisk": 160}]}, {"term": "Spinal compression fracture", "organSystem": "Injury, poisoning and procedural complications", "sourceVocabulary": "MedDRA 15.1", "assessmentType": "SYSTEMATIC_ASSESSMENT", "stats": [{"groupId": "EG000", "numEvents": 0, "numAffected": 0, "numAtRisk": 318}, {"groupId": "EG001", "numEvents": 1, "numAffected": 1, "numAtRisk": 160}]}, {"term": "Blood bilirubin abnormal", "organSystem": "Investigations", "sourceVocabulary": "MedDRA 15.1", "assessmentType": "SYSTEMATIC_ASSESSMENT", "stats": [{"groupId": "EG000", "numEvents": 1, "numAffected": 1, "numAtRisk": 318}, {"groupId": "EG001", "numEvents": 0, "numAffected": 0, "numAtRisk": 160}]}, {"term": "Clostridium test positive", "organSystem": "Investigations", "sourceVocabulary": "MedDRA 15.1", "assessmentType": "SYSTEMATIC_ASSESSMENT", "stats": [{"groupId": "EG000", "numEvents": 2, "numAffected": 1, "numAtRisk": 318}, {"groupId": "EG001", "numEvents": 0, "numAffected": 0, "numAtRisk": 160}]}, {"term": "Dehydration", "organSystem": "Metabolism and nutrition disorders", "sourceVocabulary": "MedDRA 15.1", "assessmentType": "SYSTEMATIC_ASSESSMENT", "stats": [{"groupId": "EG000", "numEvents": 4, "numAffected": 4, "numAtRisk": 318}, {"groupId": "EG001", "numEvents": 2, "numAffected": 2, "numAtRisk": 160}]}, {"term": "Diabetes mellitus", "organSystem": "Metabolism and nutrition disorders", "sourceVocabulary": "MedDRA 15.1", "assessmentType": "SYSTEMATIC_ASSESSMENT", "stats": [{"groupId": "EG000", "numEvents": 2, "numAffected": 2, "numAtRisk": 318}, {"groupId": "EG001", "numEvents": 0, "numAffected": 0, "numAtRisk": 160}]}, {"term": "Hyperglycaemia", "organSystem": "Metabolism and nutrition disorders", "sourceVocabulary": "MedDRA 15.1", "assessmentType": "SYSTEMATIC_ASSESSMENT", "stats": [{"groupId": "EG000", "numEvents": 2, "numAffected": 2, "numAtRisk": 318}, {"groupId": "EG001", "numEvents": 3, "numAffected": 3, "numAtRisk": 160}]}, {"term": "Hyperkalaemia", "organSystem": "Metabolism and nutrition disorders", "sourceVocabulary": "MedDRA 15.1", "assessmentType": "SYSTEMATIC_ASSESSMENT", "stats": [{"groupId": "EG000", "numEvents": 2, "numAffected": 2, "numAtRisk": 318}, {"groupId": "EG001", "numEvents": 1, "numAffected": 1, "numAtRisk": 160}]}, {"term": "Hypernatraemia", "organSystem": "Metabolism and nutrition disorders", "sourceVocabulary": "MedDRA 15.1", "assessmentType": "SYSTEMATIC_ASSESSMENT", "stats": [{"groupId": "EG000", "numEvents": 0, "numAffected": 0, "numAtRisk": 318}, {"groupId": "EG001", "numEvents": 1, "numAffected": 1, "numAtRisk": 160}]}, {"term": "Hypoglycaemia", "organSystem": "Metabolism and nutrition disorders", "sourceVocabulary": "MedDRA 15.1", "assessmentType": "SYSTEMATIC_ASSESSMENT", "stats": [{"groupId": "EG000", "numEvents": 0, "numAffected": 0, "numAtRisk": 318}, {"groupId": "EG001", "numEvents": 3, "numAffected": 3, "numAtRisk": 160}]}, {"term": "Hyponatraemia", "organSystem": "Metabolism and nutrition disorders", "sourceVocabulary": "MedDRA 15.1", "assessmentType": "SYSTEMATIC_ASSESSMENT", "stats": [{"groupId": "EG000", "numEvents": 0, "numAffected": 0, "numAtRisk": 318}, {"groupId": "EG001", "numEvents": 3, "numAffected": 3, "numAtRisk": 160}]}, {"term": "Hypovolaemia", "organSystem": "Metabolism and nutrition disorders", "sourceVocabulary": "MedDRA 15.1", "assessmentType": "SYSTEMATIC_ASSESSMENT", "stats": [{"groupId": "EG000", "numEvents": 0, "numAffected": 0, "numAtRisk": 318}, {"groupId": "EG001", "numEvents": 1, "numAffected": 1, "numAtRisk": 160}]}, {"term": "Arthralgia", "organSystem": "Musculoskeletal and connective tissue disorders", "sourceVocabulary": "MedDRA 15.1", "assessmentType": "SYSTEMATIC_ASSESSMENT", "stats": [{"groupId": "EG000", "numEvents": 1, "numAffected": 1, "numAtRisk": 318}, {"groupId": "EG001", "numEvents": 0, "numAffected": 0, "numAtRisk": 160}]}, {"term": "Cervical spinal stenosis", "organSystem": "Musculoskeletal and connective tissue disorders", "sourceVocabulary": "MedDRA 15.1", "assessmentType": "SYSTEMATIC_ASSESSMENT", "stats": [{"groupId": "EG000", "numEvents": 1, "numAffected": 1, "numAtRisk": 318}, {"groupId": "EG001", "numEvents": 0, "numAffected": 0, "numAtRisk": 160}]}, {"term": "Flank pain", "organSystem": "Musculoskeletal and connective tissue disorders", "sourceVocabulary": "MedDRA 15.1", "assessmentType": "SYSTEMATIC_ASSESSMENT", "stats": [{"groupId": "EG000", "numEvents": 1, "numAffected": 1, "numAtRisk": 318}, {"groupId": "EG001", "numEvents": 0, "numAffected": 0, "numAtRisk": 160}]}, {"term": "Gouty arthritis", "organSystem": "Musculoskeletal and connective tissue disorders", "sourceVocabulary": "MedDRA 15.1", "assessmentType": "SYSTEMATIC_ASSESSMENT", "stats": [{"groupId": "EG000", "numEvents": 0, "numAffected": 0, "numAtRisk": 318}, {"groupId": "EG001", "numEvents": 2, "numAffected": 2, "numAtRisk": 160}]}, {"term": "Musculoskeletal chest pain", "organSystem": "Musculoskeletal and connective tissue disorders", "sourceVocabulary": "MedDRA 15.1", "assessmentType": "SYSTEMATIC_ASSESSMENT", "stats": [{"groupId": "EG000", "numEvents": 0, "numAffected": 0, "numAtRisk": 318}, {"groupId": "EG001", "numEvents": 1, "numAffected": 1, "numAtRisk": 160}]}, {"term": "Neck pain", "organSystem": "Musculoskeletal and connective tissue disorders", "sourceVocabulary": "MedDRA 15.1", "assessmentType": "SYSTEMATIC_ASSESSMENT", "stats": [{"groupId": "EG000", "numEvents": 1, "numAffected": 1, "numAtRisk": 318}, {"groupId": "EG001", "numEvents": 0, "numAffected": 0, "numAtRisk": 160}]}, {"term": "Osteoarthritis", "organSystem": "Musculoskeletal and connective tissue disorders", "sourceVocabulary": "MedDRA 15.1", "assessmentType": "SYSTEMATIC_ASSESSMENT", "stats": [{"groupId": "EG000", "numEvents": 2, "numAffected": 1, "numAtRisk": 318}, {"groupId": "EG001", "numEvents": 1, "numAffected": 1, "numAtRisk": 160}]}, {"term": "Pain in jaw", "organSystem": "Musculoskeletal and connective tissue disorders", "sourceVocabulary": "MedDRA 15.1", "assessmentType": "SYSTEMATIC_ASSESSMENT", "stats": [{"groupId": "EG000", "numEvents": 1, "numAffected": 1, "numAtRisk": 318}, {"groupId": "EG001", "numEvents": 0, "numAffected": 0, "numAtRisk": 160}]}, {"term": "Rhabdomyolysis", "organSystem": "Musculoskeletal and connective tissue disorders", "sourceVocabulary": "MedDRA 15.1", "assessmentType": "SYSTEMATIC_ASSESSMENT", "stats": [{"groupId": "EG000", "numEvents": 0, "numAffected": 0, "numAtRisk": 318}, {"groupId": "EG001", "numEvents": 1, "numAffected": 1, "numAtRisk": 160}]}, {"term": "Gallbladder cancer", "organSystem": "Neoplasms benign, malignant and unspecified (incl cysts and polyps)", "sourceVocabulary": "MedDRA 15.1", "assessmentType": "SYSTEMATIC_ASSESSMENT", "stats": [{"groupId": "EG000", "numEvents": 1, "numAffected": 1, "numAtRisk": 318}, {"groupId": "EG001", "numEvents": 0, "numAffected": 0, "numAtRisk": 160}]}, {"term": "Hepatic neoplasm malignant", "organSystem": "Neoplasms benign, malignant and unspecified (incl cysts and polyps)", "sourceVocabulary": "MedDRA 15.1", "assessmentType": "SYSTEMATIC_ASSESSMENT", "stats": [{"groupId": "EG000", "numEvents": 0, "numAffected": 0, "numAtRisk": 318}, {"groupId": "EG001", "numEvents": 2, "numAffected": 1, "numAtRisk": 160}]}, {"term": "Non-Hodgkin's lymphoma", "organSystem": "Neoplasms benign, malignant and unspecified (incl cysts and polyps)", "sourceVocabulary": "MedDRA 15.1", "assessmentType": "SYSTEMATIC_ASSESSMENT", "stats": [{"groupId": "EG000", "numEvents": 1, "numAffected": 1, "numAtRisk": 318}, {"groupId": "EG001", "numEvents": 0, "numAffected": 0, "numAtRisk": 160}]}, {"term": "Gastric cancer", "organSystem": "Neoplasms benign, malignant and unspecified (incl cysts and polyps)", "sourceVocabulary": "MedDRA 15.1", "assessmentType": "SYSTEMATIC_ASSESSMENT", "stats": [{"groupId": "EG000", "numEvents": 1, "numAffected": 1, "numAtRisk": 318}, {"groupId": "EG001", "numEvents": 0, "numAffected": 0, "numAtRisk": 160}]}, {"term": "Lung neoplasm malignant", "organSystem": "Neoplasms benign, malignant and unspecified (incl cysts and polyps)", "sourceVocabulary": "MedDRA 15.1", "assessmentType": "SYSTEMATIC_ASSESSMENT", "stats": [{"groupId": "EG000", "numEvents": 2, "numAffected": 2, "numAtRisk": 318}, {"groupId": "EG001", "numEvents": 2, "numAffected": 2, "numAtRisk": 160}]}, {"term": "Lymphoma", "organSystem": "Neoplasms benign, malignant and unspecified (incl cysts and polyps)", "sourceVocabulary": "MedDRA 15.1", "assessmentType": "SYSTEMATIC_ASSESSMENT", "stats": [{"groupId": "EG000", "numEvents": 1, "numAffected": 1, "numAtRisk": 318}, {"groupId": "EG001", "numEvents": 0, "numAffected": 0, "numAtRisk": 160}]}, {"term": "Metastases to gastrointestinal tract", "organSystem": "Neoplasms benign, malignant and unspecified (incl cysts and polyps)", "sourceVocabulary": "MedDRA 15.1", "assessmentType": "SYSTEMATIC_ASSESSMENT", "stats": [{"groupId": "EG000", "numEvents": 1, "numAffected": 1, "numAtRisk": 318}, {"groupId": "EG001", "numEvents": 0, "numAffected": 0, "numAtRisk": 160}]}, {"term": "Neoplasm malignant", "organSystem": "Neoplasms benign, malignant and unspecified (incl cysts and polyps)", "sourceVocabulary": "MedDRA 15.1", "assessmentType": "SYSTEMATIC_ASSESSMENT", "stats": [{"groupId": "EG000", "numEvents": 1, "numAffected": 1, "numAtRisk": 318}, {"groupId": "EG001", "numEvents": 0, "numAffected": 0, "numAtRisk": 160}]}, {"term": "Carotid artery stenosis", "organSystem": "Nervous system disorders", "sourceVocabulary": "MedDRA 15.1", "assessmentType": "SYSTEMATIC_ASSESSMENT", "stats": [{"groupId": "EG000", "numEvents": 1, "numAffected": 1, "numAtRisk": 318}, {"groupId": "EG001", "numEvents": 0, "numAffected": 0, "numAtRisk": 160}]}, {"term": "Cerebellar infarction", "organSystem": "Nervous system disorders", "sourceVocabulary": "MedDRA 15.1", "assessmentType": "SYSTEMATIC_ASSESSMENT", "stats": [{"groupId": "EG000", "numEvents": 0, "numAffected": 0, "numAtRisk": 318}, {"groupId": "EG001", "numEvents": 1, "numAffected": 1, "numAtRisk": 160}]}, {"term": "Cerebral infarction", "organSystem": "Nervous system disorders", "sourceVocabulary": "MedDRA 15.1", "assessmentType": "SYSTEMATIC_ASSESSMENT", "stats": [{"groupId": "EG000", "numEvents": 0, "numAffected": 0, "numAtRisk": 318}, {"groupId": "EG001", "numEvents": 1, "numAffected": 1, "numAtRisk": 160}]}, {"term": "Cerebrovascular accident", "organSystem": "Nervous system disorders", "sourceVocabulary": "MedDRA 15.1", "assessmentType": "SYSTEMATIC_ASSESSMENT", "stats": [{"groupId": "EG000", "numEvents": 0, "numAffected": 0, "numAtRisk": 318}, {"groupId": "EG001", "numEvents": 2, "numAffected": 2, "numAtRisk": 160}]}, {"term": "Cervical root pain", "organSystem": "Nervous system disorders", "sourceVocabulary": "MedDRA 15.1", "assessmentType": "SYSTEMATIC_ASSESSMENT", "stats": [{"groupId": "EG000", "numEvents": 1, "numAffected": 1, "numAtRisk": 318}, {"groupId": "EG001", "numEvents": 0, "numAffected": 0, "numAtRisk": 160}]}, {"term": "Dementia", "organSystem": "Nervous system disorders", "sourceVocabulary": "MedDRA 15.1", "assessmentType": "SYSTEMATIC_ASSESSMENT", "stats": [{"groupId": "EG000", "numEvents": 1, "numAffected": 1, "numAtRisk": 318}, {"groupId": "EG001", "numEvents": 0, "numAffected": 0, "numAtRisk": 160}]}, {"term": "Encephalopathy", "organSystem": "Nervous system disorders", "sourceVocabulary": "MedDRA 15.1", "assessmentType": "SYSTEMATIC_ASSESSMENT", "stats": [{"groupId": "EG000", "numEvents": 2, "numAffected": 2, "numAtRisk": 318}, {"groupId": "EG001", "numEvents": 0, "numAffected": 0, "numAtRisk": 160}]}, {"term": "Haemorrhage intracranial", "organSystem": "Nervous system disorders", "sourceVocabulary": "MedDRA 15.1", "assessmentType": "SYSTEMATIC_ASSESSMENT", "stats": [{"groupId": "EG000", "numEvents": 1, "numAffected": 1, "numAtRisk": 318}, {"groupId": "EG001", "numEvents": 0, "numAffected": 0, "numAtRisk": 160}]}, {"term": "Headache", "organSystem": "Nervous system disorders", "sourceVocabulary": "MedDRA 15.1", "assessmentType": "SYSTEMATIC_ASSESSMENT", "stats": [{"groupId": "EG000", "numEvents": 0, "numAffected": 0, "numAtRisk": 318}, {"groupId": "EG001", "numEvents": 1, "numAffected": 1, "numAtRisk": 160}]}, {"term": "Nerve compression", "organSystem": "Nervous system disorders", "sourceVocabulary": "MedDRA 15.1", "assessmentType": "SYSTEMATIC_ASSESSMENT", "stats": [{"groupId": "EG000", "numEvents": 1, "numAffected": 1, "numAtRisk": 318}, {"groupId": "EG001", "numEvents": 0, "numAffected": 0, "numAtRisk": 160}]}, {"term": "Presyncope", "organSystem": "Nervous system disorders", "sourceVocabulary": "MedDRA 15.1", "assessmentType": "SYSTEMATIC_ASSESSMENT", "stats": [{"groupId": "EG000", "numEvents": 2, "numAffected": 2, "numAtRisk": 318}, {"groupId": "EG001", "numEvents": 0, "numAffected": 0, "numAtRisk": 160}]}, {"term": "Subarachnoid haemorrhage", "organSystem": "Nervous system disorders", "sourceVocabulary": "MedDRA 15.1", "assessmentType": "SYSTEMATIC_ASSESSMENT", "stats": [{"groupId": "EG000", "numEvents": 1, "numAffected": 1, "numAtRisk": 318}, {"groupId": "EG001", "numEvents": 0, "numAffected": 0, "numAtRisk": 160}]}, {"term": "Syncope", "organSystem": "Nervous system disorders", "sourceVocabulary": "MedDRA 15.1", "assessmentType": "SYSTEMATIC_ASSESSMENT", "stats": [{"groupId": "EG000", "numEvents": 2, "numAffected": 2, "numAtRisk": 318}, {"groupId": "EG001", "numEvents": 2, "numAffected": 1, "numAtRisk": 160}]}, {"term": "Transient ischaemic attack", "organSystem": "Nervous system disorders", "sourceVocabulary": "MedDRA 15.1", "assessmentType": "SYSTEMATIC_ASSESSMENT", "stats": [{"groupId": "EG000", "numEvents": 3, "numAffected": 3, "numAtRisk": 318}, {"groupId": "EG001", "numEvents": 0, "numAffected": 0, "numAtRisk": 160}]}, {"term": "Obstructive uropathy", "organSystem": "Renal and urinary disorders", "sourceVocabulary": "MedDRA 15.1", "assessmentType": "SYSTEMATIC_ASSESSMENT", "stats": [{"groupId": "EG000", "numEvents": 0, "numAffected": 0, "numAtRisk": 318}, {"groupId": "EG001", "numEvents": 1, "numAffected": 1, "numAtRisk": 160}]}, {"term": "Renal artery stenosis", "organSystem": "Renal and urinary disorders", "sourceVocabulary": "MedDRA 15.1", "assessmentType": "SYSTEMATIC_ASSESSMENT", "stats": [{"groupId": "EG000", "numEvents": 1, "numAffected": 1, "numAtRisk": 318}, {"groupId": "EG001", "numEvents": 0, "numAffected": 0, "numAtRisk": 160}]}, {"term": "Renal failure", "organSystem": "Renal and urinary disorders", "sourceVocabulary": "MedDRA 15.1", "assessmentType": "SYSTEMATIC_ASSESSMENT", "stats": [{"groupId": "EG000", "numEvents": 7, "numAffected": 6, "numAtRisk": 318}, {"groupId": "EG001", "numEvents": 2, "numAffected": 2, "numAtRisk": 160}]}, {"term": "Renal failure acute", "organSystem": "Renal and urinary disorders", "sourceVocabulary": "MedDRA 15.1", "assessmentType": "SYSTEMATIC_ASSESSMENT", "stats": [{"groupId": "EG000", "numEvents": 9, "numAffected": 8, "numAtRisk": 318}, {"groupId": "EG001", "numEvents": 6, "numAffected": 6, "numAtRisk": 160}]}, {"term": "Renal impairment", "organSystem": "Renal and urinary disorders", "sourceVocabulary": "MedDRA 15.1", "assessmentType": "SYSTEMATIC_ASSESSMENT", "stats": [{"groupId": "EG000", "numEvents": 1, "numAffected": 1, "numAtRisk": 318}, {"groupId": "EG001", "numEvents": 0, "numAffected": 0, "numAtRisk": 160}]}, {"term": "Urinary retention", "organSystem": "Renal and urinary disorders", "sourceVocabulary": "MedDRA 15.1", "assessmentType": "SYSTEMATIC_ASSESSMENT", "stats": [{"groupId": "EG000", "numEvents": 0, "numAffected": 0, "numAtRisk": 318}, {"groupId": "EG001", "numEvents": 1, "numAffected": 1, "numAtRisk": 160}]}, {"term": "Rectocele", "organSystem": "Reproductive system and breast disorders", "sourceVocabulary": "MedDRA 15.1", "assessmentType": "SYSTEMATIC_ASSESSMENT", "stats": [{"groupId": "EG000", "numEvents": 1, "numAffected": 1, "numAtRisk": 318}, {"groupId": "EG001", "numEvents": 0, "numAffected": 0, "numAtRisk": 160}]}, {"term": "Acute pulmonary oedema", "organSystem": "Respiratory, thoracic and mediastinal disorders", "sourceVocabulary": "MedDRA 15.1", "assessmentType": "SYSTEMATIC_ASSESSMENT", "stats": [{"groupId": "EG000", "numEvents": 1, "numAffected": 1, "numAtRisk": 318}, {"groupId": "EG001", "numEvents": 0, "numAffected": 0, "numAtRisk": 160}]}, {"term": "Acute respiratory failure", "organSystem": "Respiratory, thoracic and mediastinal disorders", "sourceVocabulary": "MedDRA 15.1", "assessmentType": "SYSTEMATIC_ASSESSMENT", "stats": [{"groupId": "EG000", "numEvents": 2, "numAffected": 1, "numAtRisk": 318}, {"groupId": "EG001", "numEvents": 0, "numAffected": 0, "numAtRisk": 160}]}, {"term": "Chronic obstructive pulmonary disease", "organSystem": "Respiratory, thoracic and mediastinal disorders", "sourceVocabulary": "MedDRA 15.1", "assessmentType": "SYSTEMATIC_ASSESSMENT", "stats": [{"groupId": "EG000", "numEvents": 7, "numAffected": 5, "numAtRisk": 318}, {"groupId": "EG001", "numEvents": 11, "numAffected": 6, "numAtRisk": 160}]}, {"term": "Epistaxis", "organSystem": "Respiratory, thoracic and mediastinal disorders", "sourceVocabulary": "MedDRA 15.1", "assessmentType": "SYSTEMATIC_ASSESSMENT", "stats": [{"groupId": "EG000", "numEvents": 0, "numAffected": 0, "numAtRisk": 318}, {"groupId": "EG001", "numEvents": 1, "numAffected": 1, "numAtRisk": 160}]}, {"term": "Haemoptysis", "organSystem": "Respiratory, thoracic and mediastinal disorders", "sourceVocabulary": "MedDRA 15.1", "assessmentType": "SYSTEMATIC_ASSESSMENT", "stats": [{"groupId": "EG000", "numEvents": 1, "numAffected": 1, "numAtRisk": 318}, {"groupId": "EG001", "numEvents": 0, "numAffected": 0, "numAtRisk": 160}]}, {"term": "Interstitial lung disease", "organSystem": "Respiratory, thoracic and mediastinal disorders", "sourceVocabulary": "MedDRA 15.1", "assessmentType": "SYSTEMATIC_ASSESSMENT", "stats": [{"groupId": "EG000", "numEvents": 0, "numAffected": 0, "numAtRisk": 318}, {"groupId": "EG001", "numEvents": 1, "numAffected": 1, "numAtRisk": 160}]}, {"term": "Lung infiltration", "organSystem": "Respiratory, thoracic and mediastinal disorders", "sourceVocabulary": "MedDRA 15.1", "assessmentType": "SYSTEMATIC_ASSESSMENT", "stats": [{"groupId": "EG000", "numEvents": 0, "numAffected": 0, "numAtRisk": 318}, {"groupId": "EG001", "numEvents": 1, "numAffected": 1, "numAtRisk": 160}]}, {"term": "Pleural effusion", "organSystem": "Respiratory, thoracic and mediastinal disorders", "sourceVocabulary": "MedDRA 15.1", "assessmentType": "SYSTEMATIC_ASSESSMENT", "stats": [{"groupId": "EG000", "numEvents": 0, "numAffected": 0, "numAtRisk": 318}, {"groupId": "EG001", "numEvents": 1, "numAffected": 1, "numAtRisk": 160}]}, {"term": "Pneumonia aspiration", "organSystem": "Respiratory, thoracic and mediastinal disorders", "sourceVocabulary": "MedDRA 15.1", "assessmentType": "SYSTEMATIC_ASSESSMENT", "stats": [{"groupId": "EG000", "numEvents": 0, "numAffected": 0, "numAtRisk": 318}, {"groupId": "EG001", "numEvents": 1, "numAffected": 1, "numAtRisk": 160}]}, {"term": "Pneumothorax", "organSystem": "Respiratory, thoracic and mediastinal disorders", "sourceVocabulary": "MedDRA 15.1", "assessmentType": "SYSTEMATIC_ASSESSMENT", "stats": [{"groupId": "EG000", "numEvents": 1, "numAffected": 1, "numAtRisk": 318}, {"groupId": "EG001", "numEvents": 0, "numAffected": 0, "numAtRisk": 160}]}, {"term": "Pulmonary arterial hypertension", "organSystem": "Respiratory, thoracic and mediastinal disorders", "sourceVocabulary": "MedDRA 15.1", "assessmentType": "SYSTEMATIC_ASSESSMENT", "stats": [{"groupId": "EG000", "numEvents": 1, "numAffected": 1, "numAtRisk": 318}, {"groupId": "EG001", "numEvents": 0, "numAffected": 0, "numAtRisk": 160}]}, {"term": "Pulmonary embolism", "organSystem": "Respiratory, thoracic and mediastinal disorders", "sourceVocabulary": "MedDRA 15.1", "assessmentType": "SYSTEMATIC_ASSESSMENT", "stats": [{"groupId": "EG000", "numEvents": 2, "numAffected": 2, "numAtRisk": 318}, {"groupId": "EG001", "numEvents": 2, "numAffected": 2, "numAtRisk": 160}]}, {"term": "Pulmonary fibrosis", "organSystem": "Respiratory, thoracic and mediastinal disorders", "sourceVocabulary": "MedDRA 15.1", "assessmentType": "SYSTEMATIC_ASSESSMENT", "stats": [{"groupId": "EG000", "numEvents": 1, "numAffected": 1, "numAtRisk": 318}, {"groupId": "EG001", "numEvents": 0, "numAffected": 0, "numAtRisk": 160}]}, {"term": "Pulmonary oedema", "organSystem": "Respiratory, thoracic and mediastinal disorders", "sourceVocabulary": "MedDRA 15.1", "assessmentType": "SYSTEMATIC_ASSESSMENT", "stats": [{"groupId": "EG000", "numEvents": 2, "numAffected": 2, "numAtRisk": 318}, {"groupId": "EG001", "numEvents": 0, "numAffected": 0, "numAtRisk": 160}]}, {"term": "Respiratory distress", "organSystem": "Respiratory, thoracic and mediastinal disorders", "sourceVocabulary": "MedDRA 15.1", "assessmentType": "SYSTEMATIC_ASSESSMENT", "stats": [{"groupId": "EG000", "numEvents": 1, "numAffected": 1, "numAtRisk": 318}, {"groupId": "EG001", "numEvents": 0, "numAffected": 0, "numAtRisk": 160}]}, {"term": "Respiratory failure", "organSystem": "Respiratory, thoracic and mediastinal disorders", "sourceVocabulary": "MedDRA 15.1", "assessmentType": "SYSTEMATIC_ASSESSMENT", "stats": [{"groupId": "EG000", "numEvents": 2, "numAffected": 2, "numAtRisk": 318}, {"groupId": "EG001", "numEvents": 0, "numAffected": 0, "numAtRisk": 160}]}, {"term": "Angioedema", "organSystem": "Skin and subcutaneous tissue disorders", "sourceVocabulary": "MedDRA 15.1", "assessmentType": "SYSTEMATIC_ASSESSMENT", "stats": [{"groupId": "EG000", "numEvents": 1, "numAffected": 1, "numAtRisk": 318}, {"groupId": "EG001", "numEvents": 0, "numAffected": 0, "numAtRisk": 160}]}, {"term": "Bladder neoplasm surgery", "organSystem": "Surgical and medical procedures", "sourceVocabulary": "MedDRA 15.1", "assessmentType": "SYSTEMATIC_ASSESSMENT", "stats": [{"groupId": "EG000", "numEvents": 0, "numAffected": 0, "numAtRisk": 318}, {"groupId": "EG001", "numEvents": 1, "numAffected": 1, "numAtRisk": 160}]}, {"term": "Heart transplant", "organSystem": "Surgical and medical procedures", "sourceVocabulary": "MedDRA 15.1", "assessmentType": "SYSTEMATIC_ASSESSMENT", "stats": [{"groupId": "EG000", "numEvents": 3, "numAffected": 3, "numAtRisk": 318}, {"groupId": "EG001", "numEvents": 0, "numAffected": 0, "numAtRisk": 160}]}, {"term": "Aortic aneurysm", "organSystem": "Vascular disorders", "sourceVocabulary": "MedDRA 15.1", "assessmentType": "SYSTEMATIC_ASSESSMENT", "stats": [{"groupId": "EG000", "numEvents": 1, "numAffected": 1, "numAtRisk": 318}, {"groupId": "EG001", "numEvents": 1, "numAffected": 1, "numAtRisk": 160}]}, {"term": "Aortic stenosis", "organSystem": "Vascular disorders", "sourceVocabulary": "MedDRA 15.1", "assessmentType": "SYSTEMATIC_ASSESSMENT", "stats": [{"groupId": "EG000", "numEvents": 1, "numAffected": 1, "numAtRisk": 318}, {"groupId": "EG001", "numEvents": 1, "numAffected": 1, "numAtRisk": 160}]}, {"term": "Arterial occlusive disease", "organSystem": "Vascular disorders", "sourceVocabulary": "MedDRA 15.1", "assessmentType": "SYSTEMATIC_ASSESSMENT", "stats": [{"groupId": "EG000", "numEvents": 0, "numAffected": 0, "numAtRisk": 318}, {"groupId": "EG001", "numEvents": 1, "numAffected": 1, "numAtRisk": 160}]}, {"term": "Arterial stenosis", "organSystem": "Vascular disorders", "sourceVocabulary": "MedDRA 15.1", "assessmentType": "SYSTEMATIC_ASSESSMENT", "stats": [{"groupId": "EG000", "numEvents": 1, "numAffected": 1, "numAtRisk": 318}, {"groupId": "EG001", "numEvents": 0, "numAffected": 0, "numAtRisk": 160}]}, {"term": "Deep vein thrombosis", "organSystem": "Vascular disorders", "sourceVocabulary": "MedDRA 15.1", "assessmentType": "SYSTEMATIC_ASSESSMENT", "stats": [{"groupId": "EG000", "numEvents": 3, "numAffected": 3, "numAtRisk": 318}, {"groupId": "EG001", "numEvents": 0, "numAffected": 0, "numAtRisk": 160}]}, {"term": "Embolism", "organSystem": "Vascular disorders", "sourceVocabulary": "MedDRA 15.1", "assessmentType": "SYSTEMATIC_ASSESSMENT", "stats": [{"groupId": "EG000", "numEvents": 0, "numAffected": 0, "numAtRisk": 318}, {"groupId": "EG001", "numEvents": 1, "numAffected": 1, "numAtRisk": 160}]}, {"term": "Haematoma", "organSystem": "Vascular disorders", "sourceVocabulary": "MedDRA 15.1", "assessmentType": "SYSTEMATIC_ASSESSMENT", "stats": [{"groupId": "EG000", "numEvents": 0, "numAffected": 0, "numAtRisk": 318}, {"groupId": "EG001", "numEvents": 1, "numAffected": 1, "numAtRisk": 160}]}, {"term": "Hypertension", "organSystem": "Vascular disorders", "sourceVocabulary": "MedDRA 15.1", "assessmentType": "SYSTEMATIC_ASSESSMENT", "stats": [{"groupId": "EG000", "numEvents": 1, "numAffected": 1, "numAtRisk": 318}, {"groupId": "EG001", "numEvents": 0, "numAffected": 0, "numAtRisk": 160}]}, {"term": "Hypertensive crisis", "organSystem": "Vascular disorders", "sourceVocabulary": "MedDRA 15.1", "assessmentType": "SYSTEMATIC_ASSESSMENT", "stats": [{"groupId": "EG000", "numEvents": 1, "numAffected": 1, "numAtRisk": 318}, {"groupId": "EG001", "numEvents": 0, "numAffected": 0, "numAtRisk": 160}]}, {"term": "Hypertensive emergency", "organSystem": "Vascular disorders", "sourceVocabulary": "MedDRA 15.1", "assessmentType": "SYSTEMATIC_ASSESSMENT", "stats": [{"groupId": "EG000", "numEvents": 1, "numAffected": 1, "numAtRisk": 318}, {"groupId": "EG001", "numEvents": 0, "numAffected": 0, "numAtRisk": 160}]}, {"term": "Hypotension", "organSystem": "Vascular disorders", "sourceVocabulary": "MedDRA 15.1", "assessmentType": "SYSTEMATIC_ASSESSMENT", "stats": [{"groupId": "EG000", "numEvents": 3, "numAffected": 3, "numAtRisk": 318}, {"groupId": "EG001", "numEvents": 2, "numAffected": 2, "numAtRisk": 160}]}, {"term": "Intermittent claudication", "organSystem": "Vascular disorders", "sourceVocabulary": "MedDRA 15.1", "assessmentType": "SYSTEMATIC_ASSESSMENT", "stats": [{"groupId": "EG000", "numEvents": 1, "numAffected": 1, "numAtRisk": 318}, {"groupId": "EG001", "numEvents": 0, "numAffected": 0, "numAtRisk": 160}]}, {"term": "Orthostatic hypotension", "organSystem": "Vascular disorders", "sourceVocabulary": "MedDRA 15.1", "assessmentType": "SYSTEMATIC_ASSESSMENT", "stats": [{"groupId": "EG000", "numEvents": 4, "numAffected": 4, "numAtRisk": 318}, {"groupId": "EG001", "numEvents": 0, "numAffected": 0, "numAtRisk": 160}]}, {"term": "Peripheral vascular disorder", "organSystem": "Vascular disorders", "sourceVocabulary": "MedDRA 15.1", "assessmentType": "SYSTEMATIC_ASSESSMENT", "stats": [{"groupId": "EG000", "numEvents": 2, "numAffected": 2, "numAtRisk": 318}, {"groupId": "EG001", "numEvents": 0, "numAffected": 0, "numAtRisk": 160}]}, {"term": "Thrombophlebitis superficial", "organSystem": "Vascular disorders", "sourceVocabulary": "MedDRA 15.1", "assessmentType": "SYSTEMATIC_ASSESSMENT", "stats": [{"groupId": "EG000", "numEvents": 1, "numAffected": 1, "numAtRisk": 318}, {"groupId": "EG001", "numEvents": 0, "numAffected": 0, "numAtRisk": 160}]}, {"term": "Thrombosis", "organSystem": "Vascular disorders", "sourceVocabulary": "MedDRA 15.1", "assessmentType": "SYSTEMATIC_ASSESSMENT", "stats": [{"groupId": "EG000", "numEvents": 1, "numAffected": 1, "numAtRisk": 318}, {"groupId": "EG001", "numEvents": 0, "numAffected": 0, "numAtRisk": 160}]}, {"term": "Vena cava thrombosis", "organSystem": "Vascular disorders", "sourceVocabulary": "MedDRA 15.1", "assessmentType": "SYSTEMATIC_ASSESSMENT", "stats": [{"groupId": "EG000", "numEvents": 0, "numAffected": 0, "numAtRisk": 318}, {"groupId": "EG001", "numEvents": 1, "numAffected": 1, "numAtRisk": 160}]}], "otherEvents": [{"term": "Atrial fibrillation", "organSystem": "Cardiac disorders", "sourceVocabulary": "MedDRA 15.1", "assessmentType": "SYSTEMATIC_ASSESSMENT", "stats": [{"groupId": "EG000", "numEvents": 10, "numAffected": 10, "numAtRisk": 318}, {"groupId": "EG001", "numEvents": 15, "numAffected": 14, "numAtRisk": 160}]}, {"term": "Cardiac failure", "organSystem": "Cardiac disorders", "sourceVocabulary": "MedDRA 15.1", "assessmentType": "SYSTEMATIC_ASSESSMENT", "stats": [{"groupId": "EG000", "numEvents": 33, "numAffected": 28, "numAtRisk": 318}, {"groupId": "EG001", "numEvents": 15, "numAffected": 14, "numAtRisk": 160}]}, {"term": "Device stimulation issue", "organSystem": "General disorders", "sourceVocabulary": "MedDRA 15.1", "assessmentType": "SYSTEMATIC_ASSESSMENT", "stats": [{"groupId": "EG000", "numEvents": 17, "numAffected": 14, "numAtRisk": 318}, {"groupId": "EG001", "numEvents": 14, "numAffected": 10, "numAtRisk": 160}]}]}, "moreInfoModule": {"certainAgreement": {"piSponsorEmployee": false, "restrictionType": "OTHER", "restrictiveAgreement": true, "otherDetails": "Generally, contracts allow investigators to publish study results per the protocol and publication plan. Investigators and Participating Institutions will provide any publication of Study Data generated by PI and/or Participating Institution to Medtronic for review prior to submission to determine if confidential information (\"CI\") is included and to check for technical correctness. Medtronic may not censor/interfere with the publication beyond the extent necessary to protect CI."}, "pointOfContact": {"title": "Adaptive CRT Clinical Research Specialist", "organization": "Medtronic, Inc", "email": "medtronicCRMtrials@medtronic.com", "phone": "800-328-2518"}}}, "derivedSection": {"miscInfoModule": {"versionHolder": "2024-06-24", "removedCountries": ["Switzerland"]}, "conditionBrowseModule": {"meshes": [{"id": "D000006333", "term": "Heart Failure"}], "ancestors": [{"id": "D000006331", "term": "Heart Diseases"}, {"id": "D000002318", "term": "Cardiovascular Diseases"}], "browseLeaves": [{"id": "M9421", "name": "Heart Failure", "asFound": "Heart Failure", "relevance": "HIGH"}, {"id": "M9419", "name": "Heart Diseases", "relevance": "LOW"}], "browseBranches": [{"abbrev": "BC14", "name": "Heart and Blood Diseases"}, {"abbrev": "All", "name": "All Conditions"}]}}, "hasResults": true}