{"protocolSection": {"identificationModule": {"nctId": "NCT02007720", "orgStudyIdInfo": {"id": "CRLX030A2302"}, "organization": {"fullName": "Novartis", "class": "INDUSTRY"}, "briefTitle": "Efficacy, Safety and Tolerability of Sexelaxin When Added to Standard Therapy in AHF", "officialTitle": "A Multicenter, Randomized, Double-blind, Placebo Controlled Phase III Study to Evaluate the Efficacy, Safety and Tolerability of Serelaxin When Added to Standard Therapy in Acute Heart Failure Patients", "acronym": "RELAX-AHF-ASIA"}, "statusModule": {"statusVerifiedDate": "2019-06", "overallStatus": "TERMINATED", "whyStopped": "Study was terminated based on results from pivotal adult AHF study CRLX030A2301", "expandedAccessInfo": {"hasExpandedAccess": false}, "startDateStruct": {"date": "2014-03-12", "type": "ACTUAL"}, "primaryCompletionDateStruct": {"date": "2017-03-27", "type": "ACTUAL"}, "completionDateStruct": {"date": "2017-06-16", "type": "ACTUAL"}, "studyFirstSubmitDate": "2013-11-20", "studyFirstSubmitQcDate": "2013-12-09", "studyFirstPostDateStruct": {"date": "2013-12-11", "type": "ESTIMATED"}, "resultsFirstSubmitDate": "2018-05-14", "resultsFirstSubmitQcDate": "2019-06-12", "resultsFirstPostDateStruct": {"date": "2019-08-02", "type": "ACTUAL"}, "lastUpdateSubmitDate": "2019-06-12", "lastUpdatePostDateStruct": {"date": "2019-08-02", "type": "ACTUAL"}}, "sponsorCollaboratorsModule": {"responsibleParty": {"type": "SPONSOR"}, "leadSponsor": {"name": "Novartis Pharmaceuticals", "class": "INDUSTRY"}}, "oversightModule": {"oversightHasDmc": true, "isFdaRegulatedDrug": false}, "descriptionModule": {"briefSummary": "The purpose of the study was to evaluate the efficacy, safety and tolerability of intravenous infusion of serelaxin, when added to standard therapy, in acute heart failure (AHF) patients."}, "conditionsModule": {"conditions": ["Acute Heart Failure"], "keywords": ["Serelaxin,", "WHF,", "Likert Scale,", "RELAX-AHF-ASIA,", "RLX030,", "AHF,", "acute heart failure"]}, "designModule": {"studyType": "INTERVENTIONAL", "phases": ["PHASE3"], "designInfo": {"allocation": "RANDOMIZED", "interventionModel": "PARALLEL", "primaryPurpose": "TREATMENT", "maskingInfo": {"masking": "QUADRUPLE", "whoMasked": ["PARTICIPANT", "CARE_PROVIDER", "INVESTIGATOR", "OUTCOMES_ASSESSOR"]}}, "enrollmentInfo": {"count": 876, "type": "ACTUAL"}}, "armsInterventionsModule": {"armGroups": [{"label": "Placebo", "type": "PLACEBO_COMPARATOR", "description": "Patients will receive continuous intravenous infusion of matching placebo serelaxin for 48 hours.", "interventionNames": ["Drug: Placebo", "Other: Standard of CareTherapy"]}, {"label": "Serelaxin", "type": "EXPERIMENTAL", "description": "Patients will receive continuous intravenous infusion of serelaxin(30 \u00b5g/kg/day) for 48 hours.", "interventionNames": ["Drug: Serelaxin", "Other: Standard of CareTherapy"]}], "interventions": [{"type": "DRUG", "name": "Serelaxin", "description": "Intravenous infusion", "armGroupLabels": ["Serelaxin"]}, {"type": "DRUG", "name": "Placebo", "description": "Intravenous infusion", "armGroupLabels": ["Placebo"]}, {"type": "OTHER", "name": "Standard of CareTherapy", "description": "This treatment can include but is not limited to intravenous and/or oral diuretics, ACE inhibitors/angiotensin receptor antagonists, \u03b2 blockers, and aldosterone receptor antagonists, etc.", "armGroupLabels": ["Placebo", "Serelaxin"]}]}, "outcomesModule": {"primaryOutcomes": [{"measure": "Percentage of Patients With a Clinical Composite Endpoint of Treatment Success, Treatment Failure, or no Change.", "description": "The trichotomous clinical composite endpoint of treatment success, treatment failure, or no change. Treatment success defined as improvement of dyspnea by Likert scale and at least 2 points improvement by at least 2 physician assessed signs and symptoms (orthopnea, rales edema, and jugular venous pulse) at Day 2; treatment failure defined as worsening heart failure, death, or re-hospitalization due to heart failure or renal failure through Day 5; no change defined as neither the criteria for treatment success nor the criteria for treatment failure was met through Day 5.", "timeFrame": "through day 5"}], "secondaryOutcomes": [{"measure": "Time to WHF", "description": "Results are given in terms of number of participants with at least one worsening heart failure (WHF) event through day 5 (pre-defined timeframe).", "timeFrame": "Through Day 5"}, {"measure": "Time to CV Death", "description": "analysis of time to CEC CV death through day 180 : results are given in terms of number of participants with CV death event through day 180 (pre-defined timeframe).", "timeFrame": "Through Day 180"}, {"measure": "Time to All-cause Death", "description": "Results are given in terms of number of participants with all cause death event through day 180 (pre-defined timeframe).", "timeFrame": "Through Day 180"}, {"measure": "Time to Moderate or Marked Improvements in Dyspnea by Likert Scale, Expressed in Days", "description": "Time to event is computed as the number of days from randomization to moderate or marked improvements in dyspnea by Likert scale", "timeFrame": "Through Day 5"}, {"measure": "Dyspnea by VAS-AUC Changes", "description": "Change from baseline in Dyspena by VAS-AUC through Day 5, expressed in mm-hours", "timeFrame": "Through Day 5"}, {"measure": "Length of Intensive Care Unit (ICU) and/or Coronary Care Unit (CCU) Stay for the Index AHF Hospitalization", "description": "Length of stay will be defined as the hospitalization discharge date and the time minus the baseline date and time plus 1 day", "timeFrame": "Up to day 30"}, {"measure": "Renal Dysfunction and Prevention of Worsening of Renal Function", "description": "number of participants with renal dysfunction or in-hospital worsening of renal function through Day 5", "timeFrame": "Through Day 5"}, {"measure": "Time to Re-hospitalization Due to Heart Failure and Renal Impairment", "description": "Time to event is computed as the number of days from randomization to re-hospitalization due to Heart Failure and renal impairment", "timeFrame": "Through Day 180"}, {"measure": "Time to CV Death or Re-hospitalization Due to Heart Failure/ Renal Failure", "description": "Results are given in terms of number of participants with CV death or at least one re-hospitalization due to Heart Failure through day 180 (pre-defined timeframe).", "timeFrame": "Through Day 180"}, {"measure": "Time to In-hospital Worsening Heart Failure Through Day 5", "description": "Results are given in terms of number of participants with at least one in-hospital worsening heart failure through day 5 (pre-defined timeframe). In-hospital worsening heart failure is defined by symptoms only, signs only, and both symptoms and signs.", "timeFrame": "Through Day 5"}, {"measure": "Use of Loop Diuretic and Vasoactive Agents", "description": "Number of patients reported with use of loop diuretic and vasoactive agents from randomization through Day 5", "timeFrame": "Through Day 5"}, {"measure": "Change From Baseline in Cardio-renal Biomarkers", "timeFrame": "Day 2 and Day 5"}, {"measure": "Number of Patients Reported With Total Adverse Events, Serious Adverse Events and Death.", "description": "To evaluate the safety and tolerability of intravenous serelaxin in AHF patients, number of patients with total adverse events, serious adverse events and death will be analyzed.", "timeFrame": "For the safety evaluation, all adverse events will be collected from signing of the informed consent form through Day 5 for non-serious AEs and through Day 14 for serious AEs."}]}, "eligibilityModule": {"eligibilityCriteria": "Inclusion Criteria:\n\n* Male or female \u2265 18 years of age, with body weight \u2264160 kg\n* Hospitalized for AHF; AHF is defined as including all of the following measured at any time between presentation (including the emergency department and outpatient clinic) and at the end of screening:\n\n  * Persistent dyspnea at rest or with minimal exertion at screening and at the time of randomization\n  * Pulmonary congestion on chest radiograph\n  * Brain natriuretic peptide (BNP) \u2265500 pg/mL or NT-proBNP \u22652,000 pg/mL\n* Systolic BP \u2265125 mmHg at the start and at the end of screening\n* Able to be randomized within 16 hours from presentation to the hospital, including the emergency department and outpatient clinic\n* Received intravenous furosemide of at least 40 mg total (or equivalent) at any time between presentation (this includes outpatient clinic, ambulance, or hospital including emergency department) and the start of screening for the study for the treatment of the current acute HF episode\n* Renal impairment defined as an estimate glomerular filtration rate using the between presentation and randomization of \u2265 25 and \u226475mL/min/1.73m2, calculated using the Modification of Diet in Renal Disease formula (or modified sMDRD formula according to specific ethnic groups and local practice guidelines).\n\nExclusion Criteria:\n\n* Dyspnea primarily due to non-cardiac causes\n* Temperature \\>38.5\u00b0C (oral or equivalent), sepsis, active and clinically significant infection requiring IV anti-microbial treatment or known presence or evidence of Human Immunodeficiency Virus (HIV) infection (based on history and/or clinical findings, including laboratory results obtained during screening period).\n* Clinical evidence of acute coronary syndrome currently or within 30 days prior to enrollment\n\n  \\*Patients with systolic blood pressure \\>180 mmHg at the end of screening\n* AHF due to significant arrhythmias, which include any of the following: sustained ventricular tachycardia, bradycardia with sustained ventricular rate \\<45 beats per minute, or atrial fibrillation/flutter with sustained ventricular response of \\>130 beats per minute\n* Hepatic disease unrelated to Heart Failure etiology and as determined by any one of the following: AST and/or ALT values exceeding 3 X ULN and/or bilirubin \\> 1.5 X ULN at screening or history of hepatic encephalopathy, esophageal varices, or portacaval shunt, or a diagnosis of cirrhosis by any means, or evidence of chronic Hepatitis B (presence of hepatitis B surface antigen production: positive HBsAg), or chronic Hepatitis C infection (presence of Hepatitis C genetic replication: positive Hepatitis C viral RNA, based on history and/or clinical findings, including laboratory results obtained during screening period).\n\n  \\*Significant uncorrected left ventricular outflow obstruction, such as obstructive hypertrophic cardiomyopathy or severe aortic stenosis (i.e., aortic valve area \\<1.0 cm2 or mean gradient \\>50 mmHg on prior or current echocardiogram), and severe mitral stenosis\n* History of malignancy of any organ system (other than localized basal cell carcinoma of the skin), treated or untreated, within the past year with a life expectancy less than 1 year", "healthyVolunteers": false, "sex": "ALL", "minimumAge": "18 Years", "stdAges": ["ADULT", "OLDER_ADULT"]}, "contactsLocationsModule": {"overallOfficials": [{"name": "Novartis Pharmaceuticals", "affiliation": "Novartis Pharmaceuticals", "role": "STUDY_DIRECTOR"}], "locations": [{"facility": "Novartis Investigative Site", "city": "Beijing", "state": "Beijing", "zip": "100037", "country": "China", "geoPoint": {"lat": 39.9075, "lon": 116.39723}}, {"facility": "Novartis Investigative Site", "city": "Beijing", "state": "Beijing", "zip": "100039", "country": "China", "geoPoint": {"lat": 39.9075, "lon": 116.39723}}, {"facility": "Novartis Investigative Site", "city": "Lanzhou", "state": "Gansu", "zip": "730030", "country": "China", "geoPoint": {"lat": 36.05701, "lon": 103.83987}}, {"facility": "Novartis Investigative Site", "city": "Guangzhou", "state": "Guangdong", "zip": "51000", "country": "China", "geoPoint": {"lat": 23.11667, "lon": 113.25}}, {"facility": "Novartis Investigative Site", "city": "Guangzhou", "state": "Guangdong", "zip": "510515", "country": "China", "geoPoint": {"lat": 23.11667, "lon": 113.25}}, {"facility": "Novartis Investigative Site", "city": "Suzhou", "state": "Jiangsu", "zip": "215006", "country": "China", "geoPoint": {"lat": 31.30408, "lon": 120.59538}}, {"facility": "Novartis Investigative Site", "city": "Yangzhou", "state": "Jiangsu", "country": "China", "geoPoint": {"lat": 32.39722, "lon": 119.43583}}, {"facility": "Novartis Investigative Site", "city": "Shenyang", "state": "Liaoning", "zip": "110000", "country": "China", "geoPoint": {"lat": 41.79222, "lon": 123.43278}}, {"facility": "Novartis Investigative Site", "city": "Shenyang", "state": "Liaoning", "zip": "110003", "country": "China", "geoPoint": {"lat": 41.79222, "lon": 123.43278}}, {"facility": "Novartis Investigative Site", "city": "Jinshan", "state": "Shanghai", "zip": "201508", "country": "China"}, {"facility": "Novartis Investigative Site", "city": "Shanghai", "state": "Shanghai", "zip": "200032", "country": "China", "geoPoint": {"lat": 31.22222, "lon": 121.45806}}, {"facility": "Novartis Investigative Site", "city": "Xian", "state": "Shanxi", "zip": "710061", "country": "China", "geoPoint": {"lat": 34.25833, "lon": 108.92861}}, {"facility": "Novartis Investigative Site", "city": "Tianjin", "state": "Tianjin", "zip": "300121", "country": "China", "geoPoint": {"lat": 39.14222, "lon": 117.17667}}, {"facility": "Novartis Investigative Site", "city": "Hangzhou", "state": "Zhejiang", "zip": "310013", "country": "China", "geoPoint": {"lat": 30.29365, "lon": 120.16142}}, {"facility": "Novartis Investigative Site", "city": "Wenzhou", "state": "Zhejiang", "zip": "325000", "country": "China", "geoPoint": {"lat": 27.99942, "lon": 120.66682}}, {"facility": "Novartis Investigative Site", "city": "Beijing", "zip": "100050", "country": "China", "geoPoint": {"lat": 39.9075, "lon": 116.39723}}, {"facility": "Novartis Investigative Site", "city": "Chongqing", "zip": "400037", "country": "China", "geoPoint": {"lat": 29.56278, "lon": 106.55278}}, {"facility": "Novartis Investigative Site", "city": "Shanghai City", "country": "China"}, {"facility": "Novartis Investigative Site", "city": "New Delhi", "state": "Delhi", "zip": "110029", "country": "India", "geoPoint": {"lat": 28.63576, "lon": 77.22445}}, {"facility": "Novartis Investigative Site", "city": "Ahmedabad", "state": "Gujarat", "zip": "380054", "country": "India", "geoPoint": {"lat": 23.02579, "lon": 72.58727}}, {"facility": "Novartis Investigative Site", "city": "Vadodara", "state": "Gujarat", "zip": "390022", "country": "India", "geoPoint": {"lat": 22.29941, "lon": 73.20812}}, {"facility": "Novartis Investigative Site", "city": "Nagpur", "state": "Maharashtra", "zip": "440010", "country": "India", "geoPoint": {"lat": 21.14631, "lon": 79.08491}}, {"facility": "Novartis Investigative Site", "city": "Nagpur", "state": "Maharashtra", "zip": "440012", "country": "India", "geoPoint": {"lat": 21.14631, "lon": 79.08491}}, {"facility": "Novartis Investigative Site", "city": "Chennai", "state": "Tamil Nadu", "zip": "600101", "country": "India", "geoPoint": {"lat": 13.08784, "lon": 80.27847}}, {"facility": "Novartis Investigative Site", "city": "Hyderabad", "state": "Telangana", "zip": "500082", "country": "India", "geoPoint": {"lat": 17.38405, "lon": 78.45636}}, {"facility": "Novartis Investigative Site", "city": "Rajasthan", "zip": "334003", "country": "India"}, {"facility": "Novartis Investigative Site", "city": "Nagakute-city", "state": "Aichi", "zip": "480-1195", "country": "Japan", "geoPoint": {"lat": 35.17325, "lon": 137.05667}}, {"facility": "Novartis Investigative Site", "city": "Seto-city", "state": "Aichi", "zip": "489-8642", "country": "Japan", "geoPoint": {"lat": 35.23333, "lon": 137.1}}, {"facility": "Novartis Investigative Site", "city": "Kamogawa-city", "state": "Chiba", "zip": "2968602", "country": "Japan", "geoPoint": {"lat": 35.0969, "lon": 140.1003}}, {"facility": "Novartis Investigative Site", "city": "Saijo-city", "state": "Ehime", "zip": "793-0027", "country": "Japan", "geoPoint": {"lat": 33.91667, "lon": 133.18333}}, {"facility": "Novartis Investigative Site", "city": "Chikushino-city", "state": "Fukuka", "zip": "818-8516", "country": "Japan", "geoPoint": {"lat": 33.49631, "lon": 130.5156}}, {"facility": "Novartis Investigative Site", "city": "Fukuoka-city", "state": "Fukuoka", "zip": "810-0001", "country": "Japan", "geoPoint": {"lat": 33.6, "lon": 130.41667}}, {"facility": "Novartis Investigative Site", "city": "Fukuoka-city", "state": "Fukuoka", "zip": "811-0213", "country": "Japan", "geoPoint": {"lat": 33.6, "lon": 130.41667}}, {"facility": "Novartis Investigative Site", "city": "Fukuoka-city", "state": "Fukuoka", "zip": "815-8588", "country": "Japan", "geoPoint": {"lat": 33.6, "lon": 130.41667}}, {"facility": "Novartis Investigative Site", "city": "Iizuka-city", "state": "Fukuoka", "zip": "820-8505", "country": "Japan", "geoPoint": {"lat": 33.63654, "lon": 130.68678}}, {"facility": "Novartis Investigative Site", "city": "Kurume-city", "state": "Fukuoka", "zip": "830-8543", "country": "Japan", "geoPoint": {"lat": 33.31667, "lon": 130.51667}}, {"facility": "Novartis Investigative Site", "city": "Kurume-city", "state": "Fukuoka", "zip": "830-8577", "country": "Japan", "geoPoint": {"lat": 33.31667, "lon": 130.51667}}, {"facility": "Novartis Investigative Site", "city": "Ogaki-city", "state": "Gifu", "zip": "503-8502", "country": "Japan", "geoPoint": {"lat": 35.35, "lon": 136.61667}}, {"facility": "Novartis Investigative Site", "city": "Kushiro-city", "state": "Hokkaido", "zip": "085-0062", "country": "Japan", "geoPoint": {"lat": 42.975, "lon": 144.37472}}, {"facility": "Novartis Investigative Site", "city": "Sapporo-city", "state": "Hokkaido", "zip": "006-8555", "country": "Japan", "geoPoint": {"lat": 43.06667, "lon": 141.35}}, {"facility": "Novartis Investigative Site", "city": "Amagasaki city", "state": "Hyogo", "zip": "660 8550", "country": "Japan", "geoPoint": {"lat": 34.71667, "lon": 135.41667}}, {"facility": "Novartis Investigative Site", "city": "Kobe-City", "state": "Hyogo", "zip": "654-0155", "country": "Japan", "geoPoint": {"lat": 34.6913, "lon": 135.183}}, {"facility": "Novartis Investigative Site", "city": "Mito-city", "state": "Ibaraki", "zip": "311-4198", "country": "Japan", "geoPoint": {"lat": 36.35, "lon": 140.45}}, {"facility": "Novartis Investigative Site", "city": "Kanazawa", "state": "Ishikawa", "zip": "920 8650", "country": "Japan", "geoPoint": {"lat": 36.6, "lon": 136.61667}}, {"facility": "Novartis Investigative Site", "city": "Kanonji-city", "state": "Kagawa", "zip": "769-1695", "country": "Japan"}, {"facility": "Novartis Investigative Site", "city": "Takamatsu city", "state": "Kagawa", "zip": "760 8557", "country": "Japan", "geoPoint": {"lat": 34.33333, "lon": 134.05}}, {"facility": "Novartis Investigative Site", "city": "Kawasaki-city", "state": "Kanagawa", "zip": "211-8533", "country": "Japan", "geoPoint": {"lat": 35.52056, "lon": 139.71722}}, {"facility": "Novartis Investigative Site", "city": "Yokohama city", "state": "Kanagawa", "zip": "232 0024", "country": "Japan", "geoPoint": {"lat": 35.43333, "lon": 139.65}}, {"facility": "Novartis Investigative Site", "city": "Yokohama-city", "state": "Kanagawa", "zip": "227-8501", "country": "Japan", "geoPoint": {"lat": 35.43333, "lon": 139.65}}, {"facility": "Novartis Investigative Site", "city": "Yokohama-city", "state": "Kanagawa", "zip": "231-8682", "country": "Japan", "geoPoint": {"lat": 35.43333, "lon": 139.65}}, {"facility": "Novartis Investigative Site", "city": "Yokohama-city", "state": "Kanagawa", "zip": "236 0051", "country": "Japan", "geoPoint": {"lat": 35.43333, "lon": 139.65}}, {"facility": "Novartis Investigative Site", "city": "Kochi city", "state": "Kochi", "zip": "781 8555", "country": "Japan", "geoPoint": {"lat": 33.55, "lon": 133.53333}}, {"facility": "Novartis Investigative Site", "city": "Kumamoto-city", "state": "Kumamoto", "zip": "861-4193", "country": "Japan", "geoPoint": {"lat": 32.80589, "lon": 130.69182}}, {"facility": "Novartis Investigative Site", "city": "Yatsushiro-city", "state": "Kumamoto", "zip": "866-8660", "country": "Japan", "geoPoint": {"lat": 32.55723, "lon": 130.65285}}, {"facility": "Novartis Investigative Site", "city": "Kyoto-city", "state": "Kyoto", "zip": "607-8062", "country": "Japan", "geoPoint": {"lat": 35.02107, "lon": 135.75385}}, {"facility": "Novartis Investigative Site", "city": "Uji-city", "state": "Kyoto", "zip": "611-0042", "country": "Japan", "geoPoint": {"lat": 34.89044, "lon": 135.80325}}, {"facility": "Novartis Investigative Site", "city": "Sendai-city", "state": "Miyagi", "zip": "981-3133", "country": "Japan", "geoPoint": {"lat": 38.26667, "lon": 140.86667}}, {"facility": "Novartis Investigative Site", "city": "Nakano-city", "state": "Nagano", "zip": "383-8505", "country": "Japan", "geoPoint": {"lat": 36.75, "lon": 138.36667}}, {"facility": "Novartis Investigative Site", "city": "Saku-city", "state": "Nagano", "zip": "3850051", "country": "Japan", "geoPoint": {"lat": 36.21667, "lon": 138.48333}}, {"facility": "Novartis Investigative Site", "city": "Ueda-city", "state": "Nagano", "zip": "386-8610", "country": "Japan", "geoPoint": {"lat": 36.40265, "lon": 138.28161}}, {"facility": "Novartis Investigative Site", "city": "Niigata-city", "state": "Niigata", "zip": "950-1197", "country": "Japan", "geoPoint": {"lat": 37.88637, "lon": 139.00589}}, {"facility": "Novartis Investigative Site", "city": "Osaka-city", "state": "Osaka", "zip": "540-0006", "country": "Japan", "geoPoint": {"lat": 34.69374, "lon": 135.50218}}, {"facility": "Novartis Investigative Site", "city": "Kawaguchi-city", "state": "Saitama", "zip": "333-0842", "country": "Japan", "geoPoint": {"lat": 35.80521, "lon": 139.71072}}, {"facility": "Novartis Investigative Site", "city": "Sayama-city", "state": "Saitama", "zip": "350-1323", "country": "Japan", "geoPoint": {"lat": 35.85295, "lon": 139.41212}}, {"facility": "Novartis Investigative Site", "city": "Wako-city", "state": "Saitama", "zip": "351-0102", "country": "Japan", "geoPoint": {"lat": 35.78944, "lon": 139.62333}}, {"facility": "Novartis Investigative Site", "city": "Kusatsu city", "state": "Shiga", "zip": "525 8585", "country": "Japan", "geoPoint": {"lat": 35.01667, "lon": 135.96667}}, {"facility": "Novartis Investigative Site", "city": "Hamamatsu-city", "state": "Shizuoka", "zip": "430-8558", "country": "Japan", "geoPoint": {"lat": 34.7, "lon": 137.73333}}, {"facility": "Novartis Investigative Site", "city": "Kakegawa-city", "state": "Shizuoka", "zip": "436-8555", "country": "Japan", "geoPoint": {"lat": 34.76667, "lon": 138.01667}}, {"facility": "Novartis Investigative Site", "city": "Akishima-city", "state": "Tokyo", "zip": "196-0003", "country": "Japan", "geoPoint": {"lat": 35.72085, "lon": 139.37999}}, {"facility": "Novartis Investigative Site", "city": "Chuo ku", "state": "Tokyo", "zip": "104-8560", "country": "Japan", "geoPoint": {"lat": 35.57779, "lon": 139.71685}}, {"facility": "Novartis Investigative Site", "city": "Hachioji-city", "state": "Tokyo", "zip": "192-0918", "country": "Japan", "geoPoint": {"lat": 35.65583, "lon": 139.32389}}, {"facility": "Novartis Investigative Site", "city": "Itabashi-ku", "state": "Tokyo", "zip": "173-8610", "country": "Japan", "geoPoint": {"lat": 35.74893, "lon": 139.71497}}, {"facility": "Novartis Investigative Site", "city": "Musashino-city", "state": "Tokyo", "zip": "180-8610", "country": "Japan", "geoPoint": {"lat": 35.70611, "lon": 139.55944}}, {"facility": "Novartis Investigative Site", "city": "Shinagawa ku", "state": "Tokyo", "zip": "141 8625", "country": "Japan", "geoPoint": {"lat": 33.63627, "lon": 133.00572}}, {"facility": "Novartis Investigative Site", "city": "Shinagawa-ku", "state": "Tokyo", "zip": "142-8666", "country": "Japan", "geoPoint": {"lat": 33.63627, "lon": 133.00572}}, {"facility": "Novartis Investigative Site", "city": "Tanabe-city", "state": "Wakayama", "zip": "646-8558", "country": "Japan", "geoPoint": {"lat": 33.73333, "lon": 135.36667}}, {"facility": "Novartis Investigative Site", "city": "Osaka", "zip": "534-0021", "country": "Japan", "geoPoint": {"lat": 34.69374, "lon": 135.50218}}, {"facility": "Novartis Investigative Site", "city": "Saitama", "zip": "330 8503", "country": "Japan", "geoPoint": {"lat": 35.90807, "lon": 139.65657}}, {"facility": "Novartis Investigative Site", "city": "Amman", "state": "JOR", "zip": "11152", "country": "Jordan", "geoPoint": {"lat": 31.95522, "lon": 35.94503}}, {"facility": "Novartis Investigative Site", "city": "Amman", "zip": "11183", "country": "Jordan", "geoPoint": {"lat": 31.95522, "lon": 35.94503}}, {"facility": "Novartis Investigative Site", "city": "Amman", "zip": "11184", "country": "Jordan", "geoPoint": {"lat": 31.95522, "lon": 35.94503}}, {"facility": "Novartis Investigative Site", "city": "Gyeonggi do", "state": "Bucheon Si", "zip": "422-711", "country": "Korea, Republic of", "geoPoint": {"lat": 37.58944, "lon": 126.76917}}, {"facility": "Novartis Investigative Site", "city": "Cheongju si", "state": "Chungcheongbuk Do", "zip": "28644", "country": "Korea, Republic of", "geoPoint": {"lat": 36.63722, "lon": 127.48972}}, {"facility": "Novartis Investigative Site", "city": "Wonju", "state": "Gangwon-do", "zip": "26427", "country": "Korea, Republic of", "geoPoint": {"lat": 37.35139, "lon": 127.94528}}, {"facility": "Novartis Investigative Site", "city": "Bundang Gu", "state": "Gyeonggi Do", "zip": "13620", "country": "Korea, Republic of"}, {"facility": "Novartis Investigative Site", "city": "Seoul", "state": "Korea", "zip": "05505", "country": "Korea, Republic of", "geoPoint": {"lat": 37.566, "lon": 126.9784}}, {"facility": "Novartis Investigative Site", "city": "Seoul", "state": "Korea", "zip": "06351", "country": "Korea, Republic of", "geoPoint": {"lat": 37.566, "lon": 126.9784}}, {"facility": "Novartis Investigative Site", "city": "Seoul", "state": "Korea", "zip": "08308", "country": "Korea, Republic of", "geoPoint": {"lat": 37.566, "lon": 126.9784}}, {"facility": "Novartis Investigative Site", "city": "Seoul", "state": "Seocho Gu", "zip": "06591", "country": "Korea, Republic of", "geoPoint": {"lat": 37.566, "lon": 126.9784}}, {"facility": "Novartis Investigative Site", "city": "Busan", "zip": "602739", "country": "Korea, Republic of", "geoPoint": {"lat": 35.10278, "lon": 129.04028}}, {"facility": "Novartis Investigative Site", "city": "Gwangju", "zip": "61469", "country": "Korea, Republic of", "geoPoint": {"lat": 35.15472, "lon": 126.91556}}, {"facility": "Novartis Investigative Site", "city": "Incheon", "zip": "405 760", "country": "Korea, Republic of", "geoPoint": {"lat": 37.45646, "lon": 126.70515}}, {"facility": "Novartis Investigative Site", "city": "Seoul", "zip": "02841", "country": "Korea, Republic of", "geoPoint": {"lat": 37.566, "lon": 126.9784}}, {"facility": "Novartis Investigative Site", "city": "Seoul", "zip": "03080", "country": "Korea, Republic of", "geoPoint": {"lat": 37.566, "lon": 126.9784}}, {"facility": "Novartis Investigative Site", "city": "Seoul", "zip": "03722", "country": "Korea, Republic of", "geoPoint": {"lat": 37.566, "lon": 126.9784}}, {"facility": "Novartis Investigative Site", "city": "Ashrafieh", "zip": "166830", "country": "Lebanon"}, {"facility": "Novartis Investigative Site", "city": "Beirut", "zip": "1107 2020", "country": "Lebanon", "geoPoint": {"lat": 33.88894, "lon": 35.49442}}, {"facility": "Novartis Investigative Site", "city": "Beirut", "country": "Lebanon", "geoPoint": {"lat": 33.88894, "lon": 35.49442}}, {"facility": "Novartis Investigative Site", "city": "Hazmieh", "zip": "470", "country": "Lebanon"}, {"facility": "Novartis Investigative Site", "city": "Kuala Lumpur", "state": "MYS", "zip": "56000", "country": "Malaysia", "geoPoint": {"lat": 3.1412, "lon": 101.68653}}, {"facility": "Novartis Investigative Site", "city": "Kota Kinabalu", "state": "Sabah", "zip": "88300", "country": "Malaysia", "geoPoint": {"lat": 5.9749, "lon": 116.0724}}, {"facility": "Novartis Investigative Site", "city": "Kuching", "state": "Sarawak", "zip": "94300", "country": "Malaysia", "geoPoint": {"lat": 1.54999, "lon": 110.33333}}, {"facility": "Novartis Investigative Site", "city": "Kuala Lumpur", "state": "Selangor Darul Ehsan", "zip": "43000", "country": "Malaysia", "geoPoint": {"lat": 3.1412, "lon": 101.68653}}, {"facility": "Novartis Investigative Site", "city": "Sungai Buloh", "state": "Selangor Darul Ehsan", "zip": "47000", "country": "Malaysia", "geoPoint": {"lat": 3.2, "lon": 101.58333}}, {"facility": "Novartis Investigative Site", "city": "Kuala Lumpur", "zip": "50400", "country": "Malaysia", "geoPoint": {"lat": 3.1412, "lon": 101.68653}}, {"facility": "Novartis Investigative Site", "city": "Kuala Lumpur", "zip": "59100", "country": "Malaysia", "geoPoint": {"lat": 3.1412, "lon": 101.68653}}, {"facility": "Novartis Investigative Site", "city": "Quezon City", "state": "Manila", "zip": "1100", "country": "Philippines", "geoPoint": {"lat": 14.6488, "lon": 121.0509}}, {"facility": "Novartis Investigative Site", "city": "Manila", "state": "Metro Manila", "zip": "1000", "country": "Philippines", "geoPoint": {"lat": 14.6042, "lon": 120.9822}}, {"facility": "Novartis Investigative Site", "city": "Makati City", "zip": "1229", "country": "Philippines", "geoPoint": {"lat": 14.55027, "lon": 121.03269}}, {"facility": "Novartis Investigative Site", "city": "Manila", "zip": "1003", "country": "Philippines", "geoPoint": {"lat": 14.6042, "lon": 120.9822}}, {"facility": "Novartis Investigative Site", "city": "Pasig City", "zip": "1605", "country": "Philippines", "geoPoint": {"lat": 14.58691, "lon": 121.0614}}, {"facility": "Novartis Investigative Site", "city": "Quezon City", "zip": "1102", "country": "Philippines", "geoPoint": {"lat": 14.6488, "lon": 121.0509}}, {"facility": "Novartis Investigative Site", "city": "Quezon City", "zip": "1113", "country": "Philippines", "geoPoint": {"lat": 14.6488, "lon": 121.0509}}, {"facility": "Novartis Investigative Site", "city": "San Juan City", "zip": "1500", "country": "Philippines", "geoPoint": {"lat": 14.6, "lon": 121.0333}}, {"facility": "Novartis Investigative Site", "city": "Singapore", "zip": "117549", "country": "Singapore", "geoPoint": {"lat": 1.28967, "lon": 103.85007}}, {"facility": "Novartis Investigative Site", "city": "Singapore", "zip": "169609", "country": "Singapore", "geoPoint": {"lat": 1.28967, "lon": 103.85007}}, {"facility": "Novartis Investigative Site", "city": "Changhua", "zip": "50006", "country": "Taiwan", "geoPoint": {"lat": 24.07327, "lon": 120.56276}}, {"facility": "Novartis Investigative Site", "city": "Kaohsiung City", "zip": "83301", "country": "Taiwan", "geoPoint": {"lat": 22.61626, "lon": 120.31333}}, {"facility": "Novartis Investigative Site", "city": "Kaohsiung", "zip": "80756", "country": "Taiwan", "geoPoint": {"lat": 22.61626, "lon": 120.31333}}, {"facility": "Novartis Investigative Site", "city": "New Taipei", "zip": "22060", "country": "Taiwan", "geoPoint": {"lat": 25.01111, "lon": 121.44583}}, {"facility": "Novartis Investigative Site", "city": "Taichung", "zip": "40447", "country": "Taiwan", "geoPoint": {"lat": 24.1469, "lon": 120.6839}}, {"facility": "Novartis Investigative Site", "city": "Taipei", "zip": "10002", "country": "Taiwan", "geoPoint": {"lat": 25.04776, "lon": 121.53185}}, {"facility": "Novartis Investigative Site", "city": "Taipei", "zip": "10449", "country": "Taiwan", "geoPoint": {"lat": 25.04776, "lon": 121.53185}}, {"facility": "Novartis Investigative Site", "city": "Taipei", "zip": "11217", "country": "Taiwan", "geoPoint": {"lat": 25.04776, "lon": 121.53185}}, {"facility": "Novartis Investigative Site", "city": "Taoyuan", "zip": "33305", "country": "Taiwan", "geoPoint": {"lat": 24.95233, "lon": 121.20193}}, {"facility": "Novartis Investigative Site", "city": "Yilan", "zip": "26058", "country": "Taiwan", "geoPoint": {"lat": 24.757, "lon": 121.753}}, {"facility": "Novartis Investigative Site", "city": "Songkhla", "state": "Hat Yai", "zip": "90110", "country": "Thailand", "geoPoint": {"lat": 7.19882, "lon": 100.5951}}, {"facility": "Novartis Investigative Site", "city": "Bangkok", "zip": "10330", "country": "Thailand", "geoPoint": {"lat": 13.75398, "lon": 100.50144}}, {"facility": "Novartis Investigative Site", "city": "Bangkok", "zip": "10400", "country": "Thailand", "geoPoint": {"lat": 13.75398, "lon": 100.50144}}, {"facility": "Novartis Investigative Site", "city": "Bangkok", "zip": "10700", "country": "Thailand", "geoPoint": {"lat": 13.75398, "lon": 100.50144}}, {"facility": "Novartis Investigative Site", "city": "Chiang Mai", "zip": "50200", "country": "Thailand", "geoPoint": {"lat": 18.79038, "lon": 98.98468}}, {"facility": "Novartis Investigative Site", "city": "Muang", "zip": "40002", "country": "Thailand"}]}, "referencesModule": {"references": [{"pmid": "35184572", "type": "DERIVED", "citation": "Grand J, Miger K, Sajadieh A, Kober L, Torp-Pedersen C, Ertl G, Lopez-Sendon J, Pietro Maggioni A, Teerlink JR, Sato N, Gimpelewicz C, Metra M, Holbro T, Nielsen OW. Blood Pressure Drops During Hospitalization for Acute Heart Failure Treated With Serelaxin: A Patient-Level Analysis of 4 Randomized Controlled Trials. Circ Heart Fail. 2022 Apr;15(4):e009199. doi: 10.1161/CIRCHEARTFAILURE.121.009199. Epub 2022 Feb 21."}, {"pmid": "34514815", "type": "DERIVED", "citation": "Grand J, Miger K, Sajadieh A, Kober L, Torp-Pedersen C, Ertl G, Lopez-Sendon J, Pietro Maggioni A, Teerlink JR, Sato N, Gimpelewicz C, Metra M, Holbro T, Nielsen OW. Systolic Blood Pressure and Outcome in Patients Admitted With Acute Heart Failure: An Analysis of Individual Patient Data From 4 Randomized Clinical Trials. J Am Heart Assoc. 2021 Sep 21;10(18):e022288. doi: 10.1161/JAHA.121.022288. Epub 2021 Sep 13."}]}}, "resultsSection": {"participantFlowModule": {"recruitmentDetails": "* patient randomized : participants who signed ICF (876 participants)\n* Full analyis set: participants who received at least one dose of study drug (870 participants)\n* safety set (858 participtants): participants who received at least one dose of study drug and completed at least one post baseline assessment", "groups": [{"id": "FG000", "title": "Placebo", "description": "Patients who received continuous intravenous infusion of matching placebo serelaxin for 48 hours."}, {"id": "FG001", "title": "Serelaxin", "description": "Patients who receivedcontinuous intravenous infusion of serelaxin for 48 hours."}], "periods": [{"title": "Overall Study", "milestones": [{"type": "STARTED", "comment": "876 participants were randomized", "achievements": [{"groupId": "FG000", "numSubjects": "436"}, {"groupId": "FG001", "numSubjects": "440"}]}, {"type": "Full Analysis Set", "comment": "6 patients were misrandomized and excluded from the fuoll analysis set", "achievements": [{"groupId": "FG000", "numSubjects": "433"}, {"groupId": "FG001", "numSubjects": "437"}]}, {"type": "Safety Set", "comment": "among these 858 had a least one dose of study drug and at least one post baseline assessment", "achievements": [{"groupId": "FG000", "numSubjects": "426"}, {"groupId": "FG001", "numSubjects": "432"}]}, {"type": "COMPLETED", "comment": "Phase completion is defined as death or actual follow up greater or equal to Day 165", "achievements": [{"groupId": "FG000", "numSubjects": "354"}, {"groupId": "FG001", "numSubjects": "368"}]}, {"type": "NOT COMPLETED", "achievements": [{"groupId": "FG000", "numSubjects": "82"}, {"groupId": "FG001", "numSubjects": "72"}]}], "dropWithdraws": [{"type": "Withdrawal by Subject", "reasons": [{"groupId": "FG000", "numSubjects": "9"}, {"groupId": "FG001", "numSubjects": "11"}]}, {"type": "study terminated by sponsor", "reasons": [{"groupId": "FG000", "numSubjects": "58"}, {"groupId": "FG001", "numSubjects": "54"}]}, {"type": "technical problem", "reasons": [{"groupId": "FG000", "numSubjects": "4"}, {"groupId": "FG001", "numSubjects": "2"}]}, {"type": "patient followd less than 165 days", "reasons": [{"groupId": "FG000", "numSubjects": "11"}, {"groupId": "FG001", "numSubjects": "5"}]}]}]}, "baselineCharacteristicsModule": {"populationDescription": "Full Analysis Set was used", "groups": [{"id": "BG000", "title": "Placebo", "description": "Patients who received continuous intravenous infusion of matching placebo serelaxin for 48 hours."}, {"id": "BG001", "title": "Serelaxin", "description": "Patients who receivedcontinuous intravenous infusion of serelaxin for 48 hours."}, {"id": "BG002", "title": "Total", "description": "Total of all reporting groups"}], "denoms": [{"units": "Participants", "counts": [{"groupId": "BG000", "value": "433"}, {"groupId": "BG001", "value": "437"}, {"groupId": "BG002", "value": "870"}]}], "measures": [{"title": "Age, Continuous", "paramType": "MEAN", "dispersionType": "STANDARD_DEVIATION", "unitOfMeasure": "years", "classes": [{"title": "full analysis set 870 participants", "categories": [{"measurements": [{"groupId": "BG000", "value": "70.2", "spread": "13.86"}, {"groupId": "BG001", "value": "68.9", "spread": "14.40"}, {"groupId": "BG002", "value": "69.6", "spread": "14.14"}]}]}]}, {"title": "Sex: Female, Male", "paramType": "COUNT_OF_PARTICIPANTS", "unitOfMeasure": "Participants", "classes": [{"categories": [{"title": "Female", "measurements": [{"groupId": "BG000", "value": "165"}, {"groupId": "BG001", "value": "147"}, {"groupId": "BG002", "value": "312"}]}, {"title": "Male", "measurements": [{"groupId": "BG000", "value": "268"}, {"groupId": "BG001", "value": "290"}, {"groupId": "BG002", "value": "558"}]}]}]}, {"title": "Race (NIH/OMB)", "paramType": "COUNT_OF_PARTICIPANTS", "unitOfMeasure": "Participants", "classes": [{"categories": [{"title": "American Indian or Alaska Native", "measurements": [{"groupId": "BG000", "value": "0"}, {"groupId": "BG001", "value": "0"}, {"groupId": "BG002", "value": "0"}]}, {"title": "Asian", "measurements": [{"groupId": "BG000", "value": "418"}, {"groupId": "BG001", "value": "420"}, {"groupId": "BG002", "value": "838"}]}, {"title": "Native Hawaiian or Other Pacific Islander", "measurements": [{"groupId": "BG000", "value": "0"}, {"groupId": "BG001", "value": "0"}, {"groupId": "BG002", "value": "0"}]}, {"title": "Black or African American", "measurements": [{"groupId": "BG000", "value": "0"}, {"groupId": "BG001", "value": "0"}, {"groupId": "BG002", "value": "0"}]}, {"title": "White", "measurements": [{"groupId": "BG000", "value": "15"}, {"groupId": "BG001", "value": "17"}, {"groupId": "BG002", "value": "32"}]}, {"title": "More than one race", "measurements": [{"groupId": "BG000", "value": "0"}, {"groupId": "BG001", "value": "0"}, {"groupId": "BG002", "value": "0"}]}, {"title": "Unknown or Not Reported", "measurements": [{"groupId": "BG000", "value": "0"}, {"groupId": "BG001", "value": "0"}, {"groupId": "BG002", "value": "0"}]}]}]}]}, "outcomeMeasuresModule": {"outcomeMeasures": [{"type": "PRIMARY", "title": "Percentage of Patients With a Clinical Composite Endpoint of Treatment Success, Treatment Failure, or no Change.", "description": "The trichotomous clinical composite endpoint of treatment success, treatment failure, or no change. Treatment success defined as improvement of dyspnea by Likert scale and at least 2 points improvement by at least 2 physician assessed signs and symptoms (orthopnea, rales edema, and jugular venous pulse) at Day 2; treatment failure defined as worsening heart failure, death, or re-hospitalization due to heart failure or renal failure through Day 5; no change defined as neither the criteria for treatment success nor the criteria for treatment failure was met through Day 5.", "populationDescription": "Full analysis set (FAS) - All patients in the randomized population who were not misrandomized patients. Following the intent-to-treat (ITT) principle, patients were analyzed according to the treatment they had been assigned to at the randomization", "reportingStatus": "POSTED", "paramType": "COUNT_OF_PARTICIPANTS", "unitOfMeasure": "Participants", "timeFrame": "through day 5", "groups": [{"id": "OG000", "title": "Placebo", "description": "Patients who received continuous intravenous infusion of matching placebo serelaxin for 48 hours."}, {"id": "OG001", "title": "Serelaxin", "description": "Patients who receivedcontinuous intravenous infusion of serelaxin for 48 hours."}], "denoms": [{"units": "Participants", "counts": [{"groupId": "OG000", "value": "433"}, {"groupId": "OG001", "value": "437"}]}], "classes": [{"title": "Treatment Failure", "categories": [{"measurements": [{"groupId": "OG000", "value": "36"}, {"groupId": "OG001", "value": "18"}]}]}, {"title": "No Change", "categories": [{"measurements": [{"groupId": "OG000", "value": "314"}, {"groupId": "OG001", "value": "333"}]}]}, {"title": "Treatment Success", "categories": [{"measurements": [{"groupId": "OG000", "value": "83"}, {"groupId": "OG001", "value": "86"}]}]}]}, {"type": "SECONDARY", "title": "Time to WHF", "description": "Results are given in terms of number of participants with at least one worsening heart failure (WHF) event through day 5 (pre-defined timeframe).", "populationDescription": "Full analysis set (FAS) - All patients in the randomized population who were not misrandomized patients\\*. Following the intent-to-treat (ITT) principle, patients were analyzed according to the treatment they had been assigned to at the randomization", "reportingStatus": "POSTED", "paramType": "COUNT_OF_PARTICIPANTS", "unitOfMeasure": "Participants", "timeFrame": "Through Day 5", "groups": [{"id": "OG000", "title": "Placebo", "description": "Patients who received continuous intravenous infusion of matching placebo serelaxin for 48 hours."}, {"id": "OG001", "title": "Serelaxin", "description": "Patients who receivedcontinuous intravenous infusion of serelaxin for 48 hours."}], "denoms": [{"units": "Participants", "counts": [{"groupId": "OG000", "value": "433"}, {"groupId": "OG001", "value": "437"}]}], "classes": [{"categories": [{"measurements": [{"groupId": "OG000", "value": "26"}, {"groupId": "OG001", "value": "11"}]}]}]}, {"type": "SECONDARY", "title": "Time to CV Death", "description": "analysis of time to CEC CV death through day 180 : results are given in terms of number of participants with CV death event through day 180 (pre-defined timeframe).", "populationDescription": "Full analysis set (FAS) - All patients in the randomized population who were not misrandomized patients\\*. Following the intent-to-treat (ITT) principle, patients were analyzed according to the treatment they had been assigned to at the randomization", "reportingStatus": "POSTED", "paramType": "COUNT_OF_PARTICIPANTS", "unitOfMeasure": "Participants", "timeFrame": "Through Day 180", "groups": [{"id": "OG000", "title": "Placebo", "description": "Patients who received continuous intravenous infusion of matching placebo serelaxin for 48 hours."}, {"id": "OG001", "title": "Serelaxin", "description": "Patients who receivedcontinuous intravenous infusion of serelaxin for 48 hours."}], "denoms": [{"units": "Participants", "counts": [{"groupId": "OG000", "value": "433"}, {"groupId": "OG001", "value": "437"}]}], "classes": [{"categories": [{"measurements": [{"groupId": "OG000", "value": "27"}, {"groupId": "OG001", "value": "27"}]}]}]}, {"type": "SECONDARY", "title": "Time to All-cause Death", "description": "Results are given in terms of number of participants with all cause death event through day 180 (pre-defined timeframe).", "populationDescription": "Full analysis set (FAS) - All patients in the randomized population who were not misrandomized patients\\*. Following the intent-to-treat (ITT) principle, patients were analyzed according to the treatment they had been assigned to at the randomization", "reportingStatus": "POSTED", "paramType": "COUNT_OF_PARTICIPANTS", "unitOfMeasure": "Participants", "timeFrame": "Through Day 180", "groups": [{"id": "OG000", "title": "Placebo", "description": "Patients who received continuous intravenous infusion of matching placebo serelaxin for 48 hours."}, {"id": "OG001", "title": "Serelaxin", "description": "Patients who receivedcontinuous intravenous infusion of serelaxin for 48 hours."}], "denoms": [{"units": "Participants", "counts": [{"groupId": "OG000", "value": "433"}, {"groupId": "OG001", "value": "437"}]}], "classes": [{"categories": [{"measurements": [{"groupId": "OG000", "value": "41"}, {"groupId": "OG001", "value": "33"}]}]}]}, {"type": "SECONDARY", "title": "Time to Moderate or Marked Improvements in Dyspnea by Likert Scale, Expressed in Days", "description": "Time to event is computed as the number of days from randomization to moderate or marked improvements in dyspnea by Likert scale", "populationDescription": "Full analysis set (FAS)with measure", "reportingStatus": "POSTED", "paramType": "MEAN", "dispersionType": "Standard Deviation", "unitOfMeasure": "days", "timeFrame": "Through Day 5", "groups": [{"id": "OG000", "title": "Placebo", "description": "Patients who received continuous intravenous infusion of matching placebo serelaxin for 48 hours."}, {"id": "OG001", "title": "Serelaxin", "description": "Patients who receivedcontinuous intravenous infusion of serelaxin for 48 hours."}], "denoms": [{"units": "Participants", "counts": [{"groupId": "OG000", "value": "423"}, {"groupId": "OG001", "value": "429"}]}], "classes": [{"categories": [{"measurements": [{"groupId": "OG000", "value": "1.327", "spread": "1.4418"}, {"groupId": "OG001", "value": "1.352", "spread": "1.5071"}]}]}]}, {"type": "SECONDARY", "title": "Dyspnea by VAS-AUC Changes", "description": "Change from baseline in Dyspena by VAS-AUC through Day 5, expressed in mm-hours", "populationDescription": "full analysis set with measure", "reportingStatus": "POSTED", "paramType": "MEAN", "dispersionType": "Standard Deviation", "unitOfMeasure": "mm-hours", "timeFrame": "Through Day 5", "groups": [{"id": "OG000", "title": "Placebo", "description": "Patients who received continuous intravenous infusion of matching placebo serelaxin for 48 hours."}, {"id": "OG001", "title": "Serelaxin", "description": "Patients who receivedcontinuous intravenous infusion of serelaxin for 48 hours."}], "denoms": [{"units": "Participants", "counts": [{"groupId": "OG000", "value": "429"}, {"groupId": "OG001", "value": "432"}]}], "classes": [{"categories": [{"measurements": [{"groupId": "OG000", "value": "2284.6", "spread": "2702.34"}, {"groupId": "OG001", "value": "2358.2", "spread": "2321.17"}]}]}]}, {"type": "SECONDARY", "title": "Length of Intensive Care Unit (ICU) and/or Coronary Care Unit (CCU) Stay for the Index AHF Hospitalization", "description": "Length of stay will be defined as the hospitalization discharge date and the time minus the baseline date and time plus 1 day", "populationDescription": "full analysis set with measure", "reportingStatus": "POSTED", "paramType": "MEAN", "dispersionType": "Standard Deviation", "unitOfMeasure": "days", "timeFrame": "Up to day 30", "groups": [{"id": "OG000", "title": "Placebo", "description": "Patients who received continuous intravenous infusion of matching placebo serelaxin for 48 hours."}, {"id": "OG001", "title": "Serelaxin", "description": "Patients who receivedcontinuous intravenous infusion of serelaxin for 48 hours."}], "denoms": [{"units": "Participants", "counts": [{"groupId": "OG000", "value": "432"}, {"groupId": "OG001", "value": "437"}]}], "classes": [{"categories": [{"measurements": [{"groupId": "OG000", "value": "3.2", "spread": "5.13"}, {"groupId": "OG001", "value": "2.5", "spread": "4.26"}]}]}]}, {"type": "SECONDARY", "title": "Renal Dysfunction and Prevention of Worsening of Renal Function", "description": "number of participants with renal dysfunction or in-hospital worsening of renal function through Day 5", "populationDescription": "Full analysis set with measure", "reportingStatus": "POSTED", "paramType": "NUMBER", "unitOfMeasure": "participants", "timeFrame": "Through Day 5", "groups": [{"id": "OG000", "title": "Placebo", "description": "Patients who received continuous intravenous infusion of matching placebo serelaxin for 48 hours."}, {"id": "OG001", "title": "Serelaxin", "description": "Patients who receivedcontinuous intravenous infusion of serelaxin for 48 hours."}], "denoms": [{"units": "Participants", "counts": [{"groupId": "OG000", "value": "418"}, {"groupId": "OG001", "value": "416"}]}], "classes": [{"categories": [{"measurements": [{"groupId": "OG000", "value": "120"}, {"groupId": "OG001", "value": "59"}]}]}]}, {"type": "SECONDARY", "title": "Time to Re-hospitalization Due to Heart Failure and Renal Impairment", "description": "Time to event is computed as the number of days from randomization to re-hospitalization due to Heart Failure and renal impairment", "reportingStatus": "POSTED", "paramType": "NUMBER", "unitOfMeasure": "days", "timeFrame": "Through Day 180", "groups": [{"id": "OG000", "title": "Placebo", "description": "Patients who received continuous intravenous infusion of matching placebo serelaxin for 48 hours."}, {"id": "OG001", "title": "Serelaxin", "description": "Patients who receivedcontinuous intravenous infusion of serelaxin for 48 hours."}], "denoms": [{"units": "Participants", "counts": [{"groupId": "OG000", "value": "433"}, {"groupId": "OG001", "value": "82"}]}], "classes": [{"categories": [{"measurements": [{"groupId": "OG000", "value": "87"}, {"groupId": "OG001", "value": "82"}]}]}]}, {"type": "SECONDARY", "title": "Time to CV Death or Re-hospitalization Due to Heart Failure/ Renal Failure", "description": "Results are given in terms of number of participants with CV death or at least one re-hospitalization due to Heart Failure through day 180 (pre-defined timeframe).", "populationDescription": "Full analysis set (FAS) - All patients in the randomized population who were not misrandomized patients\\*. Following the intent-to-treat (ITT) principle, patients were analyzed according to the treatment they had been assigned to at the randomization", "reportingStatus": "POSTED", "paramType": "COUNT_OF_PARTICIPANTS", "unitOfMeasure": "Participants", "timeFrame": "Through Day 180", "groups": [{"id": "OG000", "title": "Placebo", "description": "Patients who received continuous intravenous infusion of matching placebo serelaxin for 48 hours."}, {"id": "OG001", "title": "Serelaxin", "description": "Patients who receivedcontinuous intravenous infusion of serelaxin for 48 hours."}], "denoms": [{"units": "Participants", "counts": [{"groupId": "OG000", "value": "433"}, {"groupId": "OG001", "value": "437"}]}], "classes": [{"categories": [{"measurements": [{"groupId": "OG000", "value": "87"}, {"groupId": "OG001", "value": "82"}]}]}]}, {"type": "SECONDARY", "title": "Time to In-hospital Worsening Heart Failure Through Day 5", "description": "Results are given in terms of number of participants with at least one in-hospital worsening heart failure through day 5 (pre-defined timeframe). In-hospital worsening heart failure is defined by symptoms only, signs only, and both symptoms and signs.", "populationDescription": "Full analysis set with measure", "reportingStatus": "POSTED", "paramType": "COUNT_OF_PARTICIPANTS", "unitOfMeasure": "Participants", "timeFrame": "Through Day 5", "groups": [{"id": "OG000", "title": "Placebo", "description": "Patients who received continuous intravenous infusion of matching placebo serelaxin for 48 hours."}, {"id": "OG001", "title": "Serelaxin", "description": "Patients who receivedcontinuous intravenous infusion of serelaxin for 48 hours."}], "denoms": [{"units": "Participants", "counts": [{"groupId": "OG000", "value": "433"}, {"groupId": "OG001", "value": "437"}]}], "classes": [{"title": "WHF through day 5 by symptoms", "categories": [{"measurements": [{"groupId": "OG000", "value": "2"}, {"groupId": "OG001", "value": "1"}]}]}, {"title": "WHF through day 5 by signs", "categories": [{"measurements": [{"groupId": "OG000", "value": "3"}, {"groupId": "OG001", "value": "0"}]}]}, {"title": "WHF through day 5 by both", "categories": [{"measurements": [{"groupId": "OG000", "value": "20"}, {"groupId": "OG001", "value": "9"}]}]}, {"title": "death through day 5", "categories": [{"measurements": [{"groupId": "OG000", "value": "1"}, {"groupId": "OG001", "value": "1"}]}]}]}, {"type": "SECONDARY", "title": "Use of Loop Diuretic and Vasoactive Agents", "description": "Number of patients reported with use of loop diuretic and vasoactive agents from randomization through Day 5", "populationDescription": "full analysis set with measure", "reportingStatus": "POSTED", "paramType": "NUMBER", "unitOfMeasure": "participants", "timeFrame": "Through Day 5", "groups": [{"id": "OG000", "title": "Placebo", "description": "Patients who received continuous intravenous infusion of matching placebo serelaxin for 48 hours."}, {"id": "OG001", "title": "Serelaxin", "description": "Patients who receivedcontinuous intravenous infusion of serelaxin for 48 hours."}], "denoms": [{"units": "Participants", "counts": [{"groupId": "OG000", "value": "432"}, {"groupId": "OG001", "value": "437"}]}], "classes": [{"categories": [{"measurements": [{"groupId": "OG000", "value": "58"}, {"groupId": "OG001", "value": "49"}]}]}]}, {"type": "SECONDARY", "title": "Change From Baseline in Cardio-renal Biomarkers", "populationDescription": "The data was not collected, and analysis not performed, as the trial was terminated prematurely", "reportingStatus": "POSTED", "timeFrame": "Day 2 and Day 5", "groups": [{"id": "OG000", "title": "Placebo", "description": "Patients who received continuous intravenous infusion of matching placebo serelaxin for 48 hours."}, {"id": "OG001", "title": "Serelaxin", "description": "Patients who receivedcontinuous intravenous infusion of serelaxin for 48 hours."}], "denoms": [{"units": "Participants", "counts": [{"groupId": "OG000", "value": "0"}, {"groupId": "OG001", "value": "0"}]}]}, {"type": "SECONDARY", "title": "Number of Patients Reported With Total Adverse Events, Serious Adverse Events and Death.", "description": "To evaluate the safety and tolerability of intravenous serelaxin in AHF patients, number of patients with total adverse events, serious adverse events and death will be analyzed.", "reportingStatus": "POSTED", "paramType": "COUNT_OF_PARTICIPANTS", "unitOfMeasure": "Participants", "timeFrame": "For the safety evaluation, all adverse events will be collected from signing of the informed consent form through Day 5 for non-serious AEs and through Day 14 for serious AEs.", "groups": [{"id": "OG000", "title": "Placebo", "description": "Patients who received continuous intravenous infusion of matching placebo serelaxin for 48 hours."}, {"id": "OG001", "title": "Serelaxin", "description": "Patients who receivedcontinuous intravenous infusion of serelaxin for 48 hours."}], "denoms": [{"units": "Participants", "counts": [{"groupId": "OG000", "value": "433"}, {"groupId": "OG001", "value": "437"}]}], "classes": [{"title": "number of participants with SAE", "categories": [{"measurements": [{"groupId": "OG000", "value": "50"}, {"groupId": "OG001", "value": "37"}]}]}, {"title": "number of participants with AE", "categories": [{"measurements": [{"groupId": "OG000", "value": "253"}, {"groupId": "OG001", "value": "219"}]}]}, {"title": "number of patients with death", "categories": [{"measurements": [{"groupId": "OG000", "value": "41"}, {"groupId": "OG001", "value": "34"}]}]}]}]}, "adverseEventsModule": {"frequencyThreshold": "5", "timeFrame": "Through study completion, an average of 3 years", "description": "AE additional description", "eventGroups": [{"id": "EG000", "title": "RLX030", "description": "RLX030", "deathsNumAffected": 34, "deathsNumAtRisk": 432, "seriousNumAffected": 37, "seriousNumAtRisk": 432, "otherNumAffected": 65, "otherNumAtRisk": 432}, {"id": "EG001", "title": "Placebo", "description": "Patients who received continuous intravenous infusion of matching placebo serelaxin for 48 hours.", "deathsNumAffected": 41, "deathsNumAtRisk": 426, "seriousNumAffected": 50, "seriousNumAtRisk": 426, "otherNumAffected": 82, "otherNumAtRisk": 426}, {"id": "EG002", "title": "Total", "description": "Total", "deathsNumAffected": 75, "deathsNumAtRisk": 858, "seriousNumAffected": 87, "seriousNumAtRisk": 858, "otherNumAffected": 147, "otherNumAtRisk": 858}], "seriousEvents": [{"term": "Iron deficiency anaemia", "organSystem": "Blood and lymphatic system disorders", "sourceVocabulary": "MedDRA (20.0)", "assessmentType": "SYSTEMATIC_ASSESSMENT", "stats": [{"groupId": "EG000", "numAffected": 0, "numAtRisk": 432}, {"groupId": "EG001", "numAffected": 1, "numAtRisk": 426}, {"groupId": "EG002", "numAffected": 1, "numAtRisk": 858}]}, {"term": "Splenic infarction", "organSystem": "Blood and lymphatic system disorders", "sourceVocabulary": "MedDRA (20.0)", "assessmentType": "SYSTEMATIC_ASSESSMENT", "stats": [{"groupId": "EG000", "numAffected": 1, "numAtRisk": 432}, {"groupId": "EG001", "numAffected": 0, "numAtRisk": 426}, {"groupId": "EG002", "numAffected": 1, "numAtRisk": 858}]}, {"term": "Acute myocardial infarction", "organSystem": "Cardiac disorders", "sourceVocabulary": "MedDRA (20.0)", "assessmentType": "SYSTEMATIC_ASSESSMENT", "stats": [{"groupId": "EG000", "numAffected": 1, "numAtRisk": 432}, {"groupId": "EG001", "numAffected": 1, "numAtRisk": 426}, {"groupId": "EG002", "numAffected": 2, "numAtRisk": 858}]}, {"term": "Angina pectoris", "organSystem": "Cardiac disorders", "sourceVocabulary": "MedDRA (20.0)", "assessmentType": "SYSTEMATIC_ASSESSMENT", "stats": [{"groupId": "EG000", "numAffected": 1, "numAtRisk": 432}, {"groupId": "EG001", "numAffected": 1, "numAtRisk": 426}, {"groupId": "EG002", "numAffected": 2, "numAtRisk": 858}]}, {"term": "Aortic valve incompetence", "organSystem": "Cardiac disorders", "sourceVocabulary": "MedDRA (20.0)", "assessmentType": "SYSTEMATIC_ASSESSMENT", "stats": [{"groupId": "EG000", "numAffected": 0, "numAtRisk": 432}, {"groupId": "EG001", "numAffected": 1, "numAtRisk": 426}, {"groupId": "EG002", "numAffected": 1, "numAtRisk": 858}]}, {"term": "Atrial fibrillation", "organSystem": "Cardiac disorders", "sourceVocabulary": "MedDRA (20.0)", "assessmentType": "SYSTEMATIC_ASSESSMENT", "stats": [{"groupId": "EG000", "numAffected": 0, "numAtRisk": 432}, {"groupId": "EG001", "numAffected": 2, "numAtRisk": 426}, {"groupId": "EG002", "numAffected": 2, "numAtRisk": 858}]}, {"term": "Cardiac arrest", "organSystem": "Cardiac disorders", "sourceVocabulary": "MedDRA (20.0)", "assessmentType": "SYSTEMATIC_ASSESSMENT", "stats": [{"groupId": "EG000", "numAffected": 1, "numAtRisk": 432}, {"groupId": "EG001", "numAffected": 0, "numAtRisk": 426}, {"groupId": "EG002", "numAffected": 1, "numAtRisk": 858}]}, {"term": "Cardiac failure", "organSystem": "Cardiac disorders", "sourceVocabulary": "MedDRA (20.0)", "assessmentType": "SYSTEMATIC_ASSESSMENT", "stats": [{"groupId": "EG000", "numAffected": 3, "numAtRisk": 432}, {"groupId": "EG001", "numAffected": 6, "numAtRisk": 426}, {"groupId": "EG002", "numAffected": 9, "numAtRisk": 858}]}, {"term": "Cardiac failure acute", "organSystem": "Cardiac disorders", "sourceVocabulary": "MedDRA (20.0)", "assessmentType": "SYSTEMATIC_ASSESSMENT", "stats": [{"groupId": "EG000", "numAffected": 0, "numAtRisk": 432}, {"groupId": "EG001", "numAffected": 2, "numAtRisk": 426}, {"groupId": "EG002", "numAffected": 2, "numAtRisk": 858}]}, {"term": "Cardiac failure congestive", "organSystem": "Cardiac disorders", "sourceVocabulary": "MedDRA (20.0)", "assessmentType": "SYSTEMATIC_ASSESSMENT", "stats": [{"groupId": "EG000", "numAffected": 0, "numAtRisk": 432}, {"groupId": "EG001", "numAffected": 1, "numAtRisk": 426}, {"groupId": "EG002", "numAffected": 1, "numAtRisk": 858}]}, {"term": "Cardio-respiratory arrest", "organSystem": "Cardiac disorders", "sourceVocabulary": "MedDRA (20.0)", "assessmentType": "SYSTEMATIC_ASSESSMENT", "stats": [{"groupId": "EG000", "numAffected": 1, "numAtRisk": 432}, {"groupId": "EG001", "numAffected": 2, "numAtRisk": 426}, {"groupId": "EG002", "numAffected": 3, "numAtRisk": 858}]}, {"term": "Cardiogenic shock", "organSystem": "Cardiac disorders", "sourceVocabulary": "MedDRA (20.0)", "assessmentType": "SYSTEMATIC_ASSESSMENT", "stats": [{"groupId": "EG000", "numAffected": 0, "numAtRisk": 432}, {"groupId": "EG001", "numAffected": 1, "numAtRisk": 426}, {"groupId": "EG002", "numAffected": 1, "numAtRisk": 858}]}, {"term": "Coronary artery disease", "organSystem": "Cardiac disorders", "sourceVocabulary": "MedDRA (20.0)", "assessmentType": "SYSTEMATIC_ASSESSMENT", "stats": [{"groupId": "EG000", "numAffected": 1, "numAtRisk": 432}, {"groupId": "EG001", "numAffected": 1, "numAtRisk": 426}, {"groupId": "EG002", "numAffected": 2, "numAtRisk": 858}]}, {"term": "Coronary artery stenosis", "organSystem": "Cardiac disorders", "sourceVocabulary": "MedDRA (20.0)", "assessmentType": "SYSTEMATIC_ASSESSMENT", "stats": [{"groupId": "EG000", "numAffected": 1, "numAtRisk": 432}, {"groupId": "EG001", "numAffected": 1, "numAtRisk": 426}, {"groupId": "EG002", "numAffected": 2, "numAtRisk": 858}]}, {"term": "Myocardial infarction", "organSystem": "Cardiac disorders", "sourceVocabulary": "MedDRA (20.0)", "assessmentType": "SYSTEMATIC_ASSESSMENT", "stats": [{"groupId": "EG000", "numAffected": 1, "numAtRisk": 432}, {"groupId": "EG001", "numAffected": 0, "numAtRisk": 426}, {"groupId": "EG002", "numAffected": 1, "numAtRisk": 858}]}, {"term": "Myocardial ischaemia", "organSystem": "Cardiac disorders", "sourceVocabulary": "MedDRA (20.0)", "assessmentType": "SYSTEMATIC_ASSESSMENT", "stats": [{"groupId": "EG000", "numAffected": 1, "numAtRisk": 432}, {"groupId": "EG001", "numAffected": 0, "numAtRisk": 426}, {"groupId": "EG002", "numAffected": 1, "numAtRisk": 858}]}, {"term": "Ventricular fibrillation", "organSystem": "Cardiac disorders", "sourceVocabulary": "MedDRA (20.0)", "assessmentType": "SYSTEMATIC_ASSESSMENT", "stats": [{"groupId": "EG000", "numAffected": 1, "numAtRisk": 432}, {"groupId": "EG001", "numAffected": 1, "numAtRisk": 426}, {"groupId": "EG002", "numAffected": 2, "numAtRisk": 858}]}, {"term": "Ventricular tachycardia", "organSystem": "Cardiac disorders", "sourceVocabulary": "MedDRA (20.0)", "assessmentType": "SYSTEMATIC_ASSESSMENT", "stats": [{"groupId": "EG000", "numAffected": 0, "numAtRisk": 432}, {"groupId": "EG001", "numAffected": 2, "numAtRisk": 426}, {"groupId": "EG002", "numAffected": 2, "numAtRisk": 858}]}, {"term": "Vitreous haemorrhage", "organSystem": "Eye disorders", "sourceVocabulary": "MedDRA (20.0)", "assessmentType": "SYSTEMATIC_ASSESSMENT", "stats": [{"groupId": "EG000", "numAffected": 0, "numAtRisk": 432}, {"groupId": "EG001", "numAffected": 1, "numAtRisk": 426}, {"groupId": "EG002", "numAffected": 1, "numAtRisk": 858}]}, {"term": "Gastric haemorrhage", "organSystem": "Gastrointestinal disorders", "sourceVocabulary": "MedDRA (20.0)", "assessmentType": "SYSTEMATIC_ASSESSMENT", "stats": [{"groupId": "EG000", "numAffected": 0, "numAtRisk": 432}, {"groupId": "EG001", "numAffected": 1, "numAtRisk": 426}, {"groupId": "EG002", "numAffected": 1, "numAtRisk": 858}]}, {"term": "Death", "organSystem": "General disorders", "sourceVocabulary": "MedDRA (20.0)", "assessmentType": "SYSTEMATIC_ASSESSMENT", "stats": [{"groupId": "EG000", "numAffected": 0, "numAtRisk": 432}, {"groupId": "EG001", "numAffected": 1, "numAtRisk": 426}, {"groupId": "EG002", "numAffected": 1, "numAtRisk": 858}]}, {"term": "Infusion site thrombosis", "organSystem": "General disorders", "sourceVocabulary": "MedDRA (20.0)", "assessmentType": "SYSTEMATIC_ASSESSMENT", "stats": [{"groupId": "EG000", "numAffected": 0, "numAtRisk": 432}, {"groupId": "EG001", "numAffected": 1, "numAtRisk": 426}, {"groupId": "EG002", "numAffected": 1, "numAtRisk": 858}]}, {"term": "Multiple organ dysfunction syndrome", "organSystem": "General disorders", "sourceVocabulary": "MedDRA (20.0)", "assessmentType": "SYSTEMATIC_ASSESSMENT", "stats": [{"groupId": "EG000", "numAffected": 0, "numAtRisk": 432}, {"groupId": "EG001", "numAffected": 1, "numAtRisk": 426}, {"groupId": "EG002", "numAffected": 1, "numAtRisk": 858}]}, {"term": "Non-cardiac chest pain", "organSystem": "General disorders", "sourceVocabulary": "MedDRA (20.0)", "assessmentType": "SYSTEMATIC_ASSESSMENT", "stats": [{"groupId": "EG000", "numAffected": 1, "numAtRisk": 432}, {"groupId": "EG001", "numAffected": 1, "numAtRisk": 426}, {"groupId": "EG002", "numAffected": 2, "numAtRisk": 858}]}, {"term": "Sudden cardiac death", "organSystem": "General disorders", "sourceVocabulary": "MedDRA (20.0)", "assessmentType": "SYSTEMATIC_ASSESSMENT", "stats": [{"groupId": "EG000", "numAffected": 1, "numAtRisk": 432}, {"groupId": "EG001", "numAffected": 0, "numAtRisk": 426}, {"groupId": "EG002", "numAffected": 1, "numAtRisk": 858}]}, {"term": "Acinetobacter infection", "organSystem": "Infections and infestations", "sourceVocabulary": "MedDRA (20.0)", "assessmentType": "SYSTEMATIC_ASSESSMENT", "stats": [{"groupId": "EG000", "numAffected": 0, "numAtRisk": 432}, {"groupId": "EG001", "numAffected": 1, "numAtRisk": 426}, {"groupId": "EG002", "numAffected": 1, "numAtRisk": 858}]}, {"term": "Bronchitis", "organSystem": "Infections and infestations", "sourceVocabulary": "MedDRA (20.0)", "assessmentType": "SYSTEMATIC_ASSESSMENT", "stats": [{"groupId": "EG000", "numAffected": 2, "numAtRisk": 432}, {"groupId": "EG001", "numAffected": 0, "numAtRisk": 426}, {"groupId": "EG002", "numAffected": 2, "numAtRisk": 858}]}, {"term": "Cellulitis", "organSystem": "Infections and infestations", "sourceVocabulary": "MedDRA (20.0)", "assessmentType": "SYSTEMATIC_ASSESSMENT", "stats": [{"groupId": "EG000", "numAffected": 0, "numAtRisk": 432}, {"groupId": "EG001", "numAffected": 1, "numAtRisk": 426}, {"groupId": "EG002", "numAffected": 1, "numAtRisk": 858}]}, {"term": "Influenza", "organSystem": "Infections and infestations", "sourceVocabulary": "MedDRA (20.0)", "assessmentType": "SYSTEMATIC_ASSESSMENT", "stats": [{"groupId": "EG000", "numAffected": 0, "numAtRisk": 432}, {"groupId": "EG001", "numAffected": 1, "numAtRisk": 426}, {"groupId": "EG002", "numAffected": 1, "numAtRisk": 858}]}, {"term": "Medical device site infection", "organSystem": "Infections and infestations", "sourceVocabulary": "MedDRA (20.0)", "assessmentType": "SYSTEMATIC_ASSESSMENT", "stats": [{"groupId": "EG000", "numAffected": 1, "numAtRisk": 432}, {"groupId": "EG001", "numAffected": 0, "numAtRisk": 426}, {"groupId": "EG002", "numAffected": 1, "numAtRisk": 858}]}, {"term": "Pneumonia", "organSystem": "Infections and infestations", "sourceVocabulary": "MedDRA (20.0)", "assessmentType": "SYSTEMATIC_ASSESSMENT", "stats": [{"groupId": "EG000", "numAffected": 6, "numAtRisk": 432}, {"groupId": "EG001", "numAffected": 7, "numAtRisk": 426}, {"groupId": "EG002", "numAffected": 13, "numAtRisk": 858}]}, {"term": "Sepsis", "organSystem": "Infections and infestations", "sourceVocabulary": "MedDRA (20.0)", "assessmentType": "SYSTEMATIC_ASSESSMENT", "stats": [{"groupId": "EG000", "numAffected": 0, "numAtRisk": 432}, {"groupId": "EG001", "numAffected": 1, "numAtRisk": 426}, {"groupId": "EG002", "numAffected": 1, "numAtRisk": 858}]}, {"term": "Septic shock", "organSystem": "Infections and infestations", "sourceVocabulary": "MedDRA (20.0)", "assessmentType": "SYSTEMATIC_ASSESSMENT", "stats": [{"groupId": "EG000", "numAffected": 0, "numAtRisk": 432}, {"groupId": "EG001", "numAffected": 1, "numAtRisk": 426}, {"groupId": "EG002", "numAffected": 1, "numAtRisk": 858}]}, {"term": "Serratia sepsis", "organSystem": "Infections and infestations", "sourceVocabulary": "MedDRA (20.0)", "assessmentType": "SYSTEMATIC_ASSESSMENT", "stats": [{"groupId": "EG000", "numAffected": 0, "numAtRisk": 432}, {"groupId": "EG001", "numAffected": 1, "numAtRisk": 426}, {"groupId": "EG002", "numAffected": 1, "numAtRisk": 858}]}, {"term": "Staphylococcal sepsis", "organSystem": "Infections and infestations", "sourceVocabulary": "MedDRA (20.0)", "assessmentType": "SYSTEMATIC_ASSESSMENT", "stats": [{"groupId": "EG000", "numAffected": 0, "numAtRisk": 432}, {"groupId": "EG001", "numAffected": 1, "numAtRisk": 426}, {"groupId": "EG002", "numAffected": 1, "numAtRisk": 858}]}, {"term": "Urinary tract infection", "organSystem": "Infections and infestations", "sourceVocabulary": "MedDRA (20.0)", "assessmentType": "SYSTEMATIC_ASSESSMENT", "stats": [{"groupId": "EG000", "numAffected": 0, "numAtRisk": 432}, {"groupId": "EG001", "numAffected": 2, "numAtRisk": 426}, {"groupId": "EG002", "numAffected": 2, "numAtRisk": 858}]}, {"term": "Femur fracture", "organSystem": "Injury, poisoning and procedural complications", "sourceVocabulary": "MedDRA (20.0)", "assessmentType": "SYSTEMATIC_ASSESSMENT", "stats": [{"groupId": "EG000", "numAffected": 1, "numAtRisk": 432}, {"groupId": "EG001", "numAffected": 0, "numAtRisk": 426}, {"groupId": "EG002", "numAffected": 1, "numAtRisk": 858}]}, {"term": "Subdural haemorrhage", "organSystem": "Injury, poisoning and procedural complications", "sourceVocabulary": "MedDRA (20.0)", "assessmentType": "SYSTEMATIC_ASSESSMENT", "stats": [{"groupId": "EG000", "numAffected": 1, "numAtRisk": 432}, {"groupId": "EG001", "numAffected": 0, "numAtRisk": 426}, {"groupId": "EG002", "numAffected": 1, "numAtRisk": 858}]}, {"term": "Blood pressure decreased", "organSystem": "Investigations", "sourceVocabulary": "MedDRA (20.0)", "assessmentType": "SYSTEMATIC_ASSESSMENT", "stats": [{"groupId": "EG000", "numAffected": 0, "numAtRisk": 432}, {"groupId": "EG001", "numAffected": 1, "numAtRisk": 426}, {"groupId": "EG002", "numAffected": 1, "numAtRisk": 858}]}, {"term": "Hepatic enzyme increased", "organSystem": "Investigations", "sourceVocabulary": "MedDRA (20.0)", "assessmentType": "SYSTEMATIC_ASSESSMENT", "stats": [{"groupId": "EG000", "numAffected": 0, "numAtRisk": 432}, {"groupId": "EG001", "numAffected": 1, "numAtRisk": 426}, {"groupId": "EG002", "numAffected": 1, "numAtRisk": 858}]}, {"term": "Gout", "organSystem": "Metabolism and nutrition disorders", "sourceVocabulary": "MedDRA (20.0)", "assessmentType": "SYSTEMATIC_ASSESSMENT", "stats": [{"groupId": "EG000", "numAffected": 1, "numAtRisk": 432}, {"groupId": "EG001", "numAffected": 0, "numAtRisk": 426}, {"groupId": "EG002", "numAffected": 1, "numAtRisk": 858}]}, {"term": "Hyperkalaemia", "organSystem": "Metabolism and nutrition disorders", "sourceVocabulary": "MedDRA (20.0)", "assessmentType": "SYSTEMATIC_ASSESSMENT", "stats": [{"groupId": "EG000", "numAffected": 1, "numAtRisk": 432}, {"groupId": "EG001", "numAffected": 0, "numAtRisk": 426}, {"groupId": "EG002", "numAffected": 1, "numAtRisk": 858}]}, {"term": "Hypoglycaemia", "organSystem": "Metabolism and nutrition disorders", "sourceVocabulary": "MedDRA (20.0)", "assessmentType": "SYSTEMATIC_ASSESSMENT", "stats": [{"groupId": "EG000", "numAffected": 0, "numAtRisk": 432}, {"groupId": "EG001", "numAffected": 2, "numAtRisk": 426}, {"groupId": "EG002", "numAffected": 2, "numAtRisk": 858}]}, {"term": "Hyponatraemia", "organSystem": "Metabolism and nutrition disorders", "sourceVocabulary": "MedDRA (20.0)", "assessmentType": "SYSTEMATIC_ASSESSMENT", "stats": [{"groupId": "EG000", "numAffected": 1, "numAtRisk": 432}, {"groupId": "EG001", "numAffected": 2, "numAtRisk": 426}, {"groupId": "EG002", "numAffected": 3, "numAtRisk": 858}]}, {"term": "Back pain", "organSystem": "Musculoskeletal and connective tissue disorders", "sourceVocabulary": "MedDRA (20.0)", "assessmentType": "SYSTEMATIC_ASSESSMENT", "stats": [{"groupId": "EG000", "numAffected": 0, "numAtRisk": 432}, {"groupId": "EG001", "numAffected": 1, "numAtRisk": 426}, {"groupId": "EG002", "numAffected": 1, "numAtRisk": 858}]}, {"term": "Colon cancer", "organSystem": "Neoplasms benign, malignant and unspecified (incl cysts and polyps)", "sourceVocabulary": "MedDRA (20.0)", "assessmentType": "SYSTEMATIC_ASSESSMENT", "stats": [{"groupId": "EG000", "numAffected": 1, "numAtRisk": 432}, {"groupId": "EG001", "numAffected": 0, "numAtRisk": 426}, {"groupId": "EG002", "numAffected": 1, "numAtRisk": 858}]}, {"term": "Rectal cancer", "organSystem": "Neoplasms benign, malignant and unspecified (incl cysts and polyps)", "sourceVocabulary": "MedDRA (20.0)", "assessmentType": "SYSTEMATIC_ASSESSMENT", "stats": [{"groupId": "EG000", "numAffected": 0, "numAtRisk": 432}, {"groupId": "EG001", "numAffected": 1, "numAtRisk": 426}, {"groupId": "EG002", "numAffected": 1, "numAtRisk": 858}]}, {"term": "Cerebral infarction", "organSystem": "Nervous system disorders", "sourceVocabulary": "MedDRA (20.0)", "assessmentType": "SYSTEMATIC_ASSESSMENT", "stats": [{"groupId": "EG000", "numAffected": 2, "numAtRisk": 432}, {"groupId": "EG001", "numAffected": 1, "numAtRisk": 426}, {"groupId": "EG002", "numAffected": 3, "numAtRisk": 858}]}, {"term": "Embolic cerebral infarction", "organSystem": "Nervous system disorders", "sourceVocabulary": "MedDRA (20.0)", "assessmentType": "SYSTEMATIC_ASSESSMENT", "stats": [{"groupId": "EG000", "numAffected": 0, "numAtRisk": 432}, {"groupId": "EG001", "numAffected": 1, "numAtRisk": 426}, {"groupId": "EG002", "numAffected": 1, "numAtRisk": 858}]}, {"term": "Encephalopathy", "organSystem": "Nervous system disorders", "sourceVocabulary": "MedDRA (20.0)", "assessmentType": "SYSTEMATIC_ASSESSMENT", "stats": [{"groupId": "EG000", "numAffected": 0, "numAtRisk": 432}, {"groupId": "EG001", "numAffected": 1, "numAtRisk": 426}, {"groupId": "EG002", "numAffected": 1, "numAtRisk": 858}]}, {"term": "Ischaemic stroke", "organSystem": "Nervous system disorders", "sourceVocabulary": "MedDRA (20.0)", "assessmentType": "SYSTEMATIC_ASSESSMENT", "stats": [{"groupId": "EG000", "numAffected": 0, "numAtRisk": 432}, {"groupId": "EG001", "numAffected": 2, "numAtRisk": 426}, {"groupId": "EG002", "numAffected": 2, "numAtRisk": 858}]}, {"term": "Partial seizures", "organSystem": "Nervous system disorders", "sourceVocabulary": "MedDRA (20.0)", "assessmentType": "SYSTEMATIC_ASSESSMENT", "stats": [{"groupId": "EG000", "numAffected": 1, "numAtRisk": 432}, {"groupId": "EG001", "numAffected": 0, "numAtRisk": 426}, {"groupId": "EG002", "numAffected": 1, "numAtRisk": 858}]}, {"term": "Presyncope", "organSystem": "Nervous system disorders", "sourceVocabulary": "MedDRA (20.0)", "assessmentType": "SYSTEMATIC_ASSESSMENT", "stats": [{"groupId": "EG000", "numAffected": 1, "numAtRisk": 432}, {"groupId": "EG001", "numAffected": 0, "numAtRisk": 426}, {"groupId": "EG002", "numAffected": 1, "numAtRisk": 858}]}, {"term": "Acute kidney injury", "organSystem": "Renal and urinary disorders", "sourceVocabulary": "MedDRA (20.0)", "assessmentType": "SYSTEMATIC_ASSESSMENT", "stats": [{"groupId": "EG000", "numAffected": 3, "numAtRisk": 432}, {"groupId": "EG001", "numAffected": 3, "numAtRisk": 426}, {"groupId": "EG002", "numAffected": 6, "numAtRisk": 858}]}, {"term": "Azotaemia", "organSystem": "Renal and urinary disorders", "sourceVocabulary": "MedDRA (20.0)", "assessmentType": "SYSTEMATIC_ASSESSMENT", "stats": [{"groupId": "EG000", "numAffected": 1, "numAtRisk": 432}, {"groupId": "EG001", "numAffected": 0, "numAtRisk": 426}, {"groupId": "EG002", "numAffected": 1, "numAtRisk": 858}]}, {"term": "Polyuria", "organSystem": "Renal and urinary disorders", "sourceVocabulary": "MedDRA (20.0)", "assessmentType": "SYSTEMATIC_ASSESSMENT", "stats": [{"groupId": "EG000", "numAffected": 0, "numAtRisk": 432}, {"groupId": "EG001", "numAffected": 1, "numAtRisk": 426}, {"groupId": "EG002", "numAffected": 1, "numAtRisk": 858}]}, {"term": "Renal impairment", "organSystem": "Renal and urinary disorders", "sourceVocabulary": "MedDRA (20.0)", "assessmentType": "SYSTEMATIC_ASSESSMENT", "stats": [{"groupId": "EG000", "numAffected": 0, "numAtRisk": 432}, {"groupId": "EG001", "numAffected": 3, "numAtRisk": 426}, {"groupId": "EG002", "numAffected": 3, "numAtRisk": 858}]}, {"term": "Urinary retention", "organSystem": "Renal and urinary disorders", "sourceVocabulary": "MedDRA (20.0)", "assessmentType": "SYSTEMATIC_ASSESSMENT", "stats": [{"groupId": "EG000", "numAffected": 0, "numAtRisk": 432}, {"groupId": "EG001", "numAffected": 1, "numAtRisk": 426}, {"groupId": "EG002", "numAffected": 1, "numAtRisk": 858}]}, {"term": "Acute respiratory failure", "organSystem": "Respiratory, thoracic and mediastinal disorders", "sourceVocabulary": "MedDRA (20.0)", "assessmentType": "SYSTEMATIC_ASSESSMENT", "stats": [{"groupId": "EG000", "numAffected": 0, "numAtRisk": 432}, {"groupId": "EG001", "numAffected": 2, "numAtRisk": 426}, {"groupId": "EG002", "numAffected": 2, "numAtRisk": 858}]}, {"term": "Asthma", "organSystem": "Respiratory, thoracic and mediastinal disorders", "sourceVocabulary": "MedDRA (20.0)", "assessmentType": "SYSTEMATIC_ASSESSMENT", "stats": [{"groupId": "EG000", "numAffected": 0, "numAtRisk": 432}, {"groupId": "EG001", "numAffected": 1, "numAtRisk": 426}, {"groupId": "EG002", "numAffected": 1, "numAtRisk": 858}]}, {"term": "Chronic obstructive pulmonary disease", "organSystem": "Respiratory, thoracic and mediastinal disorders", "sourceVocabulary": "MedDRA (20.0)", "assessmentType": "SYSTEMATIC_ASSESSMENT", "stats": [{"groupId": "EG000", "numAffected": 1, "numAtRisk": 432}, {"groupId": "EG001", "numAffected": 0, "numAtRisk": 426}, {"groupId": "EG002", "numAffected": 1, "numAtRisk": 858}]}, {"term": "Dyspnoea", "organSystem": "Respiratory, thoracic and mediastinal disorders", "sourceVocabulary": "MedDRA (20.0)", "assessmentType": "SYSTEMATIC_ASSESSMENT", "stats": [{"groupId": "EG000", "numAffected": 1, "numAtRisk": 432}, {"groupId": "EG001", "numAffected": 0, "numAtRisk": 426}, {"groupId": "EG002", "numAffected": 1, "numAtRisk": 858}]}, {"term": "Hypercapnia", "organSystem": "Respiratory, thoracic and mediastinal disorders", "sourceVocabulary": "MedDRA (20.0)", "assessmentType": "SYSTEMATIC_ASSESSMENT", "stats": [{"groupId": "EG000", "numAffected": 2, "numAtRisk": 432}, {"groupId": "EG001", "numAffected": 1, "numAtRisk": 426}, {"groupId": "EG002", "numAffected": 3, "numAtRisk": 858}]}, {"term": "Pneumonia aspiration", "organSystem": "Respiratory, thoracic and mediastinal disorders", "sourceVocabulary": "MedDRA (20.0)", "assessmentType": "SYSTEMATIC_ASSESSMENT", "stats": [{"groupId": "EG000", "numAffected": 2, "numAtRisk": 432}, {"groupId": "EG001", "numAffected": 1, "numAtRisk": 426}, {"groupId": "EG002", "numAffected": 3, "numAtRisk": 858}]}, {"term": "Sleep apnoea syndrome", "organSystem": "Respiratory, thoracic and mediastinal disorders", "sourceVocabulary": "MedDRA (20.0)", "assessmentType": "SYSTEMATIC_ASSESSMENT", "stats": [{"groupId": "EG000", "numAffected": 1, "numAtRisk": 432}, {"groupId": "EG001", "numAffected": 0, "numAtRisk": 426}, {"groupId": "EG002", "numAffected": 1, "numAtRisk": 858}]}, {"term": "Aortic dissection", "organSystem": "Vascular disorders", "sourceVocabulary": "MedDRA (20.0)", "assessmentType": "SYSTEMATIC_ASSESSMENT", "stats": [{"groupId": "EG000", "numAffected": 0, "numAtRisk": 432}, {"groupId": "EG001", "numAffected": 1, "numAtRisk": 426}, {"groupId": "EG002", "numAffected": 1, "numAtRisk": 858}]}, {"term": "Hypotension", "organSystem": "Vascular disorders", "sourceVocabulary": "MedDRA (20.0)", "assessmentType": "SYSTEMATIC_ASSESSMENT", "stats": [{"groupId": "EG000", "numAffected": 1, "numAtRisk": 432}, {"groupId": "EG001", "numAffected": 2, "numAtRisk": 426}, {"groupId": "EG002", "numAffected": 3, "numAtRisk": 858}]}, {"term": "Hypovolaemic shock", "organSystem": "Vascular disorders", "sourceVocabulary": "MedDRA (20.0)", "assessmentType": "SYSTEMATIC_ASSESSMENT", "stats": [{"groupId": "EG000", "numAffected": 1, "numAtRisk": 432}, {"groupId": "EG001", "numAffected": 0, "numAtRisk": 426}, {"groupId": "EG002", "numAffected": 1, "numAtRisk": 858}]}, {"term": "Peripheral ischaemia", "organSystem": "Vascular disorders", "sourceVocabulary": "MedDRA (20.0)", "assessmentType": "SYSTEMATIC_ASSESSMENT", "stats": [{"groupId": "EG000", "numAffected": 0, "numAtRisk": 432}, {"groupId": "EG001", "numAffected": 1, "numAtRisk": 426}, {"groupId": "EG002", "numAffected": 1, "numAtRisk": 858}]}], "otherEvents": [{"term": "Cardiac failure", "organSystem": "Cardiac disorders", "sourceVocabulary": "MedDRA (20.0)", "assessmentType": "SYSTEMATIC_ASSESSMENT", "stats": [{"groupId": "EG000", "numAffected": 14, "numAtRisk": 432}, {"groupId": "EG001", "numAffected": 22, "numAtRisk": 426}, {"groupId": "EG002", "numAffected": 36, "numAtRisk": 858}]}, {"term": "Constipation", "organSystem": "Gastrointestinal disorders", "sourceVocabulary": "MedDRA (20.0)", "assessmentType": "SYSTEMATIC_ASSESSMENT", "stats": [{"groupId": "EG000", "numAffected": 23, "numAtRisk": 432}, {"groupId": "EG001", "numAffected": 30, "numAtRisk": 426}, {"groupId": "EG002", "numAffected": 53, "numAtRisk": 858}]}, {"term": "Hypokalaemia", "organSystem": "Metabolism and nutrition disorders", "sourceVocabulary": "MedDRA (20.0)", "assessmentType": "SYSTEMATIC_ASSESSMENT", "stats": [{"groupId": "EG000", "numAffected": 35, "numAtRisk": 432}, {"groupId": "EG001", "numAffected": 39, "numAtRisk": 426}, {"groupId": "EG002", "numAffected": 74, "numAtRisk": 858}]}]}, "moreInfoModule": {"certainAgreement": {"piSponsorEmployee": false, "restrictionType": "OTHER", "restrictiveAgreement": true, "otherDetails": "The terms and conditions of Novartis' agreements with its investigators may vary. However Novartis does not prohibit any inverstigator from publishing. Any publications from a single-site are postponed until the publication of the pooled data (ie, data from all sites) in the clinical trial."}, "pointOfContact": {"title": "Study Director", "organization": "Novartis Pharma AG", "email": "novartis.email@novartis.com", "phone": "+41613241111"}}}, "documentSection": {"largeDocumentModule": {"largeDocs": [{"typeAbbrev": "Prot", "hasProtocol": true, "hasSap": false, "hasIcf": false, "label": "Study Protocol", "date": "2016-05-10", "uploadDate": "2019-03-05T10:19", "filename": "Prot_000.pdf", "size": 904916}, {"typeAbbrev": "SAP", "hasProtocol": false, "hasSap": true, "hasIcf": false, "label": "Statistical Analysis Plan", "date": "2017-08-23", "uploadDate": "2019-03-05T10:19", "filename": "SAP_001.pdf", "size": 463716}]}}, "derivedSection": {"miscInfoModule": {"versionHolder": "2024-06-24", "removedCountries": ["Hong Kong"]}, "conditionBrowseModule": {"meshes": [{"id": "D000006333", "term": "Heart Failure"}], "ancestors": [{"id": "D000006331", "term": "Heart Diseases"}, {"id": "D000002318", "term": "Cardiovascular Diseases"}], "browseLeaves": [{"id": "M9421", "name": "Heart Failure", "asFound": "Heart Failure", "relevance": "HIGH"}, {"id": "M9419", "name": "Heart Diseases", "relevance": "LOW"}, {"id": "T170", "name": "Acute Graft Versus Host Disease", "relevance": "LOW"}], "browseBranches": [{"abbrev": "BC14", "name": "Heart and Blood Diseases"}, {"abbrev": "All", "name": "All Conditions"}, {"abbrev": "Rare", "name": "Rare Diseases"}]}, "interventionBrowseModule": {"browseLeaves": [{"id": "M7411", "name": "Diuretics", "relevance": "LOW"}, {"id": "M28916", "name": "Angiotensin Receptor Antagonists", "relevance": "LOW"}, {"id": "M3671", "name": "Adrenergic beta-Antagonists", "relevance": "LOW"}, {"id": "M4134", "name": "Angiotensin-Converting Enzyme Inhibitors", "relevance": "LOW"}, {"id": "M3797", "name": "Mineralocorticoid Receptor Antagonists", "relevance": "LOW"}], "browseBranches": [{"abbrev": "All", "name": "All Drugs and Chemicals"}]}}, "hasResults": true}