{"protocolSection": {"identificationModule": {"nctId": "NCT01910389", "orgStudyIdInfo": {"id": "U01HL105463", "type": "NIH", "link": "https://reporter.nih.gov/quickSearch/U01HL105463"}, "organization": {"fullName": "Carelon Research", "class": "OTHER"}, "briefTitle": "Phosphodiesterase Type 5 Inhibition With Tadalafil Changes Outcomes in Heart Failure", "officialTitle": "Phosphodiesterase Type 5 Inhibition With Tadalafil Changes Outcomes in Heart Failure", "acronym": "PITCH-HF"}, "statusModule": {"statusVerifiedDate": "2014-01", "overallStatus": "TERMINATED", "whyStopped": "terminated by funding agency", "expandedAccessInfo": {"hasExpandedAccess": false}, "startDateStruct": {"date": "2013-11"}, "primaryCompletionDateStruct": {"date": "2014-02", "type": "ACTUAL"}, "completionDateStruct": {"date": "2014-02", "type": "ACTUAL"}, "studyFirstSubmitDate": "2013-07-25", "studyFirstSubmitQcDate": "2013-07-25", "studyFirstPostDateStruct": {"date": "2013-07-29", "type": "ESTIMATED"}, "resultsFirstSubmitDate": "2015-04-16", "resultsFirstSubmitQcDate": "2015-04-16", "resultsFirstPostDateStruct": {"date": "2015-05-04", "type": "ESTIMATED"}, "lastUpdateSubmitDate": "2015-04-16", "lastUpdatePostDateStruct": {"date": "2015-05-04", "type": "ESTIMATED"}}, "sponsorCollaboratorsModule": {"responsibleParty": {"type": "SPONSOR"}, "leadSponsor": {"name": "Carelon Research", "class": "OTHER"}, "collaborators": [{"name": "National Heart, Lung, and Blood Institute (NHLBI)", "class": "NIH"}, {"name": "Massachusetts General Hospital", "class": "OTHER"}]}, "oversightModule": {"oversightHasDmc": true}, "descriptionModule": {"briefSummary": "This study is a multi-center, prospective, randomized, double blind, placebo-controlled clinical trial. Subjects in the study will be adults with New York Heart Association (NYHA) Class II-IV heart failure (HF) due to left ventricular systolic dysfunction (LVSD), left ventricular ejection fraction (LVEF) \\<0.40, and secondary pulmonary hypertension (PH). The purpose of the study is to evaluate the safety, effectiveness, and effects of tadalafil compared to placebo on the subjects' functional capacity / quality of life."}, "conditionsModule": {"conditions": ["Heart Failure", "Pulmonary Hypertension"], "keywords": ["Heart failure", "Pulmonary hypertension", "tadalafil", "Phosphodiesterase Type 5 Inhibition"]}, "designModule": {"studyType": "INTERVENTIONAL", "phases": ["PHASE3"], "designInfo": {"allocation": "RANDOMIZED", "interventionModel": "PARALLEL", "primaryPurpose": "TREATMENT", "maskingInfo": {"masking": "QUADRUPLE", "whoMasked": ["PARTICIPANT", "CARE_PROVIDER", "INVESTIGATOR", "OUTCOMES_ASSESSOR"]}}, "enrollmentInfo": {"count": 23, "type": "ACTUAL"}}, "armsInterventionsModule": {"armGroups": [{"label": "Tadalafil", "type": "ACTIVE_COMPARATOR", "description": "Tadalafil is supplied in 20 mg tablets. Subjects will take 20 mg (one tablet) once per day and will be titrated to 40 mg (two tablets once per day) after one week. Subjects are on study drug for the duration of the trial.", "interventionNames": ["Drug: Tadalafil"]}, {"label": "Placebo", "type": "PLACEBO_COMPARATOR", "description": "Placebo of tadalafil. Subjects will take one tablet once per day and will be titrated to two tablets once per day after one week. Subjects are on study drug for the duration of the trial.", "interventionNames": ["Drug: Placebo for tadalafil"]}], "interventions": [{"type": "DRUG", "name": "Tadalafil", "armGroupLabels": ["Tadalafil"], "otherNames": ["Adcirca"]}, {"type": "DRUG", "name": "Placebo for tadalafil", "armGroupLabels": ["Placebo"]}]}, "outcomesModule": {"primaryOutcomes": [{"measure": "Composite Outcome of Cardiovascular (CV) Mortality or Heart Failure (HF) Hospitalization", "timeFrame": "Randomization through each subject's last semi-annual visit, up to a maximum of 3 years per subject"}], "secondaryOutcomes": [{"measure": "Cardiovascular Mortality", "timeFrame": "Randomization through each subject's last semi-annual visit, up to a maximum of 3 years per subject"}, {"measure": "Heart Failure Hospitalization", "timeFrame": "Randomization through each subject's last semi-annual visit, up to a maximum of 3 years per subject"}, {"measure": "All-cause Mortality", "timeFrame": "Randomization through each subject's last semi-annual visit, up to a maximum of 3 years per subject"}, {"measure": "Composite Outcome of All-cause Mortality or CV Hospitalization (Myocardial Infarction, Acute Coronary Syndrome, Stroke, Arrhythmia, or Heart Failure)", "timeFrame": "Randomization through each subject's last semi-annual visit, up to a maximum of 3 years per subject"}, {"measure": "Frequency of CV Hospitalizations", "timeFrame": "Randomization through each subject's last semi-annual visit, up to a maximum of 3 years per subject"}, {"measure": "Frequency of HF Hospitalizations", "timeFrame": "Randomization through each subject's last semi-annual visit, up to a maximum of 3 years per subject"}, {"measure": "Change in 6 Minute Walk Distance From Baseline to 3 Months", "timeFrame": "Randomization to 3 months"}, {"measure": "Change in MLHFQ Score From Baseline to 3 Months", "timeFrame": "Randomization to 3 months"}, {"measure": "Change in 6 Minute Walk Distance From Baseline to 18 Months", "timeFrame": "Randomization to 18 months"}, {"measure": "Trend in 6 Minute Walk Distance From Baseline Through 18 Months", "timeFrame": "Randomization to 18 months"}, {"measure": "Change in Minnesota Living With Heart Failure Questionnaire (MLHFQ) Score From Baseline to 18 Months", "timeFrame": "Randomization to 18 months"}, {"measure": "Trend in Minnesota Living With Heart Failure Questionnaire (MLHFQ) Score From Baseline Through 18 Months", "timeFrame": "Randomization to 18 months"}]}, "eligibilityModule": {"eligibilityCriteria": "Inclusion Criteria:\n\n* Male or female age 21 years or older.\n* NYHA Class II-IV HF with LVSD (most recent LVEF \\< 0.40).\n* At high risk of future clinical instability, indicated by EITHER:\n\na hospitalization for the primary reason of decompensated HF within the 12 months prior to screening; OR a plasma B-type Natriuretic Peptide (BNP) level \u2265 300 pg/ml or N-terminal prohormone of brain natriuretic peptide (NT-proBNP) \u22651800pg/ml measured during a period of clinical stability in the 3 months prior to screening.\n\n* Documented secondary PH within the last 6 months\n* Medication and device treatment according to current American Heart Association/American College of Cardiology (AHA/ACC) guidelines.\n* Stable medical therapy for 30 days prior to randomization\n* African-American patients intolerant of or otherwise unable or unwilling to utilize isosorbide dinitrate/hydralazine therapy will be included.\n* Willingness to comply with protocol, attend follow-up appointments, complete all study assessments and provide written informed consent.\n\nExclusion Criteria:\n\n* Concurrent or anticipated nitrate use for any reason, or nitrate use within the 14 days prior to screening through the day of randomization.\n* Known allergy, hypersensitivity (anaphylaxis), or adverse reaction to tadalafil or other Phosphodiesterase Type 5 (PDE5) inhibitor\n* Erectile dysfunction treated with a PDE5 inhibitor.\n* Severe renal dysfunction defined as an estimated glomerular filtration rate (GFR) \\< 30 ml/min/1.73 m\\^2 or requiring chronic dialysis\n* Current use of alpha antagonists (except carvedilol or tamsulosin) or use of cytochrome P450 3A4 inhibitors (ketoconazole, itraconazole, erythromycin, or cimetidine). Patients who have used a protease inhibitor that is a P450 3A4 inhibitor for longer than one week can be enrolled.\n* Pulmonary arterial hypertension (World Health Organization (WHO) Group I, III-V) for which PDE5 inhibitor therapy may be indicated\n* Severe pulmonary disease requiring home oxygen therapy\n* Comorbidities including clinically significant valvular stenosis (aortic valve area \\< 0.8 cm\\^2 or a mitral valve area \\<1.0 cm\\^2), uncontrolled hypertension (systolic blood pressure \u2265180 mmHg or diastolic blood pressure \u2265100 mmHg) or hypotension (systolic blood pressure \\<85 mmHg)\n* Chronic intravenous inotrope therapy\n* Non-arteritic anterior ischemic optic neuropathy (NAION)\n* ST elevation MI (STEMI) within 90 days prior to screening\n* Coronary Artery Bypass Grafting (CABG) or mitral valve surgery, initiation of cardiac resynchronization (CRT) or initiation of \u03b2-blocker therapy within the 6 months prior to screening\n* Infiltrative or inflammatory myocardial disease (e.g. amyloid, sarcoid)\n* Heart transplant recipient\n* United Network Organ Sharing (UNOS) status 1A or 1B\n* Mechanical circulatory support (MCS) use or planned MCS use at time of consent\n* Active malignancy (except non-melanoma skin cancer) requiring therapy other than observation.\n* Severe non-cardiac illness resulting in life expectancy judged less than three years\n* Known chronic hepatic disease defined as aspartate aminotransferase (AST) and alanine transaminase (ALT) levels \\> 3.0 times the upper limit of normal\n* Inability to walk even a few steps due to non-cardiac (e.g. orthopedic) reasons\n* Participation in any clinical trial within the last 30 days (with exception of observational study)\n* Previous randomization in PITCH-HF", "healthyVolunteers": false, "sex": "ALL", "minimumAge": "21 Years", "stdAges": ["ADULT", "OLDER_ADULT"]}, "contactsLocationsModule": {"overallOfficials": [{"name": "Marc J. Semigran, MD", "affiliation": "Massachusetts General Hospital", "role": "PRINCIPAL_INVESTIGATOR"}, {"name": "Susan F Assmann, PhD", "affiliation": "New England Research Institutes, Inc.", "role": "PRINCIPAL_INVESTIGATOR"}, {"name": "Flora S Siami, MPH", "affiliation": "New England Research Institutes, Inc.", "role": "PRINCIPAL_INVESTIGATOR"}], "locations": [{"facility": "Heart Center Inc - Research", "city": "Huntsville", "state": "Alabama", "country": "United States", "geoPoint": {"lat": 34.7304, "lon": -86.58594}}, {"facility": "Baptist Health Transplant Institute", "city": "Little Rock", "state": "Arkansas", "country": "United States", "geoPoint": {"lat": 34.74648, "lon": -92.28959}}, {"facility": "Allianz Medical and Research Center", "city": "Fountain Valley", "state": "California", "country": "United States", "geoPoint": {"lat": 33.70918, "lon": -117.95367}}, {"facility": "Christiana Care Health System", "city": "Newark", "state": "Delaware", "country": "United States", "geoPoint": {"lat": 39.68372, "lon": -75.74966}}, {"facility": "Broward Health", "city": "Ft. Lauderdale", "state": "Florida", "country": "United States", "geoPoint": {"lat": 26.12231, "lon": -80.14338}}, {"facility": "Miller School of Medicine University of Miami", "city": "Miami", "state": "Florida", "country": "United States", "geoPoint": {"lat": 25.77427, "lon": -80.19366}}, {"facility": "Orlando Health", "city": "Orlando", "state": "Florida", "country": "United States", "geoPoint": {"lat": 28.53834, "lon": -81.37924}}, {"facility": "Charlotte Heart Group Research Center", "city": "Port Charlotte", "state": "Florida", "country": "United States", "geoPoint": {"lat": 26.97617, "lon": -82.09064}}, {"facility": "Brevard Cardiovascular Research Associates", "city": "Rockledge", "state": "Florida", "country": "United States", "geoPoint": {"lat": 28.35084, "lon": -80.72533}}, {"facility": "University Cardiology Associates LLC", "city": "Augusta", "state": "Georgia", "country": "United States", "geoPoint": {"lat": 33.47097, "lon": -81.97484}}, {"facility": "Eisenhower Army Medical Center", "city": "Fort Gordon", "state": "Georgia", "country": "United States", "geoPoint": {"lat": 33.42097, "lon": -82.16206}}, {"facility": "Northwestern University", "city": "Chicago", "state": "Illinois", "country": "United States", "geoPoint": {"lat": 41.85003, "lon": -87.65005}}, {"facility": "University of Illinois Hospital", "city": "Chicago", "state": "Illinois", "country": "United States", "geoPoint": {"lat": 41.85003, "lon": -87.65005}}, {"facility": "Methodist Medical Group Cardiology", "city": "Peoria", "state": "Illinois", "country": "United States", "geoPoint": {"lat": 40.69365, "lon": -89.58899}}, {"facility": "Baptist Hospital East", "city": "Louisville", "state": "Kentucky", "country": "United States", "geoPoint": {"lat": 38.25424, "lon": -85.75941}}, {"facility": "Research Integrity LLC", "city": "Owensboro", "state": "Kentucky", "country": "United States", "geoPoint": {"lat": 37.77422, "lon": -87.11333}}, {"facility": "LSU Health Sciences Center", "city": "New Orleans", "state": "Louisiana", "country": "United States", "geoPoint": {"lat": 29.95465, "lon": -90.07507}}, {"facility": "Maine Research Associates", "city": "Auburn", "state": "Maine", "country": "United States", "geoPoint": {"lat": 44.09785, "lon": -70.23117}}, {"facility": "Johns Hopkins Hospital", "city": "Baltimore", "state": "Maryland", "country": "United States", "geoPoint": {"lat": 39.29038, "lon": -76.61219}}, {"facility": "Primary Care Cardiology Research, Inc.", "city": "Ayer", "state": "Massachusetts", "country": "United States", "geoPoint": {"lat": 42.5612, "lon": -71.58979}}, {"facility": "Brigham and Women's Hospital", "city": "Boston", "state": "Massachusetts", "country": "United States", "geoPoint": {"lat": 42.35843, "lon": -71.05977}}, {"facility": "Massachusetts General Hospital", "city": "Boston", "state": "Massachusetts", "country": "United States", "geoPoint": {"lat": 42.35843, "lon": -71.05977}}, {"facility": "MGH West", "city": "Waltham", "state": "Massachusetts", "country": "United States", "geoPoint": {"lat": 42.37649, "lon": -71.23561}}, {"facility": "University of Michigan Health System", "city": "Ann Arbor", "state": "Michigan", "country": "United States", "geoPoint": {"lat": 42.27756, "lon": -83.74088}}, {"facility": "Oakwood Hospital and Medical Center", "city": "Dearborn", "state": "Michigan", "country": "United States", "geoPoint": {"lat": 42.32226, "lon": -83.17631}}, {"facility": "Henry Ford Hospital", "city": "Detroit", "state": "Michigan", "country": "United States", "geoPoint": {"lat": 42.33143, "lon": -83.04575}}, {"facility": "William Beaumont Hospital", "city": "Royal Oak", "state": "Michigan", "country": "United States", "geoPoint": {"lat": 42.48948, "lon": -83.14465}}, {"facility": "Covenant Center for the Heart", "city": "Saginaw", "state": "Michigan", "country": "United States", "geoPoint": {"lat": 43.41947, "lon": -83.95081}}, {"facility": "Essentia Health East", "city": "Duluth", "state": "Minnesota", "country": "United States", "geoPoint": {"lat": 46.78327, "lon": -92.10658}}, {"facility": "Metropolitan Heart and Vascular Institute", "city": "Minneapolis", "state": "Minnesota", "country": "United States", "geoPoint": {"lat": 44.97997, "lon": -93.26384}}, {"facility": "Mayo Clinic", "city": "Rochester", "state": "Minnesota", "country": "United States", "geoPoint": {"lat": 44.02163, "lon": -92.4699}}, {"facility": "Missouri Cardiovascular Specialists", "city": "Columbia", "state": "Missouri", "country": "United States", "geoPoint": {"lat": 38.95171, "lon": -92.33407}}, {"facility": "St. Luke's Health System", "city": "Kansas City", "state": "Missouri", "country": "United States", "geoPoint": {"lat": 39.09973, "lon": -94.57857}}, {"facility": "Glacier View Research Institute", "city": "Kalispell", "state": "Montana", "country": "United States", "geoPoint": {"lat": 48.19579, "lon": -114.31291}}, {"facility": "Advanced Heart Care, LLC", "city": "Bridgewater", "state": "New Jersey", "country": "United States", "geoPoint": {"lat": 40.60079, "lon": -74.64815}}, {"facility": "Hackensack University Medical Center", "city": "Hackensack", "state": "New Jersey", "country": "United States", "geoPoint": {"lat": 40.88593, "lon": -74.04347}}, {"facility": "Newark Beth Israel Medical Center", "city": "Newark", "state": "New Jersey", "country": "United States", "geoPoint": {"lat": 40.73566, "lon": -74.17237}}, {"facility": "Heart & Vascular Center of NJ/Cardio Metabolic Institute", "city": "Somerset", "state": "New Jersey", "country": "United States", "geoPoint": {"lat": 40.4976, "lon": -74.48849}}, {"facility": "Bronx - Lebanon Hospital Center", "city": "Bronx", "state": "New York", "country": "United States", "geoPoint": {"lat": 40.84985, "lon": -73.86641}}, {"facility": "New York Methodist Hospital", "city": "Brooklyn", "state": "New York", "country": "United States", "geoPoint": {"lat": 40.6501, "lon": -73.94958}}, {"facility": "Columbia University Medical Center", "city": "New York", "state": "New York", "country": "United States", "geoPoint": {"lat": 40.71427, "lon": -74.00597}}, {"facility": "Mount Sinai Medical Center", "city": "New York", "state": "New York", "country": "United States", "geoPoint": {"lat": 40.71427, "lon": -74.00597}}, {"facility": "Cardiology Associates of Schenectady", "city": "Schenectady", "state": "New York", "country": "United States", "geoPoint": {"lat": 42.81424, "lon": -73.93957}}, {"facility": "Stony Brook University Hospital", "city": "Stony Brook", "state": "New York", "country": "United States", "geoPoint": {"lat": 40.92565, "lon": -73.14094}}, {"facility": "SUNY Upstate Medical University", "city": "Syracuse", "state": "New York", "country": "United States", "geoPoint": {"lat": 43.04812, "lon": -76.14742}}, {"facility": "LeBauer Cardiovascular Research Foundation", "city": "Greensboro", "state": "North Carolina", "country": "United States", "geoPoint": {"lat": 36.07264, "lon": -79.79198}}, {"facility": "The Lindner Center for Research & Education at The Christ Hospital", "city": "Cincinnati", "state": "Ohio", "country": "United States", "geoPoint": {"lat": 39.12713, "lon": -84.51435}}, {"facility": "Cleveland Clinic", "city": "Cleveland", "state": "Ohio", "country": "United States", "geoPoint": {"lat": 41.4995, "lon": -81.69541}}, {"facility": "Dayton VA Medical Center", "city": "Dayton", "state": "Ohio", "country": "United States", "geoPoint": {"lat": 39.75895, "lon": -84.19161}}, {"facility": "Oklahoma City VA", "city": "Oklahoma City", "state": "Oklahoma", "country": "United States", "geoPoint": {"lat": 35.46756, "lon": -97.51643}}, {"facility": "Warren Cancer Research Foundation", "city": "Tulsa", "state": "Oklahoma", "country": "United States", "geoPoint": {"lat": 36.15398, "lon": -95.99277}}, {"facility": "Lancaster Heart and Stroke Foundation", "city": "Lancaster", "state": "Pennsylvania", "country": "United States", "geoPoint": {"lat": 40.03788, "lon": -76.30551}}, {"facility": "Drexel University College of Medicine", "city": "Philadelphia", "state": "Pennsylvania", "country": "United States", "geoPoint": {"lat": 39.95233, "lon": -75.16379}}, {"facility": "Temple University", "city": "Philadelphia", "state": "Pennsylvania", "country": "United States", "geoPoint": {"lat": 39.95233, "lon": -75.16379}}, {"facility": "Grand View - Lehigh Valley Health Service", "city": "Sellersville", "state": "Pennsylvania", "country": "United States", "geoPoint": {"lat": 40.35399, "lon": -75.3049}}, {"facility": "Lankenau Medical Center", "city": "Wynnewood", "state": "Pennsylvania", "country": "United States", "geoPoint": {"lat": 40.00289, "lon": -75.27074}}, {"facility": "Stern Cardiovascular Foundation, Inc.", "city": "Germantown", "state": "Tennessee", "country": "United States", "geoPoint": {"lat": 35.08676, "lon": -89.81009}}, {"facility": "CIVA/CArdiovascular Research Institute of Dallas", "city": "Dallas", "state": "Texas", "country": "United States", "geoPoint": {"lat": 32.78306, "lon": -96.80667}}, {"facility": "Michael E. Debakey VA Medical Center", "city": "Houston", "state": "Texas", "country": "United States", "geoPoint": {"lat": 29.76328, "lon": -95.36327}}, {"facility": "University of Utah", "city": "Salt Lake City", "state": "Utah", "country": "United States", "geoPoint": {"lat": 40.76078, "lon": -111.89105}}, {"facility": "Aurora St. Luke's Medical Center", "city": "Milwaukee", "state": "Wisconsin", "country": "United States", "geoPoint": {"lat": 43.0389, "lon": -87.90647}}, {"facility": "Aspirus Wausau Hospital", "city": "Wausau", "state": "Wisconsin", "country": "United States", "geoPoint": {"lat": 44.95914, "lon": -89.63012}}, {"facility": "Jewish General Hospital", "city": "Montreal", "state": "Quebec", "country": "Canada", "geoPoint": {"lat": 45.50884, "lon": -73.58781}}]}}, "resultsSection": {"participantFlowModule": {"groups": [{"id": "FG000", "title": "Tadalafil", "description": "Tadalafil is supplied in 20 mg tablets. Subjects will take 20 mg (one tablet) once per day and will be titrated to 40 mg (two tablets once per day) after one week. Subjects are on study drug for the duration of the trial."}, {"id": "FG001", "title": "Placebo", "description": "Placebo of tadalafil. Subjects will take one tablet once per day and will be titrated to two tablets once per day after one week. Subjects are on study drug for the duration of the trial."}], "periods": [{"title": "Overall Study", "milestones": [{"type": "STARTED", "achievements": [{"groupId": "FG000", "numSubjects": "15"}, {"groupId": "FG001", "numSubjects": "8"}]}, {"type": "COMPLETED", "achievements": [{"groupId": "FG000", "numSubjects": "0"}, {"groupId": "FG001", "numSubjects": "0"}]}, {"type": "NOT COMPLETED", "achievements": [{"groupId": "FG000", "numSubjects": "15"}, {"groupId": "FG001", "numSubjects": "8"}]}], "dropWithdraws": [{"type": "Withdrawal by Subject", "reasons": [{"groupId": "FG000", "numSubjects": "2"}, {"groupId": "FG001", "numSubjects": "0"}]}, {"type": "Study Closed", "reasons": [{"groupId": "FG000", "numSubjects": "13"}, {"groupId": "FG001", "numSubjects": "8"}]}]}]}, "baselineCharacteristicsModule": {"groups": [{"id": "BG000", "title": "Tadalafil", "description": "Tadalafil is supplied in 20 mg tablets. Subjects will take 20 mg (one tablet) once per day and will be titrated to 40 mg (two tablets once per day) after one week. Subjects are on study drug for the duration of the trial."}, {"id": "BG001", "title": "Placebo", "description": "Placebo of tadalafil. Subjects will take one tablet once per day and will be titrated to two tablets once per day after one week. Subjects are on study drug for the duration of the trial."}, {"id": "BG002", "title": "Total", "description": "Total of all reporting groups"}], "denoms": [{"units": "Participants", "counts": [{"groupId": "BG000", "value": "15"}, {"groupId": "BG001", "value": "8"}, {"groupId": "BG002", "value": "23"}]}], "measures": [{"title": "Age, Categorical", "paramType": "COUNT_OF_PARTICIPANTS", "unitOfMeasure": "Participants", "classes": [{"categories": [{"title": "<=18 years", "measurements": [{"groupId": "BG000", "value": "0"}, {"groupId": "BG001", "value": "0"}, {"groupId": "BG002", "value": "0"}]}, {"title": "Between 18 and 65 years", "measurements": [{"groupId": "BG000", "value": "10"}, {"groupId": "BG001", "value": "4"}, {"groupId": "BG002", "value": "14"}]}, {"title": ">=65 years", "measurements": [{"groupId": "BG000", "value": "5"}, {"groupId": "BG001", "value": "4"}, {"groupId": "BG002", "value": "9"}]}]}]}, {"title": "Age, Continuous", "paramType": "MEDIAN", "dispersionType": "INTER_QUARTILE_RANGE", "unitOfMeasure": "years", "classes": [{"categories": [{"measurements": [{"groupId": "BG000", "value": "62.6", "lowerLimit": "42.3", "upperLimit": "72.5"}, {"groupId": "BG001", "value": "63.3", "lowerLimit": "51.7", "upperLimit": "76.8"}, {"groupId": "BG002", "value": "62.6", "lowerLimit": "47.7", "upperLimit": "73.9"}]}]}]}, {"title": "Sex: Female, Male", "paramType": "COUNT_OF_PARTICIPANTS", "unitOfMeasure": "Participants", "classes": [{"categories": [{"title": "Female", "measurements": [{"groupId": "BG000", "value": "2"}, {"groupId": "BG001", "value": "1"}, {"groupId": "BG002", "value": "3"}]}, {"title": "Male", "measurements": [{"groupId": "BG000", "value": "13"}, {"groupId": "BG001", "value": "7"}, {"groupId": "BG002", "value": "20"}]}]}]}, {"title": "Ethnicity (NIH/OMB)", "paramType": "COUNT_OF_PARTICIPANTS", "unitOfMeasure": "Participants", "classes": [{"categories": [{"title": "Hispanic or Latino", "measurements": [{"groupId": "BG000", "value": "1"}, {"groupId": "BG001", "value": "0"}, {"groupId": "BG002", "value": "1"}]}, {"title": "Not Hispanic or Latino", "measurements": [{"groupId": "BG000", "value": "14"}, {"groupId": "BG001", "value": "8"}, {"groupId": "BG002", "value": "22"}]}, {"title": "Unknown or Not Reported", "measurements": [{"groupId": "BG000", "value": "0"}, {"groupId": "BG001", "value": "0"}, {"groupId": "BG002", "value": "0"}]}]}]}, {"title": "Race (NIH/OMB)", "paramType": "COUNT_OF_PARTICIPANTS", "unitOfMeasure": "Participants", "classes": [{"categories": [{"title": "American Indian or Alaska Native", "measurements": [{"groupId": "BG000", "value": "0"}, {"groupId": "BG001", "value": "0"}, {"groupId": "BG002", "value": "0"}]}, {"title": "Asian", "measurements": [{"groupId": "BG000", "value": "1"}, {"groupId": "BG001", "value": "0"}, {"groupId": "BG002", "value": "1"}]}, {"title": "Native Hawaiian or Other Pacific Islander", "measurements": [{"groupId": "BG000", "value": "0"}, {"groupId": "BG001", "value": "0"}, {"groupId": "BG002", "value": "0"}]}, {"title": "Black or African American", "measurements": [{"groupId": "BG000", "value": "2"}, {"groupId": "BG001", "value": "2"}, {"groupId": "BG002", "value": "4"}]}, {"title": "White", "measurements": [{"groupId": "BG000", "value": "11"}, {"groupId": "BG001", "value": "6"}, {"groupId": "BG002", "value": "17"}]}, {"title": "More than one race", "measurements": [{"groupId": "BG000", "value": "0"}, {"groupId": "BG001", "value": "0"}, {"groupId": "BG002", "value": "0"}]}, {"title": "Unknown or Not Reported", "measurements": [{"groupId": "BG000", "value": "1"}, {"groupId": "BG001", "value": "0"}, {"groupId": "BG002", "value": "1"}]}]}]}]}, "outcomeMeasuresModule": {"outcomeMeasures": [{"type": "PRIMARY", "title": "Composite Outcome of Cardiovascular (CV) Mortality or Heart Failure (HF) Hospitalization", "populationDescription": "Trial was terminated early. Data for outcome not obtained.", "reportingStatus": "POSTED", "timeFrame": "Randomization through each subject's last semi-annual visit, up to a maximum of 3 years per subject", "groups": [{"id": "OG000", "title": "Tadalafil", "description": "Tadalafil is supplied in 20 mg tablets. Subjects will take 20 mg (one tablet) once per day and will be titrated to 40 mg (two tablets once per day) after one week. Subjects are on study drug for the duration of the trial."}, {"id": "OG001", "title": "Placebo", "description": "Placebo of tadalafil. Subjects will take one tablet once per day and will be titrated to two tablets once per day after one week. Subjects are on study drug for the duration of the trial."}], "denoms": [{"units": "Participants", "counts": [{"groupId": "OG000", "value": "0"}, {"groupId": "OG001", "value": "0"}]}]}, {"type": "SECONDARY", "title": "Cardiovascular Mortality", "populationDescription": "Trial was terminated early. Data for outcome not obtained.", "reportingStatus": "POSTED", "timeFrame": "Randomization through each subject's last semi-annual visit, up to a maximum of 3 years per subject", "groups": [{"id": "OG000", "title": "Tadalafil", "description": "Tadalafil is supplied in 20 mg tablets. Subjects will take 20 mg (one tablet) once per day and will be titrated to 40 mg (two tablets once per day) after one week. Subjects are on study drug for the duration of the trial."}, {"id": "OG001", "title": "Placebo", "description": "Placebo of tadalafil. Subjects will take one tablet once per day and will be titrated to two tablets once per day after one week. Subjects are on study drug for the duration of the trial."}], "denoms": [{"units": "Participants", "counts": [{"groupId": "OG000", "value": "0"}, {"groupId": "OG001", "value": "0"}]}]}, {"type": "SECONDARY", "title": "Heart Failure Hospitalization", "populationDescription": "Trial was terminated early. Data for outcome not obtained.", "reportingStatus": "POSTED", "timeFrame": "Randomization through each subject's last semi-annual visit, up to a maximum of 3 years per subject", "groups": [{"id": "OG000", "title": "Tadalafil", "description": "Tadalafil is supplied in 20 mg tablets. Subjects will take 20 mg (one tablet) once per day and will be titrated to 40 mg (two tablets once per day) after one week. Subjects are on study drug for the duration of the trial."}, {"id": "OG001", "title": "Placebo", "description": "Placebo of tadalafil. Subjects will take one tablet once per day and will be titrated to two tablets once per day after one week. Subjects are on study drug for the duration of the trial."}], "denoms": [{"units": "Participants", "counts": [{"groupId": "OG000", "value": "0"}, {"groupId": "OG001", "value": "0"}]}]}, {"type": "SECONDARY", "title": "All-cause Mortality", "populationDescription": "Trial was terminated early. Data for outcome not obtained.", "reportingStatus": "POSTED", "timeFrame": "Randomization through each subject's last semi-annual visit, up to a maximum of 3 years per subject", "groups": [{"id": "OG000", "title": "Tadalafil", "description": "Tadalafil is supplied in 20 mg tablets. Subjects will take 20 mg (one tablet) once per day and will be titrated to 40 mg (two tablets once per day) after one week. Subjects are on study drug for the duration of the trial."}, {"id": "OG001", "title": "Placebo", "description": "Placebo of tadalafil. Subjects will take one tablet once per day and will be titrated to two tablets once per day after one week. Subjects are on study drug for the duration of the trial."}], "denoms": [{"units": "Participants", "counts": [{"groupId": "OG000", "value": "0"}, {"groupId": "OG001", "value": "0"}]}]}, {"type": "SECONDARY", "title": "Composite Outcome of All-cause Mortality or CV Hospitalization (Myocardial Infarction, Acute Coronary Syndrome, Stroke, Arrhythmia, or Heart Failure)", "populationDescription": "Trial was terminated early. Data for outcome not obtained.", "reportingStatus": "POSTED", "timeFrame": "Randomization through each subject's last semi-annual visit, up to a maximum of 3 years per subject", "groups": [{"id": "OG000", "title": "Tadalafil", "description": "Tadalafil is supplied in 20 mg tablets. Subjects will take 20 mg (one tablet) once per day and will be titrated to 40 mg (two tablets once per day) after one week. Subjects are on study drug for the duration of the trial."}, {"id": "OG001", "title": "Placebo", "description": "Placebo of tadalafil. Subjects will take one tablet once per day and will be titrated to two tablets once per day after one week. Subjects are on study drug for the duration of the trial."}], "denoms": [{"units": "Participants", "counts": [{"groupId": "OG000", "value": "0"}, {"groupId": "OG001", "value": "0"}]}]}, {"type": "SECONDARY", "title": "Frequency of CV Hospitalizations", "populationDescription": "Trial was terminated early. Data for outcome not obtained.", "reportingStatus": "POSTED", "timeFrame": "Randomization through each subject's last semi-annual visit, up to a maximum of 3 years per subject", "groups": [{"id": "OG000", "title": "Tadalafil", "description": "Tadalafil is supplied in 20 mg tablets. Subjects will take 20 mg (one tablet) once per day and will be titrated to 40 mg (two tablets once per day) after one week. Subjects are on study drug for the duration of the trial."}, {"id": "OG001", "title": "Placebo", "description": "Placebo of tadalafil. Subjects will take one tablet once per day and will be titrated to two tablets once per day after one week. Subjects are on study drug for the duration of the trial."}], "denoms": [{"units": "Participants", "counts": [{"groupId": "OG000", "value": "0"}, {"groupId": "OG001", "value": "0"}]}]}, {"type": "SECONDARY", "title": "Frequency of HF Hospitalizations", "populationDescription": "Trial was terminated early. Data for outcome not obtained.", "reportingStatus": "POSTED", "timeFrame": "Randomization through each subject's last semi-annual visit, up to a maximum of 3 years per subject", "groups": [{"id": "OG000", "title": "Tadalafil", "description": "Tadalafil is supplied in 20 mg tablets. Subjects will take 20 mg (one tablet) once per day and will be titrated to 40 mg (two tablets once per day) after one week. Subjects are on study drug for the duration of the trial."}, {"id": "OG001", "title": "Placebo", "description": "Placebo of tadalafil. Subjects will take one tablet once per day and will be titrated to two tablets once per day after one week. Subjects are on study drug for the duration of the trial."}], "denoms": [{"units": "Participants", "counts": [{"groupId": "OG000", "value": "0"}, {"groupId": "OG001", "value": "0"}]}]}, {"type": "SECONDARY", "title": "Change in 6 Minute Walk Distance From Baseline to 3 Months", "populationDescription": "Trial was terminated early. Data for outcome not obtained.", "reportingStatus": "POSTED", "timeFrame": "Randomization to 3 months", "groups": [{"id": "OG000", "title": "Tadalafil", "description": "Tadalafil is supplied in 20 mg tablets. Subjects will take 20 mg (one tablet) once per day and will be titrated to 40 mg (two tablets once per day) after one week. Subjects are on study drug for the duration of the trial."}, {"id": "OG001", "title": "Placebo", "description": "Placebo of tadalafil. Subjects will take one tablet once per day and will be titrated to two tablets once per day after one week. Subjects are on study drug for the duration of the trial."}], "denoms": [{"units": "Participants", "counts": [{"groupId": "OG000", "value": "0"}, {"groupId": "OG001", "value": "0"}]}]}, {"type": "SECONDARY", "title": "Change in MLHFQ Score From Baseline to 3 Months", "populationDescription": "Trial was terminated early. Data for outcome not obtained.", "reportingStatus": "POSTED", "timeFrame": "Randomization to 3 months", "groups": [{"id": "OG000", "title": "Tadalafil", "description": "Tadalafil is supplied in 20 mg tablets. Subjects will take 20 mg (one tablet) once per day and will be titrated to 40 mg (two tablets once per day) after one week. Subjects are on study drug for the duration of the trial."}, {"id": "OG001", "title": "Placebo", "description": "Placebo of tadalafil. Subjects will take one tablet once per day and will be titrated to two tablets once per day after one week. Subjects are on study drug for the duration of the trial."}], "denoms": [{"units": "Participants", "counts": [{"groupId": "OG000", "value": "0"}, {"groupId": "OG001", "value": "0"}]}]}, {"type": "SECONDARY", "title": "Change in 6 Minute Walk Distance From Baseline to 18 Months", "populationDescription": "Trial was terminated early. Data for outcome not obtained.", "reportingStatus": "POSTED", "timeFrame": "Randomization to 18 months", "groups": [{"id": "OG000", "title": "Tadalafil", "description": "Tadalafil is supplied in 20 mg tablets. Subjects will take 20 mg (one tablet) once per day and will be titrated to 40 mg (two tablets once per day) after one week. Subjects are on study drug for the duration of the trial."}, {"id": "OG001", "title": "Placebo", "description": "Placebo of tadalafil. Subjects will take one tablet once per day and will be titrated to two tablets once per day after one week. Subjects are on study drug for the duration of the trial."}], "denoms": [{"units": "Participants", "counts": [{"groupId": "OG000", "value": "0"}, {"groupId": "OG001", "value": "0"}]}]}, {"type": "SECONDARY", "title": "Trend in 6 Minute Walk Distance From Baseline Through 18 Months", "populationDescription": "Trial was terminated early. Data for outcome not obtained.", "reportingStatus": "POSTED", "timeFrame": "Randomization to 18 months", "groups": [{"id": "OG000", "title": "Tadalafil", "description": "Tadalafil is supplied in 20 mg tablets. Subjects will take 20 mg (one tablet) once per day and will be titrated to 40 mg (two tablets once per day) after one week. Subjects are on study drug for the duration of the trial."}, {"id": "OG001", "title": "Placebo", "description": "Placebo of tadalafil. Subjects will take one tablet once per day and will be titrated to two tablets once per day after one week. Subjects are on study drug for the duration of the trial."}], "denoms": [{"units": "Participants", "counts": [{"groupId": "OG000", "value": "0"}, {"groupId": "OG001", "value": "0"}]}]}, {"type": "SECONDARY", "title": "Change in Minnesota Living With Heart Failure Questionnaire (MLHFQ) Score From Baseline to 18 Months", "populationDescription": "Trial was terminated early. Data for outcome not obtained.", "reportingStatus": "POSTED", "timeFrame": "Randomization to 18 months", "groups": [{"id": "OG000", "title": "Tadalafil", "description": "Tadalafil is supplied in 20 mg tablets. Subjects will take 20 mg (one tablet) once per day and will be titrated to 40 mg (two tablets once per day) after one week. Subjects are on study drug for the duration of the trial."}, {"id": "OG001", "title": "Placebo", "description": "Placebo of tadalafil. Subjects will take one tablet once per day and will be titrated to two tablets once per day after one week. Subjects are on study drug for the duration of the trial."}], "denoms": [{"units": "Participants", "counts": [{"groupId": "OG000", "value": "0"}, {"groupId": "OG001", "value": "0"}]}]}, {"type": "SECONDARY", "title": "Trend in Minnesota Living With Heart Failure Questionnaire (MLHFQ) Score From Baseline Through 18 Months", "populationDescription": "Trial was terminated early. Data for outcome not obtained.", "reportingStatus": "POSTED", "timeFrame": "Randomization to 18 months", "groups": [{"id": "OG000", "title": "Tadalafil", "description": "Tadalafil is supplied in 20 mg tablets. Subjects will take 20 mg (one tablet) once per day and will be titrated to 40 mg (two tablets once per day) after one week. Subjects are on study drug for the duration of the trial."}, {"id": "OG001", "title": "Placebo", "description": "Placebo of tadalafil. Subjects will take one tablet once per day and will be titrated to two tablets once per day after one week. Subjects are on study drug for the duration of the trial."}], "denoms": [{"units": "Participants", "counts": [{"groupId": "OG000", "value": "0"}, {"groupId": "OG001", "value": "0"}]}]}]}, "adverseEventsModule": {"frequencyThreshold": "0", "timeFrame": "Reported Adverse Events (AEs) include any untoward medical occurrence which occurred after a subject gave informed consent and no later than 30 days after a subject permanently discontinued the study medication, for a maximum of 3 years per subject", "description": "If a subject experiences more than 1 of a given AE within a system organ class (SOC), the subject was counted only once for that AE.", "eventGroups": [{"id": "EG000", "title": "Tadalafil", "description": "Tadalafil is supplied in 20 mg tablets. Subjects will take 20 mg (one tablet) once per day and will be titrated to 40 mg (two tablets once per day) after one week. Subjects are on study drug for the duration of the trial.", "seriousNumAffected": 4, "seriousNumAtRisk": 15, "otherNumAffected": 3, "otherNumAtRisk": 15}, {"id": "EG001", "title": "Placebo", "description": "Placebo of tadalafil. Subjects will take one tablet once per day and will be titrated to two tablets once per day after one week. Subjects are on study drug for the duration of the trial.", "seriousNumAffected": 2, "seriousNumAtRisk": 8, "otherNumAffected": 0, "otherNumAtRisk": 8}], "seriousEvents": [{"term": "CHF EXACERBATION", "organSystem": "Cardiac disorders", "assessmentType": "SYSTEMATIC_ASSESSMENT", "stats": [{"groupId": "EG000", "numEvents": 0, "numAffected": 0, "numAtRisk": 15}, {"groupId": "EG001", "numEvents": 2, "numAffected": 1, "numAtRisk": 8}]}, {"term": "CHF EXACERBATION, DYSPNEA", "organSystem": "Cardiac disorders", "assessmentType": "SYSTEMATIC_ASSESSMENT", "stats": [{"groupId": "EG000", "numEvents": 0, "numAffected": 0, "numAtRisk": 15}, {"groupId": "EG001", "numEvents": 1, "numAffected": 1, "numAtRisk": 8}]}, {"term": "CONGESTIVE HEART FAILURE", "organSystem": "Cardiac disorders", "assessmentType": "SYSTEMATIC_ASSESSMENT", "stats": [{"groupId": "EG000", "numEvents": 1, "numAffected": 1, "numAtRisk": 15}, {"groupId": "EG001", "numEvents": 0, "numAffected": 0, "numAtRisk": 8}]}, {"term": "HOSPITALIZATION FOR DECOMPENSATED HEART FAILURE", "organSystem": "Cardiac disorders", "assessmentType": "SYSTEMATIC_ASSESSMENT", "stats": [{"groupId": "EG000", "numEvents": 1, "numAffected": 1, "numAtRisk": 15}, {"groupId": "EG001", "numEvents": 0, "numAffected": 0, "numAtRisk": 8}]}, {"term": "ER ADMISSION; NOSEBLEED", "organSystem": "General disorders", "assessmentType": "SYSTEMATIC_ASSESSMENT", "stats": [{"groupId": "EG000", "numEvents": 1, "numAffected": 1, "numAtRisk": 15}, {"groupId": "EG001", "numEvents": 0, "numAffected": 0, "numAtRisk": 8}]}, {"term": "SEPSIS", "organSystem": "Infections and infestations", "assessmentType": "SYSTEMATIC_ASSESSMENT", "stats": [{"groupId": "EG000", "numEvents": 1, "numAffected": 1, "numAtRisk": 15}, {"groupId": "EG001", "numEvents": 0, "numAffected": 0, "numAtRisk": 8}]}], "otherEvents": [{"term": "DIARRHEA", "organSystem": "Gastrointestinal disorders", "assessmentType": "SYSTEMATIC_ASSESSMENT", "stats": [{"groupId": "EG000", "numEvents": 1, "numAffected": 1, "numAtRisk": 15}, {"groupId": "EG001", "numEvents": 0, "numAffected": 0, "numAtRisk": 8}]}, {"term": "FLUSHING", "organSystem": "Vascular disorders", "assessmentType": "SYSTEMATIC_ASSESSMENT", "stats": [{"groupId": "EG000", "numEvents": 3, "numAffected": 1, "numAtRisk": 15}, {"groupId": "EG001", "numEvents": 0, "numAffected": 0, "numAtRisk": 8}]}, {"term": "HEADACHE", "organSystem": "Nervous system disorders", "assessmentType": "SYSTEMATIC_ASSESSMENT", "stats": [{"groupId": "EG000", "numEvents": 2, "numAffected": 2, "numAtRisk": 15}, {"groupId": "EG001", "numEvents": 0, "numAffected": 0, "numAtRisk": 8}]}, {"term": "HYPOGLYCEMIA", "organSystem": "Metabolism and nutrition disorders", "assessmentType": "SYSTEMATIC_ASSESSMENT", "stats": [{"groupId": "EG000", "numEvents": 1, "numAffected": 1, "numAtRisk": 15}, {"groupId": "EG001", "numEvents": 0, "numAffected": 0, "numAtRisk": 8}]}, {"term": "INSOMNIA", "organSystem": "Psychiatric disorders", "assessmentType": "SYSTEMATIC_ASSESSMENT", "stats": [{"groupId": "EG000", "numEvents": 2, "numAffected": 1, "numAtRisk": 15}, {"groupId": "EG001", "numEvents": 0, "numAffected": 0, "numAtRisk": 8}]}, {"term": "METALLIC TASTE TO FOOD", "organSystem": "General disorders", "assessmentType": "SYSTEMATIC_ASSESSMENT", "stats": [{"groupId": "EG000", "numEvents": 2, "numAffected": 1, "numAtRisk": 15}, {"groupId": "EG001", "numEvents": 0, "numAffected": 0, "numAtRisk": 8}]}, {"term": "PALPITATIONS", "organSystem": "Cardiac disorders", "assessmentType": "SYSTEMATIC_ASSESSMENT", "stats": [{"groupId": "EG000", "numEvents": 1, "numAffected": 1, "numAtRisk": 15}, {"groupId": "EG001", "numEvents": 0, "numAffected": 0, "numAtRisk": 8}]}, {"term": "STOMACH UPSET", "organSystem": "Gastrointestinal disorders", "assessmentType": "SYSTEMATIC_ASSESSMENT", "stats": [{"groupId": "EG000", "numEvents": 2, "numAffected": 1, "numAtRisk": 15}, {"groupId": "EG001", "numEvents": 0, "numAffected": 0, "numAtRisk": 8}]}]}, "moreInfoModule": {"limitationsAndCaveats": {"description": "Early termination leading to small numbers of subjects. Outcome measure data not obtained."}, "certainAgreement": {"piSponsorEmployee": true}, "pointOfContact": {"title": "Brian Harty", "organization": "New England Research Institutes", "email": "bhartY@neriscience.com", "phone": "617-972-3224"}}}, "derivedSection": {"miscInfoModule": {"versionHolder": "2024-06-24"}, "conditionBrowseModule": {"meshes": [{"id": "D000006976", "term": "Hypertension, Pulmonary"}, {"id": "D000006973", "term": "Hypertension"}, {"id": "D000006333", "term": "Heart Failure"}], "ancestors": [{"id": "D000014652", "term": "Vascular Diseases"}, {"id": "D000002318", "term": "Cardiovascular Diseases"}, {"id": "D000006331", "term": "Heart Diseases"}, {"id": "D000008171", "term": "Lung Diseases"}, {"id": "D000012140", "term": "Respiratory Tract Diseases"}], "browseLeaves": [{"id": "M10024", "name": "Hypertension", "asFound": "Hypertension", "relevance": "HIGH"}, {"id": "M9421", "name": "Heart Failure", "asFound": "Heart Failure", "relevance": "HIGH"}, {"id": "M10027", "name": "Hypertension, Pulmonary", "asFound": "Pulmonary Hypertension", "relevance": "HIGH"}, {"id": "M17400", "name": "Vascular Diseases", "relevance": "LOW"}, {"id": "M9419", "name": "Heart Diseases", "relevance": "LOW"}, {"id": "M11168", "name": "Lung Diseases", "relevance": "LOW"}, {"id": "M14977", "name": "Respiratory Tract Diseases", "relevance": "LOW"}], "browseBranches": [{"abbrev": "BC14", "name": "Heart and Blood Diseases"}, {"abbrev": "All", "name": "All Conditions"}, {"abbrev": "BC08", "name": "Respiratory Tract (Lung and Bronchial) Diseases"}]}, "interventionBrowseModule": {"meshes": [{"id": "D000068581", "term": "Tadalafil"}], "ancestors": [{"id": "D000014665", "term": "Vasodilator Agents"}, {"id": "D000058986", "term": "Phosphodiesterase 5 Inhibitors"}, {"id": "D000010726", "term": "Phosphodiesterase Inhibitors"}, {"id": "D000004791", "term": "Enzyme Inhibitors"}, {"id": "D000045504", "term": "Molecular Mechanisms of Pharmacological Action"}, {"id": "D000064804", "term": "Urological Agents"}], "browseLeaves": [{"id": "M279", "name": "Tadalafil", "asFound": "Preliminary", "relevance": "HIGH"}, {"id": "M17412", "name": "Vasodilator Agents", "relevance": "LOW"}, {"id": "M29332", "name": "Phosphodiesterase 5 Inhibitors", "relevance": "LOW"}, {"id": "M13629", "name": "Phosphodiesterase Inhibitors", "relevance": "LOW"}, {"id": "M7951", "name": "Enzyme Inhibitors", "relevance": "LOW"}], "browseBranches": [{"abbrev": "VaDiAg", "name": "Vasodilator Agents"}, {"abbrev": "Urol", "name": "Urological Agents"}, {"abbrev": "All", "name": "All Drugs and Chemicals"}]}}, "hasResults": true}