{"protocolSection": {"identificationModule": {"nctId": "NCT00271154", "orgStudyIdInfo": {"id": "233"}, "organization": {"fullName": "Medtronic Cardiac Rhythm and Heart Failure", "class": "INDUSTRY"}, "briefTitle": "REsynchronization reVErses Remodeling in Systolic Left vEntricular Dysfunction (REVERSE)", "officialTitle": "REsynchronization reVErses Remodeling in Systolic Left vEntricular Dysfunction (REVERSE)"}, "statusModule": {"statusVerifiedDate": "2012-01", "overallStatus": "COMPLETED", "expandedAccessInfo": {"hasExpandedAccess": false}, "startDateStruct": {"date": "2004-09"}, "primaryCompletionDateStruct": {"date": "2007-10", "type": "ACTUAL"}, "completionDateStruct": {"date": "2011-11", "type": "ACTUAL"}, "studyFirstSubmitDate": "2005-12-21", "studyFirstSubmitQcDate": "2005-12-28", "studyFirstPostDateStruct": {"date": "2005-12-30", "type": "ESTIMATED"}, "resultsFirstSubmitDate": "2008-12-24", "resultsFirstSubmitQcDate": "2009-03-26", "resultsFirstPostDateStruct": {"date": "2009-05-13", "type": "ESTIMATED"}, "lastUpdateSubmitDate": "2012-01-26", "lastUpdatePostDateStruct": {"date": "2012-01-30", "type": "ESTIMATED"}}, "sponsorCollaboratorsModule": {"responsibleParty": {"type": "SPONSOR"}, "leadSponsor": {"name": "Medtronic Cardiac Rhythm and Heart Failure", "class": "INDUSTRY"}}, "oversightModule": {"oversightHasDmc": true}, "descriptionModule": {"briefSummary": "Heart failure is a progressive disease that decreases the pumping action of the heart. This may cause a backup of fluid in the heart and may result in heart beat changes. When there are changes in the heart beat sometimes an implantable heart device is used to control the rate and rhythm of the heart beat. The purpose of the REVERSE clinical trial is to determine whether pacing in both the left and right ventricles using Cardiac Resynchronization Therapy (CRT) can help slow the progression of heart failure in people who have mild or previous symptoms and poor heart pumping function. This kind of therapy has previously been shown to reduce symptoms and improve exercise capacity in people with more advanced forms of heart failure."}, "conditionsModule": {"conditions": ["Heart Failure"], "keywords": ["Heart Failure", "Implantable Cardioverter Defibrillator", "Cardiac Resynchronization Therapy"]}, "designModule": {"studyType": "INTERVENTIONAL", "phases": ["NA"], "designInfo": {"allocation": "RANDOMIZED", "interventionModel": "PARALLEL", "primaryPurpose": "TREATMENT", "maskingInfo": {"masking": "DOUBLE", "whoMasked": ["PARTICIPANT", "INVESTIGATOR"]}}, "enrollmentInfo": {"count": 684, "type": "ACTUAL"}}, "armsInterventionsModule": {"armGroups": [{"label": "CRT OFF", "type": "PLACEBO_COMPARATOR", "description": "Cardiac Resynchronization Therapy (CRT) turned OFF in conjunction with optimal medical therapy", "interventionNames": ["Device: Cardiac Resynchronization Therapy (CRT) Device or Implantable Cardioverter Defibrillator (ICD) with CRT"]}, {"label": "CRT ON", "type": "ACTIVE_COMPARATOR", "description": "Cardiac Resynchronization Therapy (CRT) turned ON in conjunction with optimal medical therapy", "interventionNames": ["Device: Cardiac Resynchronization Therapy (CRT) Device or Implantable Cardioverter Defibrillator (ICD) with CRT"]}], "interventions": [{"type": "DEVICE", "name": "Cardiac Resynchronization Therapy (CRT) Device or Implantable Cardioverter Defibrillator (ICD) with CRT", "description": "All randomized patients will be implanted with a market-released Medtronic CRT or CRT/ICD device.", "armGroupLabels": ["CRT OFF", "CRT ON"]}]}, "outcomesModule": {"primaryOutcomes": [{"measure": "Percentage of Patients Worsened for Clinical Composite Response", "description": "Patients considered worsened if they died, were hospitalized with worsening heart failure (HF), crossed over to other arm, demonstrated worsening in New York Heart Association (NYHA) functional class, or reported moderately/markedly worse HF symptoms compared to before CRT implant.", "timeFrame": "12 Months"}], "secondaryOutcomes": [{"measure": "Change in Left Ventricular End Systolic Volume, Indexed (LVESVi)", "description": "The change is LVESVi measured at 12 months minus LVESVi measured at baseline. The 12-month echocardiographic measurements were made with CRT programmed off, irespective of the treatment assignment. In CRT ON patients these measurements were recorded after a 10 minute washout period. Two core laboratories performed all echo measurements.", "timeFrame": "Baseline to 12 months"}]}, "eligibilityModule": {"eligibilityCriteria": "Inclusion Criteria:\n\n* Subjects with previously symptomatic heart failure but no current symptoms (New York Heart Association (NYHA) Class I, Stage C) or subjects with mild heart failure that only sometimes interferes with daily activities (NYHA Class II)\n* Subjects with a QRS of 120 ms or more (The QRS interval is a measurement of how the electrical signal involved in a heart beat travels/conducts through the ventricles. A wide QRS (120 ms or more) suggests that there is a conduction problem (or block) in the ventricles).\n* Subjects with a left ventricular ejection fraction less than or equal to 40%. (The left ventricular ejection fraction (LVEF) is a measurement of how well the left ventricle pumps blood out to the rest of the body. The higher the LVEF the more blood the ventricle is pumping.)\n* Subjects with a left ventricular end diastolic dimension (LVEDD) greater than or equal to 55. (The left ventricular end diastolic dimension (LVEDD) is a measurement of heart size taken during an echocardiogram that is one indication of the health of the left ventricle.)\n\nExclusion Criteria:\n\n* Subjects who are pacemaker dependent (heart would not beat without the help of an implanted device to pace it).\n* Subjects with heart failure that severely limits daily activities (NYHA Class III) or subjects with severe heart failure with symptoms while resting (NYHA Class IV).\n* Subjects hospitalized due to heart failure within past 3 months.", "healthyVolunteers": false, "sex": "ALL", "minimumAge": "18 Years", "stdAges": ["ADULT", "OLDER_ADULT"]}, "contactsLocationsModule": {"overallOfficials": [{"name": "Cecilia Linde, MD, PhD", "affiliation": "Department of Cardiology, Karolinska University Hospital, Stockholm, Sweden", "role": "PRINCIPAL_INVESTIGATOR"}], "locations": [{"city": "Huntsville", "state": "Alabama", "country": "United States", "geoPoint": {"lat": 34.7304, "lon": -86.58594}}, {"city": "Anchorage", "state": "Alaska", "country": "United States", "geoPoint": {"lat": 61.21806, "lon": -149.90028}}, {"city": "Redwood City", "state": "California", "country": "United States", "geoPoint": {"lat": 37.48522, "lon": -122.23635}}, {"city": "San Diego", "state": "California", "country": "United States", "geoPoint": {"lat": 32.71533, "lon": -117.15726}}, {"city": "Atlantis", "state": "Florida", "country": "United States", "geoPoint": {"lat": 26.5909, "lon": -80.10088}}, {"city": "Jacksonville", "state": "Florida", "country": "United States", "geoPoint": {"lat": 30.33218, "lon": -81.65565}}, {"city": "Springfield", "state": "Illinois", "country": "United States", "geoPoint": {"lat": 39.80172, "lon": -89.64371}}, {"city": "Indianapolis", "state": "Indiana", "country": "United States", "geoPoint": {"lat": 39.76838, "lon": -86.15804}}, {"city": "Des Moines", "state": "Iowa", "country": "United States", "geoPoint": {"lat": 41.60054, "lon": -93.60911}}, {"city": "Boston", "state": "Massachusetts", "country": "United States", "geoPoint": {"lat": 42.35843, "lon": -71.05977}}, {"city": "Burlington", "state": "Massachusetts", "country": "United States", "geoPoint": {"lat": 42.50482, "lon": -71.19561}}, {"city": "Ann Arbor", "state": "Michigan", "country": "United States", "geoPoint": {"lat": 42.27756, "lon": -83.74088}}, {"city": "Saginaw", "state": "Michigan", "country": "United States", "geoPoint": {"lat": 43.41947, "lon": -83.95081}}, {"city": "Coon Rapids", "state": "Minnesota", "country": "United States", "geoPoint": {"lat": 45.11997, "lon": -93.28773}}, {"city": "Tupelo", "state": "Mississippi", "country": "United States", "geoPoint": {"lat": 34.25807, "lon": -88.70464}}, {"city": "Lincoln", "state": "Nebraska", "country": "United States", "geoPoint": {"lat": 40.8, "lon": -96.66696}}, {"city": "East Syracuse", "state": "New York", "country": "United States", "geoPoint": {"lat": 43.06534, "lon": -76.07853}}, {"city": "Manhasset", "state": "New York", "country": "United States", "geoPoint": {"lat": 40.79788, "lon": -73.69957}}, {"city": "Winston-Salem", "state": "North Carolina", "country": "United States", "geoPoint": {"lat": 36.09986, "lon": -80.24422}}, {"city": "Cincinnati", "state": "Ohio", "country": "United States", "geoPoint": {"lat": 39.12713, "lon": -84.51435}}, {"city": "Columbus", "state": "Ohio", "country": "United States", "geoPoint": {"lat": 39.96118, "lon": -82.99879}}, {"city": "Marion", "state": "Ohio", "country": "United States", "geoPoint": {"lat": 40.58867, "lon": -83.12852}}, {"city": "Doylestown", "state": "Pennsylvania", "country": "United States", "geoPoint": {"lat": 40.31011, "lon": -75.12989}}, {"city": "Hershey", "state": "Pennsylvania", "country": "United States", "geoPoint": {"lat": 40.28592, "lon": -76.65025}}, {"city": "West Reading", "state": "Pennsylvania", "country": "United States", "geoPoint": {"lat": 40.3337, "lon": -75.94743}}, {"city": "Charleston", "state": "South Carolina", "country": "United States", "geoPoint": {"lat": 32.77657, "lon": -79.93092}}, {"city": "Germantown", "state": "Tennessee", "country": "United States", "geoPoint": {"lat": 35.08676, "lon": -89.81009}}, {"city": "Kingsport", "state": "Tennessee", "country": "United States", "geoPoint": {"lat": 36.54843, "lon": -82.56182}}, {"city": "Austin", "state": "Texas", "country": "United States", "geoPoint": {"lat": 30.26715, "lon": -97.74306}}, {"city": "Houston", "state": "Texas", "country": "United States", "geoPoint": {"lat": 29.76328, "lon": -95.36327}}, {"city": "Salt Lake City", "state": "Utah", "country": "United States", "geoPoint": {"lat": 40.76078, "lon": -111.89105}}, {"city": "Norfolk", "state": "Virginia", "country": "United States", "geoPoint": {"lat": 36.84681, "lon": -76.28522}}, {"city": "Richmond", "state": "Virginia", "country": "United States", "geoPoint": {"lat": 37.55376, "lon": -77.46026}}, {"city": "Madison", "state": "Wisconsin", "country": "United States", "geoPoint": {"lat": 43.07305, "lon": -89.40123}}, {"city": "St. Polten", "country": "Austria", "geoPoint": {"lat": 48.2, "lon": 15.63333}}, {"city": "Weiner Neustadt", "country": "Austria"}, {"city": "Leuven", "country": "Belgium", "geoPoint": {"lat": 50.87959, "lon": 4.70093}}, {"city": "Kingston", "state": "Ontario", "country": "Canada", "geoPoint": {"lat": 44.22976, "lon": -76.48101}}, {"city": "Brno", "country": "Czech Republic", "geoPoint": {"lat": 49.19522, "lon": 16.60796}}, {"city": "Olomouc", "country": "Czech Republic", "geoPoint": {"lat": 49.59552, "lon": 17.25175}}, {"city": "Aalborg", "country": "Denmark", "geoPoint": {"lat": 57.048, "lon": 9.9187}}, {"city": "Aarhus", "country": "Denmark", "geoPoint": {"lat": 56.15674, "lon": 10.21076}}, {"city": "Copenhagen", "country": "Denmark", "geoPoint": {"lat": 55.67594, "lon": 12.56553}}, {"city": "Odense", "country": "Denmark", "geoPoint": {"lat": 55.39594, "lon": 10.38831}}, {"city": "Lyon", "country": "France", "geoPoint": {"lat": 45.74848, "lon": 4.84669}}, {"city": "Marseille", "country": "France", "geoPoint": {"lat": 43.29551, "lon": 5.38958}}, {"city": "Montpellier", "country": "France", "geoPoint": {"lat": 43.61092, "lon": 3.87723}}, {"city": "Nantes", "country": "France", "geoPoint": {"lat": 47.21725, "lon": -1.55336}}, {"city": "Rennes", "country": "France", "geoPoint": {"lat": 48.11198, "lon": -1.67429}}, {"city": "Bochum", "country": "Germany", "geoPoint": {"lat": 51.48165, "lon": 7.21648}}, {"city": "Hamburg", "country": "Germany", "geoPoint": {"lat": 53.57532, "lon": 10.01534}}, {"city": "Hannover", "country": "Germany", "geoPoint": {"lat": 52.37052, "lon": 9.73322}}, {"city": "Budapest", "country": "Hungary", "geoPoint": {"lat": 47.49801, "lon": 19.03991}}, {"city": "Szeged", "country": "Hungary", "geoPoint": {"lat": 46.253, "lon": 20.14824}}, {"city": "Dublin", "country": "Ireland", "geoPoint": {"lat": 53.33306, "lon": -6.24889}}, {"city": "Busto Arsizio", "country": "Italy", "geoPoint": {"lat": 45.61128, "lon": 8.84914}}, {"city": "Florence", "country": "Italy", "geoPoint": {"lat": 43.77925, "lon": 11.24626}}, {"city": "Milano", "country": "Italy", "geoPoint": {"lat": 45.46427, "lon": 9.18951}}, {"city": "Rome", "country": "Italy", "geoPoint": {"lat": 41.89193, "lon": 12.51133}}, {"city": "Kristiansand", "country": "Norway", "geoPoint": {"lat": 58.14671, "lon": 7.9956}}, {"city": "Madrid", "country": "Spain", "geoPoint": {"lat": 40.4165, "lon": -3.70256}}, {"city": "Valencia", "country": "Spain", "geoPoint": {"lat": 39.46975, "lon": -0.37739}}, {"city": "Linkoping", "country": "Sweden", "geoPoint": {"lat": 58.41086, "lon": 15.62157}}, {"city": "Stockholm", "country": "Sweden", "geoPoint": {"lat": 59.33258, "lon": 18.0649}}, {"city": "Blackpool", "country": "United Kingdom", "geoPoint": {"lat": 53.81667, "lon": -3.05}}]}, "referencesModule": {"references": [{"pmid": "19038680", "type": "RESULT", "citation": "Linde C, Abraham WT, Gold MR, St John Sutton M, Ghio S, Daubert C; REVERSE (REsynchronization reVErses Remodeling in Systolic left vEntricular dysfunction) Study Group. Randomized trial of cardiac resynchronization in mildly symptomatic heart failure patients and in asymptomatic patients with left ventricular dysfunction and previous heart failure symptoms. J Am Coll Cardiol. 2008 Dec 2;52(23):1834-1843. doi: 10.1016/j.jacc.2008.08.027. Epub 2008 Nov 7."}, {"pmid": "18401214", "type": "RESULT", "citation": "Linde C, Gold M, Abraham WT, Daubert JC; REVERSE Study Group. Baseline characteristics of patients randomized in The Resynchronization Reverses Remodeling In Systolic Left Ventricular Dysfunction (REVERSE) study. Congest Heart Fail. 2008 Mar-Apr;14(2):66-74. doi: 10.1111/j.1751-7133.2008.07613.x."}, {"pmid": "33640347", "type": "DERIVED", "citation": "Gold MR, Rickard J, Daubert JC, Zimmerman P, Linde C. Redefining the Classifications of Response to Cardiac Resynchronization Therapy: Results From the REVERSE Study. JACC Clin Electrophysiol. 2021 Jul;7(7):871-880. doi: 10.1016/j.jacep.2020.11.010. Epub 2021 Feb 24."}, {"pmid": "29759777", "type": "DERIVED", "citation": "Senfield J, Daubert C, Abraham WT, Ghio S, St John Sutton M, Cerkvenik J, Linde C, Gold MR. The Impact of the PR Interval in Patients Receiving Cardiac Resynchronization Therapy: Results From the REVERSE Study. JACC Clin Electrophysiol. 2017 Aug;3(8):818-826. doi: 10.1016/j.jacep.2017.01.017. Epub 2017 Apr 26."}, {"pmid": "29314424", "type": "DERIVED", "citation": "Linde C, Cleland JGF, Gold MR, Claude Daubert J, Tang ASL, Young JB, Sherfesee L, Abraham WT. The interaction of sex, height, and QRS duration on the effects of cardiac resynchronization therapy on morbidity and mortality: an individual-patient data meta-analysis. Eur J Heart Fail. 2018 Apr;20(4):780-791. doi: 10.1002/ejhf.1133. Epub 2018 Jan 4."}, {"pmid": "28254126", "type": "DERIVED", "citation": "Gold MR, Padhiar A, Mealing S, Sidhu MK, Tsintzos SI, Abraham WT. Economic Value and Cost-Effectiveness of Cardiac Resynchronization Therapy Among Patients With Mild Heart Failure: Projections From the REVERSE Long-Term Follow-Up. JACC Heart Fail. 2017 Mar;5(3):204-212. doi: 10.1016/j.jchf.2016.10.014. Epub 2017 Jan 11."}, {"pmid": "28254122", "type": "DERIVED", "citation": "St John Sutton M, Linde C, Gold MR, Abraham WT, Ghio S, Cerkvenik J, Daubert JC; REVERSE Study Group. Left Ventricular Architecture, Long-Term Reverse Remodeling, and Clinical Outcome in Mild Heart Failure With Cardiac Resynchronization: Results From the REVERSE Trial. JACC Heart Fail. 2017 Mar;5(3):169-178. doi: 10.1016/j.jchf.2016.11.012."}, {"pmid": "26363005", "type": "DERIVED", "citation": "St John Sutton M, Cerkvenik J, Borlaug BA, Daubert C, Gold MR, Ghio S, Chirinos JA, Linde C, Ky B. Effects of Cardiac Resynchronization Therapy on Cardiac Remodeling and Contractile Function: Results From Resynchronization Reverses Remodeling in Systolic Left Ventricular Dysfunction (REVERSE). J Am Heart Assoc. 2015 Sep 11;4(9):e002054. doi: 10.1161/JAHA.115.002054."}, {"pmid": "24125796", "type": "DERIVED", "citation": "Gold MR, Daubert JC, Abraham WT, Hassager C, Dinerman JL, Hudnall JH, Cerkvenik J, Linde C. Implantable defibrillators improve survival in patients with mildly symptomatic heart failure receiving cardiac resynchronization therapy: analysis of the long-term follow-up of remodeling in systolic left ventricular dysfunction (REVERSE). Circ Arrhythm Electrophysiol. 2013 Dec;6(6):1163-8. doi: 10.1161/CIRCEP.113.000570. Epub 2013 Oct 14."}, {"pmid": "24014828", "type": "DERIVED", "citation": "Linde C, Daubert C, Abraham WT, St John Sutton M, Ghio S, Hassager C, Herre JM, Bergemann TL, Gold MR; REsynchronization reVErses Remodeling in Systolic left vEntricular dysfunction (REVERSE) Study Group. Impact of ejection fraction on the clinical response to cardiac resynchronization therapy in mild heart failure. Circ Heart Fail. 2013 Nov;6(6):1180-9. doi: 10.1161/CIRCHEARTFAILURE.113.000326. Epub 2013 Sep 6."}, {"pmid": "23900696", "type": "DERIVED", "citation": "Cleland JG, Abraham WT, Linde C, Gold MR, Young JB, Claude Daubert J, Sherfesee L, Wells GA, Tang AS. An individual patient meta-analysis of five randomized trials assessing the effects of cardiac resynchronization therapy on morbidity and mortality in patients with symptomatic heart failure. Eur Heart J. 2013 Dec;34(46):3547-56. doi: 10.1093/eurheartj/eht290. Epub 2013 Jul 29."}, {"pmid": "23641006", "type": "DERIVED", "citation": "Linde C, Gold MR, Abraham WT, St John Sutton M, Ghio S, Cerkvenik J, Daubert C; REsynchronization reVErses Remodeling in Systolic left vEntricular dysfunction Study Group. Long-term impact of cardiac resynchronization therapy in mild heart failure: 5-year results from the REsynchronization reVErses Remodeling in Systolic left vEntricular dysfunction (REVERSE) study. Eur Heart J. 2013 Sep;34(33):2592-9. doi: 10.1093/eurheartj/eht160. Epub 2013 May 2."}, {"pmid": "22781424", "type": "DERIVED", "citation": "Gold MR, Thebault C, Linde C, Abraham WT, Gerritse B, Ghio S, St John Sutton M, Daubert JC. Effect of QRS duration and morphology on cardiac resynchronization therapy outcomes in mild heart failure: results from the Resynchronization Reverses Remodeling in Systolic Left Ventricular Dysfunction (REVERSE) study. Circulation. 2012 Aug 14;126(7):822-9. doi: 10.1161/CIRCULATIONAHA.112.097709. Epub 2012 Jul 10."}, {"pmid": "22285578", "type": "DERIVED", "citation": "Thebault C, Donal E, Meunier C, Gervais R, Gerritse B, Gold MR, Abraham WT, Linde C, Daubert JC; REVERSE study group. Sites of left and right ventricular lead implantation and response to cardiac resynchronization therapy observations from the REVERSE trial. Eur Heart J. 2012 Nov;33(21):2662-71. doi: 10.1093/eurheartj/ehr505. Epub 2012 Jan 26."}, {"pmid": "21185401", "type": "DERIVED", "citation": "Gold MR, Linde C, Abraham WT, Gardiwal A, Daubert JC. The impact of cardiac resynchronization therapy on the incidence of ventricular arrhythmias in mild heart failure. Heart Rhythm. 2011 May;8(5):679-84. doi: 10.1016/j.hrthm.2010.12.031. Epub 2010 Dec 23."}, {"pmid": "21087711", "type": "DERIVED", "citation": "Linde C, Abraham WT, Gold MR, Daubert C; REVERSE Study Group. Cardiac resynchronization therapy in asymptomatic or mildly symptomatic heart failure patients in relation to etiology: results from the REVERSE (REsynchronization reVErses Remodeling in Systolic Left vEntricular Dysfunction) study. J Am Coll Cardiol. 2010 Nov 23;56(22):1826-31. doi: 10.1016/j.jacc.2010.05.055."}, {"pmid": "20823398", "type": "DERIVED", "citation": "Linde C, Daubert C. Cardiac resynchronization therapy in patients with New York Heart Association class I and II heart failure: an approach to 2010. Circulation. 2010 Sep 7;122(10):1037-43. doi: 10.1161/CIRCULATIONAHA.109.923094. No abstract available."}, {"pmid": "19858419", "type": "DERIVED", "citation": "St John Sutton M, Ghio S, Plappert T, Tavazzi L, Scelsi L, Daubert C, Abraham WT, Gold MR, Hassager C, Herre JM, Linde C; REsynchronization reVErses Remodeling in Systolic left vEntricular dysfunction (REVERSE) Study Group. Cardiac resynchronization induces major structural and functional reverse remodeling in patients with New York Heart Association class I/II heart failure. Circulation. 2009 Nov 10;120(19):1858-65. doi: 10.1161/CIRCULATIONAHA.108.818724. Epub 2009 Oct 26."}, {"pmid": "19800193", "type": "DERIVED", "citation": "Daubert C, Gold MR, Abraham WT, Ghio S, Hassager C, Goode G, Szili-Torok T, Linde C; REVERSE Study Group. Prevention of disease progression by cardiac resynchronization therapy in patients with asymptomatic or mildly symptomatic left ventricular dysfunction: insights from the European cohort of the REVERSE (Resynchronization Reverses Remodeling in Systolic Left Ventricular Dysfunction) trial. J Am Coll Cardiol. 2009 Nov 10;54(20):1837-46. doi: 10.1016/j.jacc.2009.08.011. Epub 2009 Oct 1."}]}}, "resultsSection": {"participantFlowModule": {"preAssignmentDetails": "A total of 684 patients were enrolled in the study. Of these, 642 patients were attempted for cardiac resynchronization therapy (CRT) device implant. 21 were unsuccessful, leaving 621 patients successfully implanted with a CRT device. Of these 621 patients, 610 were randomized.", "recruitmentDetails": "Patients were enrolled from September 2004 through September 2006 at 73 sites located in the United States, Canada, and Europe.", "groups": [{"id": "FG000", "title": "CRT OFF", "description": "Cardiac Resynchronization Therapy (CRT) turned OFF in conjunction with optimal medical therapy"}, {"id": "FG001", "title": "CRT ON", "description": "Cardiac Resynchronization Therapy (CRT) turned ON in conjunction with optimal medical therapy"}], "periods": [{"title": "Overall Study", "milestones": [{"type": "STARTED", "achievements": [{"groupId": "FG000", "numSubjects": "191"}, {"groupId": "FG001", "numSubjects": "419"}]}, {"type": "COMPLETED", "achievements": [{"groupId": "FG000", "numSubjects": "191"}, {"groupId": "FG001", "numSubjects": "419"}]}, {"type": "NOT COMPLETED", "achievements": [{"groupId": "FG000", "numSubjects": "0"}, {"groupId": "FG001", "numSubjects": "0"}]}]}]}, "baselineCharacteristicsModule": {"groups": [{"id": "BG000", "title": "CRT OFF", "description": "Cardiac Resynchronization Therapy (CRT) turned OFF in conjunction with optimal medical therapy"}, {"id": "BG001", "title": "CRT ON", "description": "Cardiac Resynchronization Therapy (CRT) turned ON in conjunction with optimal medical therapy"}, {"id": "BG002", "title": "Total", "description": "Total of all reporting groups"}], "denoms": [{"units": "Participants", "counts": [{"groupId": "BG000", "value": "191"}, {"groupId": "BG001", "value": "419"}, {"groupId": "BG002", "value": "610"}]}], "measures": [{"title": "Age, Categorical", "paramType": "COUNT_OF_PARTICIPANTS", "unitOfMeasure": "Participants", "classes": [{"categories": [{"title": "<=18 years", "measurements": [{"groupId": "BG000", "value": "0"}, {"groupId": "BG001", "value": "0"}, {"groupId": "BG002", "value": "0"}]}, {"title": "Between 18 and 65 years", "measurements": [{"groupId": "BG000", "value": "108"}, {"groupId": "BG001", "value": "229"}, {"groupId": "BG002", "value": "337"}]}, {"title": ">=65 years", "measurements": [{"groupId": "BG000", "value": "83"}, {"groupId": "BG001", "value": "190"}, {"groupId": "BG002", "value": "273"}]}]}]}, {"title": "Age Continuous", "paramType": "MEAN", "dispersionType": "STANDARD_DEVIATION", "unitOfMeasure": "years", "classes": [{"categories": [{"measurements": [{"groupId": "BG000", "value": "61.8", "spread": "11.6"}, {"groupId": "BG001", "value": "62.9", "spread": "10.6"}, {"groupId": "BG002", "value": "62.5", "spread": "11.0"}]}]}]}, {"title": "Sex: Female, Male", "paramType": "COUNT_OF_PARTICIPANTS", "unitOfMeasure": "Participants", "classes": [{"categories": [{"title": "Female", "measurements": [{"groupId": "BG000", "value": "39"}, {"groupId": "BG001", "value": "92"}, {"groupId": "BG002", "value": "131"}]}, {"title": "Male", "measurements": [{"groupId": "BG000", "value": "152"}, {"groupId": "BG001", "value": "327"}, {"groupId": "BG002", "value": "479"}]}]}]}, {"title": "Region of Enrollment", "paramType": "NUMBER", "unitOfMeasure": "participants", "classes": [{"title": "United States", "categories": [{"measurements": [{"groupId": "BG000", "value": "108"}, {"groupId": "BG001", "value": "235"}, {"groupId": "BG002", "value": "343"}]}]}, {"title": "Spain", "categories": [{"measurements": [{"groupId": "BG000", "value": "9"}, {"groupId": "BG001", "value": "18"}, {"groupId": "BG002", "value": "27"}]}]}, {"title": "Ireland", "categories": [{"measurements": [{"groupId": "BG000", "value": "1"}, {"groupId": "BG001", "value": "4"}, {"groupId": "BG002", "value": "5"}]}]}, {"title": "Austria", "categories": [{"measurements": [{"groupId": "BG000", "value": "2"}, {"groupId": "BG001", "value": "4"}, {"groupId": "BG002", "value": "6"}]}]}, {"title": "United Kingdom", "categories": [{"measurements": [{"groupId": "BG000", "value": "6"}, {"groupId": "BG001", "value": "9"}, {"groupId": "BG002", "value": "15"}]}]}, {"title": "Italy", "categories": [{"measurements": [{"groupId": "BG000", "value": "5"}, {"groupId": "BG001", "value": "12"}, {"groupId": "BG002", "value": "17"}]}]}, {"title": "France", "categories": [{"measurements": [{"groupId": "BG000", "value": "15"}, {"groupId": "BG001", "value": "34"}, {"groupId": "BG002", "value": "49"}]}]}, {"title": "Czech Republic", "categories": [{"measurements": [{"groupId": "BG000", "value": "0"}, {"groupId": "BG001", "value": "1"}, {"groupId": "BG002", "value": "1"}]}]}, {"title": "Hungary", "categories": [{"measurements": [{"groupId": "BG000", "value": "6"}, {"groupId": "BG001", "value": "13"}, {"groupId": "BG002", "value": "19"}]}]}, {"title": "Canada", "categories": [{"measurements": [{"groupId": "BG000", "value": "1"}, {"groupId": "BG001", "value": "4"}, {"groupId": "BG002", "value": "5"}]}]}, {"title": "Belgium", "categories": [{"measurements": [{"groupId": "BG000", "value": "1"}, {"groupId": "BG001", "value": "3"}, {"groupId": "BG002", "value": "4"}]}]}, {"title": "Denmark", "categories": [{"measurements": [{"groupId": "BG000", "value": "19"}, {"groupId": "BG001", "value": "46"}, {"groupId": "BG002", "value": "65"}]}]}, {"title": "Germany", "categories": [{"measurements": [{"groupId": "BG000", "value": "6"}, {"groupId": "BG001", "value": "11"}, {"groupId": "BG002", "value": "17"}]}]}, {"title": "Norway", "categories": [{"measurements": [{"groupId": "BG000", "value": "3"}, {"groupId": "BG001", "value": "4"}, {"groupId": "BG002", "value": "7"}]}]}, {"title": "Sweden", "categories": [{"measurements": [{"groupId": "BG000", "value": "7"}, {"groupId": "BG001", "value": "17"}, {"groupId": "BG002", "value": "24"}]}]}, {"title": "Netherlands", "categories": [{"measurements": [{"groupId": "BG000", "value": "2"}, {"groupId": "BG001", "value": "4"}, {"groupId": "BG002", "value": "6"}]}]}]}]}, "outcomeMeasuresModule": {"outcomeMeasures": [{"type": "SECONDARY", "title": "Change in Left Ventricular End Systolic Volume, Indexed (LVESVi)", "description": "The change is LVESVi measured at 12 months minus LVESVi measured at baseline. The 12-month echocardiographic measurements were made with CRT programmed off, irespective of the treatment assignment. In CRT ON patients these measurements were recorded after a 10 minute washout period. Two core laboratories performed all echo measurements.", "reportingStatus": "POSTED", "paramType": "MEAN", "dispersionType": "Standard Deviation", "unitOfMeasure": "milliliters per meters squared", "timeFrame": "Baseline to 12 months", "groups": [{"id": "OG000", "title": "CRT OFF", "description": "Cardiac Resynchronization Therapy (CRT) turned OFF in conjunction with optimal medical therapy"}, {"id": "OG001", "title": "CRT ON", "description": "Cardiac Resynchronization Therapy (CRT) turned ON in conjunction with optimal medical therapy"}], "denoms": [{"units": "Participants", "counts": [{"groupId": "OG000", "value": "191"}, {"groupId": "OG001", "value": "419"}]}], "classes": [{"categories": [{"measurements": [{"groupId": "OG000", "value": "-1.3", "spread": "23.4"}, {"groupId": "OG001", "value": "-18.4", "spread": "29.5"}]}]}], "analyses": [{"groupIds": ["OG000", "OG001"], "groupDescription": "Null hypothesis: mean 12-month change in LVESVi in group 1 = mean 12-month change in LVESVi in group 2.", "testedNonInferiority": false, "nonInferiorityType": "SUPERIORITY_OR_OTHER", "pValue": "<0.0001", "statisticalMethod": "t-test, 2 sided", "ciPctValue": "95"}]}, {"type": "PRIMARY", "title": "Percentage of Patients Worsened for Clinical Composite Response", "description": "Patients considered worsened if they died, were hospitalized with worsening heart failure (HF), crossed over to other arm, demonstrated worsening in New York Heart Association (NYHA) functional class, or reported moderately/markedly worse HF symptoms compared to before CRT implant.", "populationDescription": "All randomized patients were included using Intent to Treat (ITT).", "reportingStatus": "POSTED", "paramType": "NUMBER", "unitOfMeasure": "Percentage of participants worsened", "timeFrame": "12 Months", "groups": [{"id": "OG000", "title": "CRT OFF", "description": "Cardiac Resynchronization Therapy (CRT) turned OFF in conjunction with optimal medical therapy"}, {"id": "OG001", "title": "CRT ON", "description": "Cardiac Resynchronization Therapy (CRT) turned ON in conjunction with optimal medical therapy"}], "denoms": [{"units": "Participants", "counts": [{"groupId": "OG000", "value": "191"}, {"groupId": "OG001", "value": "419"}]}], "classes": [{"categories": [{"measurements": [{"groupId": "OG000", "value": "21.5"}, {"groupId": "OG001", "value": "16"}]}]}], "analyses": [{"groupIds": ["OG000", "OG001"], "groupDescription": "Null hypothesis: Percentage worsened in CRT OFF group = Percentage worsened in CRT ON group", "testedNonInferiority": false, "nonInferiorityType": "SUPERIORITY_OR_OTHER", "pValue": "0.10", "statisticalMethod": "Chi-squared", "ciPctValue": "95"}]}]}, "adverseEventsModule": {"frequencyThreshold": "5", "timeFrame": "Time of enrollment to 5 years post-implant. All AE's were collected until 12 months (North America) and 24 months (Europe) when only cardiovascular, pulmonary, system, and device-related AE's were collected. AE's reported here are as of 3/5/10.", "description": "Serious definition\n\n* Led to a death,\n* Led to a serious deterioration in health that resulted in:\n\n  * a life-threatening illness or injury,\n  * a permanent impairment of a body structure or function\n  * hosp. or prolongation of existing hosp.\n  * medical or surgical intervention to prevent permanent impairment to body structure or a body function.", "eventGroups": [{"id": "EG000", "title": "CRT OFF", "description": "Cardiac Resynchronization Therapy (CRT) turned OFF in conjunction with optimal medical therapy", "seriousNumAffected": 122, "seriousNumAtRisk": 191, "otherNumAffected": 61, "otherNumAtRisk": 119}, {"id": "EG001", "title": "CRT ON", "description": "Cardiac Resynchronization Therapy (CRT) turned ON in conjunction with optimal medical therapy", "seriousNumAffected": 268, "seriousNumAtRisk": 419, "otherNumAffected": 140, "otherNumAtRisk": 491}, {"id": "EG002", "title": "Not Randomized", "description": "These patients were enrolled in the study, but not randomized to CRT ON or CRT OFF. Their adverse events were collected until they exited the study.", "seriousNumAffected": 13, "seriousNumAtRisk": 38, "otherNumAffected": 2, "otherNumAtRisk": 38}], "seriousEvents": [{"term": "Cardiac failure acute", "organSystem": "General disorders", "sourceVocabulary": "MedDRA", "assessmentType": "SYSTEMATIC_ASSESSMENT", "stats": [{"groupId": "EG000", "numEvents": 52, "numAffected": 30, "numAtRisk": 191}, {"groupId": "EG001", "numEvents": 98, "numAffected": 56, "numAtRisk": 419}, {"groupId": "EG002", "numEvents": 5, "numAffected": 2, "numAtRisk": 38}]}, {"term": "Medical device change", "organSystem": "General disorders", "sourceVocabulary": "MedDRA", "assessmentType": "SYSTEMATIC_ASSESSMENT", "stats": [{"groupId": "EG000", "numEvents": 19, "numAffected": 19, "numAtRisk": 191}, {"groupId": "EG001", "numEvents": 46, "numAffected": 45, "numAtRisk": 419}, {"groupId": "EG002", "numEvents": 1, "numAffected": 1, "numAtRisk": 38}]}, {"term": "Ventricular tachycardia", "organSystem": "General disorders", "sourceVocabulary": "MedDRA", "assessmentType": "SYSTEMATIC_ASSESSMENT", "stats": [{"groupId": "EG000", "numEvents": 14, "numAffected": 11, "numAtRisk": 191}, {"groupId": "EG001", "numEvents": 43, "numAffected": 30, "numAtRisk": 419}, {"groupId": "EG002", "numEvents": 1, "numAffected": 1, "numAtRisk": 38}]}, {"term": "LV lead dislodgement", "organSystem": "General disorders", "sourceVocabulary": "MedDRA", "assessmentType": "SYSTEMATIC_ASSESSMENT", "stats": [{"groupId": "EG000", "numEvents": 15, "numAffected": 13, "numAtRisk": 191}, {"groupId": "EG001", "numEvents": 28, "numAffected": 26, "numAtRisk": 419}, {"groupId": "EG002", "numEvents": 2, "numAffected": 2, "numAtRisk": 38}]}, {"term": "Chest pain", "organSystem": "General disorders", "sourceVocabulary": "MedDRA", "assessmentType": "SYSTEMATIC_ASSESSMENT", "stats": [{"groupId": "EG000", "numEvents": 4, "numAffected": 4, "numAtRisk": 191}, {"groupId": "EG001", "numEvents": 25, "numAffected": 21, "numAtRisk": 419}, {"groupId": "EG002", "numEvents": 0, "numAffected": 0, "numAtRisk": 38}]}, {"term": "Pneumonia", "organSystem": "General disorders", "sourceVocabulary": "MedDRA", "assessmentType": "SYSTEMATIC_ASSESSMENT", "stats": [{"groupId": "EG000", "numEvents": 9, "numAffected": 8, "numAtRisk": 191}, {"groupId": "EG001", "numEvents": 19, "numAffected": 16, "numAtRisk": 419}, {"groupId": "EG002", "numEvents": 1, "numAffected": 1, "numAtRisk": 38}]}, {"term": "Atrial fibrillation", "organSystem": "General disorders", "sourceVocabulary": "MedDRA", "assessmentType": "SYSTEMATIC_ASSESSMENT", "stats": [{"groupId": "EG000", "numEvents": 8, "numAffected": 8, "numAtRisk": 191}, {"groupId": "EG001", "numEvents": 19, "numAffected": 15, "numAtRisk": 419}, {"groupId": "EG002", "numEvents": 0, "numAffected": 0, "numAtRisk": 38}]}, {"term": "Device lead damage", "organSystem": "General disorders", "sourceVocabulary": "MedDRA", "assessmentType": "SYSTEMATIC_ASSESSMENT", "stats": [{"groupId": "EG000", "numEvents": 8, "numAffected": 8, "numAtRisk": 191}, {"groupId": "EG001", "numEvents": 18, "numAffected": 18, "numAtRisk": 419}, {"groupId": "EG002", "numEvents": 0, "numAffected": 0, "numAtRisk": 38}]}, {"term": "Inappropriate device therapy", "organSystem": "General disorders", "sourceVocabulary": "MedDRA", "assessmentType": "SYSTEMATIC_ASSESSMENT", "stats": [{"groupId": "EG000", "numEvents": 3, "numAffected": 3, "numAtRisk": 191}, {"groupId": "EG001", "numEvents": 16, "numAffected": 16, "numAtRisk": 419}, {"groupId": "EG002", "numEvents": 0, "numAffected": 0, "numAtRisk": 38}]}, {"term": "Ventricular fibrillation", "organSystem": "General disorders", "sourceVocabulary": "MedDRA", "assessmentType": "SYSTEMATIC_ASSESSMENT", "stats": [{"groupId": "EG000", "numEvents": 4, "numAffected": 4, "numAtRisk": 191}, {"groupId": "EG001", "numEvents": 11, "numAffected": 8, "numAtRisk": 419}, {"groupId": "EG002", "numEvents": 1, "numAffected": 1, "numAtRisk": 38}]}, {"term": "Cardiac failure chronic", "organSystem": "General disorders", "sourceVocabulary": "MedDRA", "assessmentType": "SYSTEMATIC_ASSESSMENT", "stats": [{"groupId": "EG000", "numEvents": 6, "numAffected": 5, "numAtRisk": 191}, {"groupId": "EG001", "numEvents": 6, "numAffected": 5, "numAtRisk": 419}, {"groupId": "EG002", "numEvents": 2, "numAffected": 2, "numAtRisk": 38}]}, {"term": "Chronic obstructive pulmonary disease", "organSystem": "General disorders", "sourceVocabulary": "MedDRA", "assessmentType": "SYSTEMATIC_ASSESSMENT", "stats": [{"groupId": "EG000", "numEvents": 3, "numAffected": 3, "numAtRisk": 191}, {"groupId": "EG001", "numEvents": 11, "numAffected": 7, "numAtRisk": 419}, {"groupId": "EG002", "numEvents": 0, "numAffected": 0, "numAtRisk": 38}]}, {"term": "RV lead dislodgement", "organSystem": "General disorders", "sourceVocabulary": "MedDRA", "assessmentType": "SYSTEMATIC_ASSESSMENT", "stats": [{"groupId": "EG000", "numEvents": 1, "numAffected": 1, "numAtRisk": 191}, {"groupId": "EG001", "numEvents": 13, "numAffected": 13, "numAtRisk": 419}, {"groupId": "EG002", "numEvents": 0, "numAffected": 0, "numAtRisk": 38}]}, {"term": "Syncope", "organSystem": "General disorders", "sourceVocabulary": "MedDRA", "assessmentType": "SYSTEMATIC_ASSESSMENT", "stats": [{"groupId": "EG000", "numEvents": 7, "numAffected": 5, "numAtRisk": 191}, {"groupId": "EG001", "numEvents": 5, "numAffected": 5, "numAtRisk": 419}, {"groupId": "EG002", "numEvents": 1, "numAffected": 1, "numAtRisk": 38}]}, {"term": "Angina pectoris", "organSystem": "General disorders", "sourceVocabulary": "MedDRA", "assessmentType": "SYSTEMATIC_ASSESSMENT", "stats": [{"groupId": "EG000", "numEvents": 4, "numAffected": 4, "numAtRisk": 191}, {"groupId": "EG001", "numEvents": 8, "numAffected": 8, "numAtRisk": 419}, {"groupId": "EG002", "numEvents": 0, "numAffected": 0, "numAtRisk": 38}]}, {"term": "Atrial flutter", "organSystem": "General disorders", "sourceVocabulary": "MedDRA", "assessmentType": "SYSTEMATIC_ASSESSMENT", "stats": [{"groupId": "EG000", "numEvents": 6, "numAffected": 6, "numAtRisk": 191}, {"groupId": "EG001", "numEvents": 5, "numAffected": 4, "numAtRisk": 419}, {"groupId": "EG002", "numEvents": 1, "numAffected": 1, "numAtRisk": 38}]}, {"term": "Inappropriate device irritation of tissue", "organSystem": "General disorders", "sourceVocabulary": "MedDRA", "assessmentType": "SYSTEMATIC_ASSESSMENT", "stats": [{"groupId": "EG000", "numEvents": 3, "numAffected": 3, "numAtRisk": 191}, {"groupId": "EG001", "numEvents": 9, "numAffected": 9, "numAtRisk": 419}, {"groupId": "EG002", "numEvents": 0, "numAffected": 0, "numAtRisk": 38}]}, {"term": "Cerebrovascular accident", "organSystem": "General disorders", "sourceVocabulary": "MedDRA", "assessmentType": "SYSTEMATIC_ASSESSMENT", "stats": [{"groupId": "EG000", "numEvents": 5, "numAffected": 4, "numAtRisk": 191}, {"groupId": "EG001", "numEvents": 6, "numAffected": 5, "numAtRisk": 419}, {"groupId": "EG002", "numEvents": 0, "numAffected": 0, "numAtRisk": 38}]}, {"term": "Gastrointestinal hemorrhage", "organSystem": "General disorders", "sourceVocabulary": "MedDRA", "assessmentType": "SYSTEMATIC_ASSESSMENT", "stats": [{"groupId": "EG000", "numEvents": 6, "numAffected": 6, "numAtRisk": 191}, {"groupId": "EG001", "numEvents": 5, "numAffected": 4, "numAtRisk": 419}, {"groupId": "EG002", "numEvents": 0, "numAffected": 0, "numAtRisk": 38}]}, {"term": "Hypotension", "organSystem": "General disorders", "sourceVocabulary": "MedDRA", "assessmentType": "SYSTEMATIC_ASSESSMENT", "stats": [{"groupId": "EG000", "numEvents": 1, "numAffected": 1, "numAtRisk": 191}, {"groupId": "EG001", "numEvents": 9, "numAffected": 9, "numAtRisk": 419}, {"groupId": "EG002", "numEvents": 1, "numAffected": 1, "numAtRisk": 38}]}, {"term": "Dyspnea", "organSystem": "General disorders", "sourceVocabulary": "MedDRA", "assessmentType": "SYSTEMATIC_ASSESSMENT", "stats": [{"groupId": "EG000", "numEvents": 3, "numAffected": 2, "numAtRisk": 191}, {"groupId": "EG001", "numEvents": 7, "numAffected": 7, "numAtRisk": 419}, {"groupId": "EG002", "numEvents": 0, "numAffected": 0, "numAtRisk": 38}]}, {"term": "Failure to capture", "organSystem": "General disorders", "sourceVocabulary": "MedDRA", "assessmentType": "SYSTEMATIC_ASSESSMENT", "stats": [{"groupId": "EG000", "numEvents": 6, "numAffected": 5, "numAtRisk": 191}, {"groupId": "EG001", "numEvents": 4, "numAffected": 4, "numAtRisk": 419}, {"groupId": "EG002", "numEvents": 0, "numAffected": 0, "numAtRisk": 38}]}, {"term": "Lead dislodgement", "organSystem": "General disorders", "sourceVocabulary": "MedDRA", "assessmentType": "SYSTEMATIC_ASSESSMENT", "stats": [{"groupId": "EG000", "numEvents": 0, "numAffected": 0, "numAtRisk": 191}, {"groupId": "EG001", "numEvents": 10, "numAffected": 8, "numAtRisk": 419}, {"groupId": "EG002", "numEvents": 0, "numAffected": 0, "numAtRisk": 38}]}, {"term": "RA lead dislodgement", "organSystem": "General disorders", "sourceVocabulary": "MedDRA", "assessmentType": "SYSTEMATIC_ASSESSMENT", "stats": [{"groupId": "EG000", "numEvents": 2, "numAffected": 2, "numAtRisk": 191}, {"groupId": "EG001", "numEvents": 8, "numAffected": 8, "numAtRisk": 419}, {"groupId": "EG002", "numEvents": 0, "numAffected": 0, "numAtRisk": 38}]}, {"term": "Renal failure acute", "organSystem": "General disorders", "sourceVocabulary": "MedDRA", "assessmentType": "SYSTEMATIC_ASSESSMENT", "stats": [{"groupId": "EG000", "numEvents": 4, "numAffected": 4, "numAtRisk": 191}, {"groupId": "EG001", "numEvents": 6, "numAffected": 6, "numAtRisk": 419}, {"groupId": "EG002", "numEvents": 0, "numAffected": 0, "numAtRisk": 38}]}, {"term": "Transient ischemic attack", "organSystem": "General disorders", "sourceVocabulary": "MedDRA", "assessmentType": "SYSTEMATIC_ASSESSMENT", "stats": [{"groupId": "EG000", "numEvents": 2, "numAffected": 2, "numAtRisk": 191}, {"groupId": "EG001", "numEvents": 8, "numAffected": 8, "numAtRisk": 419}, {"groupId": "EG002", "numEvents": 0, "numAffected": 0, "numAtRisk": 38}]}, {"term": "Coronary artery disease", "organSystem": "General disorders", "sourceVocabulary": "MedDRA", "assessmentType": "SYSTEMATIC_ASSESSMENT", "stats": [{"groupId": "EG000", "numEvents": 5, "numAffected": 4, "numAtRisk": 191}, {"groupId": "EG001", "numEvents": 3, "numAffected": 3, "numAtRisk": 419}, {"groupId": "EG002", "numEvents": 0, "numAffected": 0, "numAtRisk": 38}]}, {"term": "Carotid artery stenosis", "organSystem": "General disorders", "sourceVocabulary": "MedDRA", "assessmentType": "SYSTEMATIC_ASSESSMENT", "stats": [{"groupId": "EG000", "numEvents": 2, "numAffected": 2, "numAtRisk": 191}, {"groupId": "EG001", "numEvents": 5, "numAffected": 5, "numAtRisk": 419}, {"groupId": "EG002", "numEvents": 0, "numAffected": 0, "numAtRisk": 38}]}, {"term": "Implant site hematoma", "organSystem": "General disorders", "sourceVocabulary": "MedDRA", "assessmentType": "SYSTEMATIC_ASSESSMENT", "stats": [{"groupId": "EG000", "numEvents": 1, "numAffected": 1, "numAtRisk": 191}, {"groupId": "EG001", "numEvents": 6, "numAffected": 6, "numAtRisk": 419}, {"groupId": "EG002", "numEvents": 0, "numAffected": 0, "numAtRisk": 38}]}, {"term": "Myocardial infarction", "organSystem": "General disorders", "sourceVocabulary": "MedDRA", "assessmentType": "SYSTEMATIC_ASSESSMENT", "stats": [{"groupId": "EG000", "numEvents": 3, "numAffected": 3, "numAtRisk": 191}, {"groupId": "EG001", "numEvents": 4, "numAffected": 4, "numAtRisk": 419}, {"groupId": "EG002", "numEvents": 0, "numAffected": 0, "numAtRisk": 38}]}, {"term": "Osteoarthritis", "organSystem": "General disorders", "sourceVocabulary": "MedDRA", "assessmentType": "SYSTEMATIC_ASSESSMENT", "stats": [{"groupId": "EG000", "numEvents": 2, "numAffected": 2, "numAtRisk": 191}, {"groupId": "EG001", "numEvents": 5, "numAffected": 5, "numAtRisk": 419}, {"groupId": "EG002", "numEvents": 0, "numAffected": 0, "numAtRisk": 38}]}, {"term": "Pneumothorax", "organSystem": "General disorders", "sourceVocabulary": "MedDRA", "assessmentType": "SYSTEMATIC_ASSESSMENT", "stats": [{"groupId": "EG000", "numEvents": 0, "numAffected": 0, "numAtRisk": 191}, {"groupId": "EG001", "numEvents": 6, "numAffected": 5, "numAtRisk": 419}, {"groupId": "EG002", "numEvents": 0, "numAffected": 0, "numAtRisk": 38}]}, {"term": "Acute myocardial infarction", "organSystem": "General disorders", "sourceVocabulary": "MedDRA", "assessmentType": "SYSTEMATIC_ASSESSMENT", "stats": [{"groupId": "EG000", "numEvents": 1, "numAffected": 1, "numAtRisk": 191}, {"groupId": "EG001", "numEvents": 4, "numAffected": 4, "numAtRisk": 419}, {"groupId": "EG002", "numEvents": 0, "numAffected": 0, "numAtRisk": 38}]}, {"term": "Atrial tachycardia", "organSystem": "General disorders", "sourceVocabulary": "MedDRA", "assessmentType": "SYSTEMATIC_ASSESSMENT", "stats": [{"groupId": "EG000", "numEvents": 1, "numAffected": 1, "numAtRisk": 191}, {"groupId": "EG001", "numEvents": 3, "numAffected": 3, "numAtRisk": 419}, {"groupId": "EG002", "numEvents": 1, "numAffected": 1, "numAtRisk": 38}]}, {"term": "Ischemic stroke", "organSystem": "General disorders", "sourceVocabulary": "MedDRA", "assessmentType": "SYSTEMATIC_ASSESSMENT", "stats": [{"groupId": "EG000", "numEvents": 0, "numAffected": 0, "numAtRisk": 191}, {"groupId": "EG001", "numEvents": 5, "numAffected": 3, "numAtRisk": 419}, {"groupId": "EG002", "numEvents": 0, "numAffected": 0, "numAtRisk": 38}]}, {"term": "Pericardial effusion", "organSystem": "General disorders", "sourceVocabulary": "MedDRA", "assessmentType": "SYSTEMATIC_ASSESSMENT", "stats": [{"groupId": "EG000", "numEvents": 2, "numAffected": 2, "numAtRisk": 191}, {"groupId": "EG001", "numEvents": 3, "numAffected": 3, "numAtRisk": 419}, {"groupId": "EG002", "numEvents": 0, "numAffected": 0, "numAtRisk": 38}]}, {"term": "Peripheral vascular disorder", "organSystem": "General disorders", "sourceVocabulary": "MedDRA", "assessmentType": "SYSTEMATIC_ASSESSMENT", "stats": [{"groupId": "EG000", "numEvents": 3, "numAffected": 1, "numAtRisk": 191}, {"groupId": "EG001", "numEvents": 1, "numAffected": 1, "numAtRisk": 419}, {"groupId": "EG002", "numEvents": 1, "numAffected": 1, "numAtRisk": 38}]}, {"term": "Renal failure", "organSystem": "General disorders", "sourceVocabulary": "MedDRA", "assessmentType": "SYSTEMATIC_ASSESSMENT", "stats": [{"groupId": "EG000", "numEvents": 2, "numAffected": 2, "numAtRisk": 191}, {"groupId": "EG001", "numEvents": 3, "numAffected": 3, "numAtRisk": 419}, {"groupId": "EG002", "numEvents": 0, "numAffected": 0, "numAtRisk": 38}]}, {"term": "Sudden cardiac death", "organSystem": "General disorders", "sourceVocabulary": "MedDRA", "assessmentType": "SYSTEMATIC_ASSESSMENT", "stats": [{"groupId": "EG000", "numEvents": 2, "numAffected": 2, "numAtRisk": 191}, {"groupId": "EG001", "numEvents": 3, "numAffected": 3, "numAtRisk": 419}, {"groupId": "EG002", "numEvents": 0, "numAffected": 0, "numAtRisk": 38}]}, {"term": "Acute pulmonary edema", "organSystem": "General disorders", "sourceVocabulary": "MedDRA", "assessmentType": "SYSTEMATIC_ASSESSMENT", "stats": [{"groupId": "EG000", "numEvents": 0, "numAffected": 0, "numAtRisk": 191}, {"groupId": "EG001", "numEvents": 3, "numAffected": 3, "numAtRisk": 419}, {"groupId": "EG002", "numEvents": 1, "numAffected": 1, "numAtRisk": 38}]}, {"term": "Anemia", "organSystem": "General disorders", "sourceVocabulary": "MedDRA", "assessmentType": "SYSTEMATIC_ASSESSMENT", "stats": [{"groupId": "EG000", "numEvents": 0, "numAffected": 0, "numAtRisk": 191}, {"groupId": "EG001", "numEvents": 4, "numAffected": 4, "numAtRisk": 419}, {"groupId": "EG002", "numEvents": 0, "numAffected": 0, "numAtRisk": 38}]}, {"term": "Asthma", "organSystem": "General disorders", "sourceVocabulary": "MedDRA", "assessmentType": "SYSTEMATIC_ASSESSMENT", "stats": [{"groupId": "EG000", "numEvents": 0, "numAffected": 0, "numAtRisk": 191}, {"groupId": "EG001", "numEvents": 3, "numAffected": 2, "numAtRisk": 419}, {"groupId": "EG002", "numEvents": 1, "numAffected": 1, "numAtRisk": 38}]}, {"term": "Atrioventricular block complete", "organSystem": "General disorders", "sourceVocabulary": "MedDRA", "assessmentType": "SYSTEMATIC_ASSESSMENT", "stats": [{"groupId": "EG000", "numEvents": 0, "numAffected": 0, "numAtRisk": 191}, {"groupId": "EG001", "numEvents": 1, "numAffected": 1, "numAtRisk": 419}, {"groupId": "EG002", "numEvents": 3, "numAffected": 3, "numAtRisk": 38}]}, {"term": "Bradycardia", "organSystem": "General disorders", "sourceVocabulary": "MedDRA", "assessmentType": "SYSTEMATIC_ASSESSMENT", "stats": [{"groupId": "EG000", "numEvents": 1, "numAffected": 1, "numAtRisk": 191}, {"groupId": "EG001", "numEvents": 3, "numAffected": 3, "numAtRisk": 419}, {"groupId": "EG002", "numEvents": 0, "numAffected": 0, "numAtRisk": 38}]}, {"term": "Bronchitis", "organSystem": "General disorders", "sourceVocabulary": "MedDRA", "assessmentType": "SYSTEMATIC_ASSESSMENT", "stats": [{"groupId": "EG000", "numEvents": 0, "numAffected": 0, "numAtRisk": 191}, {"groupId": "EG001", "numEvents": 4, "numAffected": 3, "numAtRisk": 419}, {"groupId": "EG002", "numEvents": 0, "numAffected": 0, "numAtRisk": 38}]}, {"term": "Cardiac arrest", "organSystem": "General disorders", "sourceVocabulary": "MedDRA", "assessmentType": "SYSTEMATIC_ASSESSMENT", "stats": [{"groupId": "EG000", "numEvents": 2, "numAffected": 2, "numAtRisk": 191}, {"groupId": "EG001", "numEvents": 2, "numAffected": 2, "numAtRisk": 419}, {"groupId": "EG002", "numEvents": 0, "numAffected": 0, "numAtRisk": 38}]}, {"term": "Cholecystitis acute", "organSystem": "General disorders", "sourceVocabulary": "MedDRA", "assessmentType": "SYSTEMATIC_ASSESSMENT", "stats": [{"groupId": "EG000", "numEvents": 2, "numAffected": 2, "numAtRisk": 191}, {"groupId": "EG001", "numEvents": 2, "numAffected": 2, "numAtRisk": 419}, {"groupId": "EG002", "numEvents": 0, "numAffected": 0, "numAtRisk": 38}]}, {"term": "Deep vein thrombosis", "organSystem": "General disorders", "sourceVocabulary": "MedDRA", "assessmentType": "SYSTEMATIC_ASSESSMENT", "stats": [{"groupId": "EG000", "numEvents": 2, "numAffected": 2, "numAtRisk": 191}, {"groupId": "EG001", "numEvents": 2, "numAffected": 2, "numAtRisk": 419}, {"groupId": "EG002", "numEvents": 0, "numAffected": 0, "numAtRisk": 38}]}, {"term": "Implant site infection", "organSystem": "General disorders", "sourceVocabulary": "MedDRA", "assessmentType": "SYSTEMATIC_ASSESSMENT", "stats": [{"groupId": "EG000", "numEvents": 2, "numAffected": 2, "numAtRisk": 191}, {"groupId": "EG001", "numEvents": 2, "numAffected": 1, "numAtRisk": 419}, {"groupId": "EG002", "numEvents": 0, "numAffected": 0, "numAtRisk": 38}]}, {"term": "Inappropriate device signal detection", "organSystem": "General disorders", "sourceVocabulary": "MedDRA", "assessmentType": "SYSTEMATIC_ASSESSMENT", "stats": [{"groupId": "EG000", "numEvents": 3, "numAffected": 3, "numAtRisk": 191}, {"groupId": "EG001", "numEvents": 1, "numAffected": 1, "numAtRisk": 419}, {"groupId": "EG002", "numEvents": 0, "numAffected": 0, "numAtRisk": 38}]}, {"term": "Ischemic cardiomyopathy", "organSystem": "General disorders", "sourceVocabulary": "MedDRA", "assessmentType": "SYSTEMATIC_ASSESSMENT", "stats": [{"groupId": "EG000", "numEvents": 1, "numAffected": 1, "numAtRisk": 191}, {"groupId": "EG001", "numEvents": 2, "numAffected": 2, "numAtRisk": 419}, {"groupId": "EG002", "numEvents": 1, "numAffected": 1, "numAtRisk": 38}]}, {"term": "Lung neoplasm malignant", "organSystem": "General disorders", "sourceVocabulary": "MedDRA", "assessmentType": "SYSTEMATIC_ASSESSMENT", "stats": [{"groupId": "EG000", "numEvents": 2, "numAffected": 2, "numAtRisk": 191}, {"groupId": "EG001", "numEvents": 2, "numAffected": 2, "numAtRisk": 419}, {"groupId": "EG002", "numEvents": 0, "numAffected": 0, "numAtRisk": 38}]}, {"term": "Respiratory failure", "organSystem": "General disorders", "sourceVocabulary": "MedDRA", "assessmentType": "SYSTEMATIC_ASSESSMENT", "stats": [{"groupId": "EG000", "numEvents": 1, "numAffected": 1, "numAtRisk": 191}, {"groupId": "EG001", "numEvents": 3, "numAffected": 3, "numAtRisk": 419}, {"groupId": "EG002", "numEvents": 0, "numAffected": 0, "numAtRisk": 38}]}, {"term": "Acute respiratory failure", "organSystem": "General disorders", "sourceVocabulary": "MedDRA", "assessmentType": "SYSTEMATIC_ASSESSMENT", "stats": [{"groupId": "EG000", "numEvents": 2, "numAffected": 2, "numAtRisk": 191}, {"groupId": "EG001", "numEvents": 1, "numAffected": 1, "numAtRisk": 419}, {"groupId": "EG002", "numEvents": 0, "numAffected": 0, "numAtRisk": 38}]}, {"term": "Angina unstable", "organSystem": "General disorders", "sourceVocabulary": "MedDRA", "assessmentType": "SYSTEMATIC_ASSESSMENT", "stats": [{"groupId": "EG000", "numEvents": 0, "numAffected": 0, "numAtRisk": 191}, {"groupId": "EG001", "numEvents": 3, "numAffected": 3, "numAtRisk": 419}, {"groupId": "EG002", "numEvents": 0, "numAffected": 0, "numAtRisk": 38}]}, {"term": "Aortic aneurysm", "organSystem": "General disorders", "sourceVocabulary": "MedDRA", "assessmentType": "SYSTEMATIC_ASSESSMENT", "stats": [{"groupId": "EG000", "numEvents": 2, "numAffected": 2, "numAtRisk": 191}, {"groupId": "EG001", "numEvents": 1, "numAffected": 1, "numAtRisk": 419}, {"groupId": "EG002", "numEvents": 0, "numAffected": 0, "numAtRisk": 38}]}, {"term": "Atrioventricular block third degree", "organSystem": "General disorders", "sourceVocabulary": "MedDRA", "assessmentType": "SYSTEMATIC_ASSESSMENT", "stats": [{"groupId": "EG000", "numEvents": 1, "numAffected": 1, "numAtRisk": 191}, {"groupId": "EG001", "numEvents": 2, "numAffected": 2, "numAtRisk": 419}, {"groupId": "EG002", "numEvents": 0, "numAffected": 0, "numAtRisk": 38}]}, {"term": "Back pain", "organSystem": "General disorders", "sourceVocabulary": "MedDRA", "assessmentType": "SYSTEMATIC_ASSESSMENT", "stats": [{"groupId": "EG000", "numEvents": 1, "numAffected": 1, "numAtRisk": 191}, {"groupId": "EG001", "numEvents": 2, "numAffected": 2, "numAtRisk": 419}, {"groupId": "EG002", "numEvents": 0, "numAffected": 0, "numAtRisk": 38}]}, {"term": "Bronchitis acute", "organSystem": "General disorders", "sourceVocabulary": "MedDRA", "assessmentType": "SYSTEMATIC_ASSESSMENT", "stats": [{"groupId": "EG000", "numEvents": 0, "numAffected": 0, "numAtRisk": 191}, {"groupId": "EG001", "numEvents": 3, "numAffected": 3, "numAtRisk": 419}, {"groupId": "EG002", "numEvents": 0, "numAffected": 0, "numAtRisk": 38}]}, {"term": "Cardiac perforation", "organSystem": "General disorders", "sourceVocabulary": "MedDRA", "assessmentType": "SYSTEMATIC_ASSESSMENT", "stats": [{"groupId": "EG000", "numEvents": 0, "numAffected": 0, "numAtRisk": 191}, {"groupId": "EG001", "numEvents": 2, "numAffected": 2, "numAtRisk": 419}, {"groupId": "EG002", "numEvents": 1, "numAffected": 1, "numAtRisk": 38}]}, {"term": "Cardiac tamponade", "organSystem": "General disorders", "sourceVocabulary": "MedDRA", "assessmentType": "SYSTEMATIC_ASSESSMENT", "stats": [{"groupId": "EG000", "numEvents": 1, "numAffected": 1, "numAtRisk": 191}, {"groupId": "EG001", "numEvents": 1, "numAffected": 1, "numAtRisk": 419}, {"groupId": "EG002", "numEvents": 1, "numAffected": 1, "numAtRisk": 38}]}, {"term": "Contusion", "organSystem": "General disorders", "sourceVocabulary": "MedDRA", "assessmentType": "SYSTEMATIC_ASSESSMENT", "stats": [{"groupId": "EG000", "numEvents": 1, "numAffected": 1, "numAtRisk": 191}, {"groupId": "EG001", "numEvents": 1, "numAffected": 1, "numAtRisk": 419}, {"groupId": "EG002", "numEvents": 1, "numAffected": 1, "numAtRisk": 38}]}, {"term": "Defibrillation threshold increased", "organSystem": "General disorders", "sourceVocabulary": "MedDRA", "assessmentType": "SYSTEMATIC_ASSESSMENT", "stats": [{"groupId": "EG000", "numEvents": 1, "numAffected": 1, "numAtRisk": 191}, {"groupId": "EG001", "numEvents": 2, "numAffected": 2, "numAtRisk": 419}, {"groupId": "EG002", "numEvents": 0, "numAffected": 0, "numAtRisk": 38}]}, {"term": "Dehydration", "organSystem": "General disorders", "sourceVocabulary": "MedDRA", "assessmentType": "SYSTEMATIC_ASSESSMENT", "stats": [{"groupId": "EG000", "numEvents": 1, "numAffected": 1, "numAtRisk": 191}, {"groupId": "EG001", "numEvents": 2, "numAffected": 2, "numAtRisk": 419}, {"groupId": "EG002", "numEvents": 0, "numAffected": 0, "numAtRisk": 38}]}, {"term": "Dizziness", "organSystem": "General disorders", "sourceVocabulary": "MedDRA", "assessmentType": "SYSTEMATIC_ASSESSMENT", "stats": [{"groupId": "EG000", "numEvents": 0, "numAffected": 0, "numAtRisk": 191}, {"groupId": "EG001", "numEvents": 3, "numAffected": 2, "numAtRisk": 419}, {"groupId": "EG002", "numEvents": 0, "numAffected": 0, "numAtRisk": 38}]}, {"term": "Esophageal carcinoma", "organSystem": "General disorders", "sourceVocabulary": "MedDRA", "assessmentType": "SYSTEMATIC_ASSESSMENT", "stats": [{"groupId": "EG000", "numEvents": 0, "numAffected": 0, "numAtRisk": 191}, {"groupId": "EG001", "numEvents": 3, "numAffected": 3, "numAtRisk": 419}, {"groupId": "EG002", "numEvents": 0, "numAffected": 0, "numAtRisk": 38}]}, {"term": "Hematoma", "organSystem": "General disorders", "sourceVocabulary": "MedDRA", "assessmentType": "SYSTEMATIC_ASSESSMENT", "stats": [{"groupId": "EG000", "numEvents": 0, "numAffected": 0, "numAtRisk": 191}, {"groupId": "EG001", "numEvents": 3, "numAffected": 3, "numAtRisk": 419}, {"groupId": "EG002", "numEvents": 0, "numAffected": 0, "numAtRisk": 38}]}, {"term": "Intracardiac thrombus", "organSystem": "General disorders", "sourceVocabulary": "MedDRA", "assessmentType": "SYSTEMATIC_ASSESSMENT", "stats": [{"groupId": "EG000", "numEvents": 1, "numAffected": 1, "numAtRisk": 191}, {"groupId": "EG001", "numEvents": 2, "numAffected": 2, "numAtRisk": 419}, {"groupId": "EG002", "numEvents": 0, "numAffected": 0, "numAtRisk": 38}]}, {"term": "Myocardial ischemia", "organSystem": "General disorders", "sourceVocabulary": "MedDRA", "assessmentType": "SYSTEMATIC_ASSESSMENT", "stats": [{"groupId": "EG000", "numEvents": 1, "numAffected": 1, "numAtRisk": 191}, {"groupId": "EG001", "numEvents": 2, "numAffected": 2, "numAtRisk": 419}, {"groupId": "EG002", "numEvents": 0, "numAffected": 0, "numAtRisk": 38}]}, {"term": "Non-cardiac chest pain", "organSystem": "General disorders", "sourceVocabulary": "MedDRA", "assessmentType": "SYSTEMATIC_ASSESSMENT", "stats": [{"groupId": "EG000", "numEvents": 0, "numAffected": 0, "numAtRisk": 191}, {"groupId": "EG001", "numEvents": 3, "numAffected": 3, "numAtRisk": 419}, {"groupId": "EG002", "numEvents": 0, "numAffected": 0, "numAtRisk": 38}]}, {"term": "Pericarditis", "organSystem": "General disorders", "sourceVocabulary": "MedDRA", "assessmentType": "SYSTEMATIC_ASSESSMENT", "stats": [{"groupId": "EG000", "numEvents": 0, "numAffected": 0, "numAtRisk": 191}, {"groupId": "EG001", "numEvents": 3, "numAffected": 2, "numAtRisk": 419}, {"groupId": "EG002", "numEvents": 0, "numAffected": 0, "numAtRisk": 38}]}, {"term": "Presyncope", "organSystem": "General disorders", "sourceVocabulary": "MedDRA", "assessmentType": "SYSTEMATIC_ASSESSMENT", "stats": [{"groupId": "EG000", "numEvents": 1, "numAffected": 1, "numAtRisk": 191}, {"groupId": "EG001", "numEvents": 2, "numAffected": 2, "numAtRisk": 419}, {"groupId": "EG002", "numEvents": 0, "numAffected": 0, "numAtRisk": 38}]}, {"term": "Prostate examination abnormal", "organSystem": "General disorders", "sourceVocabulary": "MedDRA", "assessmentType": "SYSTEMATIC_ASSESSMENT", "stats": [{"groupId": "EG000", "numEvents": 0, "numAffected": 0, "numAtRisk": 191}, {"groupId": "EG001", "numEvents": 3, "numAffected": 3, "numAtRisk": 419}, {"groupId": "EG002", "numEvents": 0, "numAffected": 0, "numAtRisk": 38}]}, {"term": "Pulmonary edema", "organSystem": "General disorders", "sourceVocabulary": "MedDRA", "assessmentType": "SYSTEMATIC_ASSESSMENT", "stats": [{"groupId": "EG000", "numEvents": 2, "numAffected": 2, "numAtRisk": 191}, {"groupId": "EG001", "numEvents": 1, "numAffected": 1, "numAtRisk": 419}, {"groupId": "EG002", "numEvents": 0, "numAffected": 0, "numAtRisk": 38}]}, {"term": "Subclavian vein thrombosis", "organSystem": "General disorders", "sourceVocabulary": "MedDRA", "assessmentType": "SYSTEMATIC_ASSESSMENT", "stats": [{"groupId": "EG000", "numEvents": 1, "numAffected": 1, "numAtRisk": 191}, {"groupId": "EG001", "numEvents": 2, "numAffected": 2, "numAtRisk": 419}, {"groupId": "EG002", "numEvents": 0, "numAffected": 0, "numAtRisk": 38}]}, {"term": "Therapeutic agent toxicity", "organSystem": "General disorders", "sourceVocabulary": "MedDRA", "assessmentType": "SYSTEMATIC_ASSESSMENT", "stats": [{"groupId": "EG000", "numEvents": 2, "numAffected": 1, "numAtRisk": 191}, {"groupId": "EG001", "numEvents": 1, "numAffected": 1, "numAtRisk": 419}, {"groupId": "EG002", "numEvents": 0, "numAffected": 0, "numAtRisk": 38}]}, {"term": "Anxiety", "organSystem": "General disorders", "sourceVocabulary": "MedDRA", "assessmentType": "SYSTEMATIC_ASSESSMENT", "stats": [{"groupId": "EG000", "numEvents": 0, "numAffected": 0, "numAtRisk": 191}, {"groupId": "EG001", "numEvents": 1, "numAffected": 1, "numAtRisk": 419}, {"groupId": "EG002", "numEvents": 1, "numAffected": 1, "numAtRisk": 38}]}, {"term": "Aortic stenosis", "organSystem": "General disorders", "sourceVocabulary": "MedDRA", "assessmentType": "SYSTEMATIC_ASSESSMENT", "stats": [{"groupId": "EG000", "numEvents": 1, "numAffected": 1, "numAtRisk": 191}, {"groupId": "EG001", "numEvents": 1, "numAffected": 1, "numAtRisk": 419}, {"groupId": "EG002", "numEvents": 0, "numAffected": 0, "numAtRisk": 38}]}, {"term": "Arrhythmia supraventricular", "organSystem": "General disorders", "sourceVocabulary": "MedDRA", "assessmentType": "SYSTEMATIC_ASSESSMENT", "stats": [{"groupId": "EG000", "numEvents": 0, "numAffected": 0, "numAtRisk": 191}, {"groupId": "EG001", "numEvents": 2, "numAffected": 2, "numAtRisk": 419}, {"groupId": "EG002", "numEvents": 0, "numAffected": 0, "numAtRisk": 38}]}, {"term": "Arteriovenous fistula", "organSystem": "General disorders", "sourceVocabulary": "MedDRA", "assessmentType": "SYSTEMATIC_ASSESSMENT", "stats": [{"groupId": "EG000", "numEvents": 0, "numAffected": 0, "numAtRisk": 191}, {"groupId": "EG001", "numEvents": 1, "numAffected": 1, "numAtRisk": 419}, {"groupId": "EG002", "numEvents": 1, "numAffected": 1, "numAtRisk": 38}]}, {"term": "Biliary colic", "organSystem": "General disorders", "sourceVocabulary": "MedDRA", "assessmentType": "SYSTEMATIC_ASSESSMENT", "stats": [{"groupId": "EG000", "numEvents": 1, "numAffected": 1, "numAtRisk": 191}, {"groupId": "EG001", "numEvents": 1, "numAffected": 1, "numAtRisk": 419}, {"groupId": "EG002", "numEvents": 0, "numAffected": 0, "numAtRisk": 38}]}, {"term": "Cholecystitis", "organSystem": "General disorders", "sourceVocabulary": "MedDRA", "assessmentType": "SYSTEMATIC_ASSESSMENT", "stats": [{"groupId": "EG000", "numEvents": 1, "numAffected": 1, "numAtRisk": 191}, {"groupId": "EG001", "numEvents": 1, "numAffected": 1, "numAtRisk": 419}, {"groupId": "EG002", "numEvents": 0, "numAffected": 0, "numAtRisk": 38}]}, {"term": "Cholelithiasis", "organSystem": "General disorders", "sourceVocabulary": "MedDRA", "assessmentType": "SYSTEMATIC_ASSESSMENT", "stats": [{"groupId": "EG000", "numEvents": 0, "numAffected": 0, "numAtRisk": 191}, {"groupId": "EG001", "numEvents": 2, "numAffected": 2, "numAtRisk": 419}, {"groupId": "EG002", "numEvents": 0, "numAffected": 0, "numAtRisk": 38}]}, {"term": "Coronary artery dissection", "organSystem": "General disorders", "sourceVocabulary": "MedDRA", "assessmentType": "SYSTEMATIC_ASSESSMENT", "stats": [{"groupId": "EG000", "numEvents": 0, "numAffected": 0, "numAtRisk": 191}, {"groupId": "EG001", "numEvents": 2, "numAffected": 2, "numAtRisk": 419}, {"groupId": "EG002", "numEvents": 0, "numAffected": 0, "numAtRisk": 38}]}, {"term": "Coronary artery stenosis", "organSystem": "General disorders", "sourceVocabulary": "MedDRA", "assessmentType": "SYSTEMATIC_ASSESSMENT", "stats": [{"groupId": "EG000", "numEvents": 2, "numAffected": 2, "numAtRisk": 191}, {"groupId": "EG001", "numEvents": 0, "numAffected": 0, "numAtRisk": 419}, {"groupId": "EG002", "numEvents": 0, "numAffected": 0, "numAtRisk": 38}]}, {"term": "Death", "organSystem": "General disorders", "sourceVocabulary": "MedDRA", "assessmentType": "SYSTEMATIC_ASSESSMENT", "stats": [{"groupId": "EG000", "numEvents": 1, "numAffected": 1, "numAtRisk": 191}, {"groupId": "EG001", "numEvents": 1, "numAffected": 1, "numAtRisk": 419}, {"groupId": "EG002", "numEvents": 0, "numAffected": 0, "numAtRisk": 38}]}, {"term": "Diabetes mellitus", "organSystem": "General disorders", "sourceVocabulary": "MedDRA", "assessmentType": "SYSTEMATIC_ASSESSMENT", "stats": [{"groupId": "EG000", "numEvents": 1, "numAffected": 1, "numAtRisk": 191}, {"groupId": "EG001", "numEvents": 1, "numAffected": 1, "numAtRisk": 419}, {"groupId": "EG002", "numEvents": 0, "numAffected": 0, "numAtRisk": 38}]}, {"term": "Diabetes mellitus inadequate control", "organSystem": "General disorders", "sourceVocabulary": "MedDRA", "assessmentType": "SYSTEMATIC_ASSESSMENT", "stats": [{"groupId": "EG000", "numEvents": 1, "numAffected": 1, "numAtRisk": 191}, {"groupId": "EG001", "numEvents": 1, "numAffected": 1, "numAtRisk": 419}, {"groupId": "EG002", "numEvents": 0, "numAffected": 0, "numAtRisk": 38}]}, {"term": "Drug hypersensitivity", "organSystem": "General disorders", "sourceVocabulary": "MedDRA", "assessmentType": "SYSTEMATIC_ASSESSMENT", "stats": [{"groupId": "EG000", "numEvents": 1, "numAffected": 1, "numAtRisk": 191}, {"groupId": "EG001", "numEvents": 1, "numAffected": 1, "numAtRisk": 419}, {"groupId": "EG002", "numEvents": 0, "numAffected": 0, "numAtRisk": 38}]}, {"term": "Drug toxicity", "organSystem": "General disorders", "sourceVocabulary": "MedDRA", "assessmentType": "SYSTEMATIC_ASSESSMENT", "stats": [{"groupId": "EG000", "numEvents": 2, "numAffected": 1, "numAtRisk": 191}, {"groupId": "EG001", "numEvents": 0, "numAffected": 0, "numAtRisk": 419}, {"groupId": "EG002", "numEvents": 0, "numAffected": 0, "numAtRisk": 38}]}, {"term": "Dyspnea exertional", "organSystem": "General disorders", "sourceVocabulary": "MedDRA", "assessmentType": "SYSTEMATIC_ASSESSMENT", "stats": [{"groupId": "EG000", "numEvents": 1, "numAffected": 1, "numAtRisk": 191}, {"groupId": "EG001", "numEvents": 1, "numAffected": 1, "numAtRisk": 419}, {"groupId": "EG002", "numEvents": 0, "numAffected": 0, "numAtRisk": 38}]}, {"term": "Electromechanical dissociation", "organSystem": "General disorders", "sourceVocabulary": "MedDRA", "assessmentType": "SYSTEMATIC_ASSESSMENT", "stats": [{"groupId": "EG000", "numEvents": 1, "numAffected": 1, "numAtRisk": 191}, {"groupId": "EG001", "numEvents": 0, "numAffected": 0, "numAtRisk": 419}, {"groupId": "EG002", "numEvents": 1, "numAffected": 1, "numAtRisk": 38}]}, {"term": "Fatigue", "organSystem": "General disorders", "sourceVocabulary": "MedDRA", "assessmentType": "SYSTEMATIC_ASSESSMENT", "stats": [{"groupId": "EG000", "numEvents": 0, "numAffected": 0, "numAtRisk": 191}, {"groupId": "EG001", "numEvents": 2, "numAffected": 2, "numAtRisk": 419}, {"groupId": "EG002", "numEvents": 0, "numAffected": 0, "numAtRisk": 38}]}, {"term": "Heart transplant", "organSystem": "General disorders", "sourceVocabulary": "MedDRA", "assessmentType": "SYSTEMATIC_ASSESSMENT", "stats": [{"groupId": "EG000", "numEvents": 1, "numAffected": 1, "numAtRisk": 191}, {"groupId": "EG001", "numEvents": 1, "numAffected": 1, "numAtRisk": 419}, {"groupId": "EG002", "numEvents": 0, "numAffected": 0, "numAtRisk": 38}]}, {"term": "Hyperglycemia", "organSystem": "General disorders", "sourceVocabulary": "MedDRA", "assessmentType": "SYSTEMATIC_ASSESSMENT", "stats": [{"groupId": "EG000", "numEvents": 0, "numAffected": 0, "numAtRisk": 191}, {"groupId": "EG001", "numEvents": 2, "numAffected": 2, "numAtRisk": 419}, {"groupId": "EG002", "numEvents": 0, "numAffected": 0, "numAtRisk": 38}]}, {"term": "Inappropriate device stimulation of tissue", "organSystem": "General disorders", "sourceVocabulary": "MedDRA", "assessmentType": "SYSTEMATIC_ASSESSMENT", "stats": [{"groupId": "EG000", "numEvents": 2, "numAffected": 2, "numAtRisk": 191}, {"groupId": "EG001", "numEvents": 0, "numAffected": 0, "numAtRisk": 419}, {"groupId": "EG002", "numEvents": 0, "numAffected": 0, "numAtRisk": 38}]}, {"term": "Mental status changes", "organSystem": "General disorders", "sourceVocabulary": "MedDRA", "assessmentType": "SYSTEMATIC_ASSESSMENT", "stats": [{"groupId": "EG000", "numEvents": 1, "numAffected": 1, "numAtRisk": 191}, {"groupId": "EG001", "numEvents": 1, "numAffected": 1, "numAtRisk": 419}, {"groupId": "EG002", "numEvents": 0, "numAffected": 0, "numAtRisk": 38}]}, {"term": "Mitral valve incompetence", "organSystem": "General disorders", "sourceVocabulary": "MedDRA", "assessmentType": "SYSTEMATIC_ASSESSMENT", "stats": [{"groupId": "EG000", "numEvents": 0, "numAffected": 0, "numAtRisk": 191}, {"groupId": "EG001", "numEvents": 2, "numAffected": 1, "numAtRisk": 419}, {"groupId": "EG002", "numEvents": 0, "numAffected": 0, "numAtRisk": 38}]}, {"term": "Orthostatic hypotension", "organSystem": "General disorders", "sourceVocabulary": "MedDRA", "assessmentType": "SYSTEMATIC_ASSESSMENT", "stats": [{"groupId": "EG000", "numEvents": 0, "numAffected": 0, "numAtRisk": 191}, {"groupId": "EG001", "numEvents": 2, "numAffected": 2, "numAtRisk": 419}, {"groupId": "EG002", "numEvents": 0, "numAffected": 0, "numAtRisk": 38}]}, {"term": "Oversensing", "organSystem": "General disorders", "sourceVocabulary": "MedDRA", "assessmentType": "SYSTEMATIC_ASSESSMENT", "stats": [{"groupId": "EG000", "numEvents": 0, "numAffected": 0, "numAtRisk": 191}, {"groupId": "EG001", "numEvents": 2, "numAffected": 2, "numAtRisk": 419}, {"groupId": "EG002", "numEvents": 0, "numAffected": 0, "numAtRisk": 38}]}, {"term": "Paraesthesia", "organSystem": "General disorders", "sourceVocabulary": "MedDRA", "assessmentType": "SYSTEMATIC_ASSESSMENT", "stats": [{"groupId": "EG000", "numEvents": 1, "numAffected": 1, "numAtRisk": 191}, {"groupId": "EG001", "numEvents": 1, "numAffected": 1, "numAtRisk": 419}, {"groupId": "EG002", "numEvents": 0, "numAffected": 0, "numAtRisk": 38}]}, {"term": "Pneumonia aspiration", "organSystem": "General disorders", "sourceVocabulary": "MedDRA", "assessmentType": "SYSTEMATIC_ASSESSMENT", "stats": [{"groupId": "EG000", "numEvents": 0, "numAffected": 0, "numAtRisk": 191}, {"groupId": "EG001", "numEvents": 2, "numAffected": 2, "numAtRisk": 419}, {"groupId": "EG002", "numEvents": 0, "numAffected": 0, "numAtRisk": 38}]}, {"term": "Postoperative wound infection", "organSystem": "General disorders", "sourceVocabulary": "MedDRA", "assessmentType": "SYSTEMATIC_ASSESSMENT", "stats": [{"groupId": "EG000", "numEvents": 1, "numAffected": 1, "numAtRisk": 191}, {"groupId": "EG001", "numEvents": 1, "numAffected": 1, "numAtRisk": 419}, {"groupId": "EG002", "numEvents": 0, "numAffected": 0, "numAtRisk": 38}]}, {"term": "Pulmonary embolism", "organSystem": "General disorders", "sourceVocabulary": "MedDRA", "assessmentType": "SYSTEMATIC_ASSESSMENT", "stats": [{"groupId": "EG000", "numEvents": 0, "numAffected": 0, "numAtRisk": 191}, {"groupId": "EG001", "numEvents": 2, "numAffected": 1, "numAtRisk": 419}, {"groupId": "EG002", "numEvents": 0, "numAffected": 0, "numAtRisk": 38}]}, {"term": "Pulmonary fibrosis", "organSystem": "General disorders", "sourceVocabulary": "MedDRA", "assessmentType": "SYSTEMATIC_ASSESSMENT", "stats": [{"groupId": "EG000", "numEvents": 0, "numAffected": 0, "numAtRisk": 191}, {"groupId": "EG001", "numEvents": 2, "numAffected": 1, "numAtRisk": 419}, {"groupId": "EG002", "numEvents": 0, "numAffected": 0, "numAtRisk": 38}]}, {"term": "Sepsis", "organSystem": "General disorders", "sourceVocabulary": "MedDRA", "assessmentType": "SYSTEMATIC_ASSESSMENT", "stats": [{"groupId": "EG000", "numEvents": 1, "numAffected": 1, "numAtRisk": 191}, {"groupId": "EG001", "numEvents": 1, "numAffected": 1, "numAtRisk": 419}, {"groupId": "EG002", "numEvents": 0, "numAffected": 0, "numAtRisk": 38}]}, {"term": "Syncope vasovagal", "organSystem": "General disorders", "sourceVocabulary": "MedDRA", "assessmentType": "SYSTEMATIC_ASSESSMENT", "stats": [{"groupId": "EG000", "numEvents": 0, "numAffected": 0, "numAtRisk": 191}, {"groupId": "EG001", "numEvents": 2, "numAffected": 2, "numAtRisk": 419}, {"groupId": "EG002", "numEvents": 0, "numAffected": 0, "numAtRisk": 38}]}, {"term": "Tachycardia", "organSystem": "General disorders", "sourceVocabulary": "MedDRA", "assessmentType": "SYSTEMATIC_ASSESSMENT", "stats": [{"groupId": "EG000", "numEvents": 0, "numAffected": 0, "numAtRisk": 191}, {"groupId": "EG001", "numEvents": 2, "numAffected": 2, "numAtRisk": 419}, {"groupId": "EG002", "numEvents": 0, "numAffected": 0, "numAtRisk": 38}]}, {"term": "Urinary tract infection", "organSystem": "General disorders", "sourceVocabulary": "MedDRA", "assessmentType": "SYSTEMATIC_ASSESSMENT", "stats": [{"groupId": "EG000", "numEvents": 0, "numAffected": 0, "numAtRisk": 191}, {"groupId": "EG001", "numEvents": 2, "numAffected": 2, "numAtRisk": 419}, {"groupId": "EG002", "numEvents": 0, "numAffected": 0, "numAtRisk": 38}]}, {"term": "Abdominal abscess", "organSystem": "General disorders", "sourceVocabulary": "MedDRA", "assessmentType": "SYSTEMATIC_ASSESSMENT", "stats": [{"groupId": "EG000", "numEvents": 0, "numAffected": 0, "numAtRisk": 191}, {"groupId": "EG001", "numEvents": 1, "numAffected": 1, "numAtRisk": 419}, {"groupId": "EG002", "numEvents": 0, "numAffected": 0, "numAtRisk": 38}]}, {"term": "Abdominal discomfort", "organSystem": "General disorders", "sourceVocabulary": "MedDRA", "assessmentType": "SYSTEMATIC_ASSESSMENT", "stats": [{"groupId": "EG000", "numEvents": 1, "numAffected": 1, "numAtRisk": 191}, {"groupId": "EG001", "numEvents": 0, "numAffected": 0, "numAtRisk": 419}, {"groupId": "EG002", "numEvents": 0, "numAffected": 0, "numAtRisk": 38}]}, {"term": "Abdominal pain upper", "organSystem": "General disorders", "sourceVocabulary": "MedDRA", "assessmentType": "SYSTEMATIC_ASSESSMENT", "stats": [{"groupId": "EG000", "numEvents": 0, "numAffected": 0, "numAtRisk": 191}, {"groupId": "EG001", "numEvents": 1, "numAffected": 1, "numAtRisk": 419}, {"groupId": "EG002", "numEvents": 0, "numAffected": 0, "numAtRisk": 38}]}, {"term": "Acute coronary syndrome", "organSystem": "General disorders", "sourceVocabulary": "MedDRA", "assessmentType": "SYSTEMATIC_ASSESSMENT", "stats": [{"groupId": "EG000", "numEvents": 0, "numAffected": 0, "numAtRisk": 191}, {"groupId": "EG001", "numEvents": 1, "numAffected": 1, "numAtRisk": 419}, {"groupId": "EG002", "numEvents": 0, "numAffected": 0, "numAtRisk": 38}]}, {"term": "Adverse drug reaction", "organSystem": "General disorders", "sourceVocabulary": "MedDRA", "assessmentType": "SYSTEMATIC_ASSESSMENT", "stats": [{"groupId": "EG000", "numEvents": 0, "numAffected": 0, "numAtRisk": 191}, {"groupId": "EG001", "numEvents": 1, "numAffected": 1, "numAtRisk": 419}, {"groupId": "EG002", "numEvents": 0, "numAffected": 0, "numAtRisk": 38}]}, {"term": "Ankle fracture", "organSystem": "General disorders", "sourceVocabulary": "MedDRA", "assessmentType": "SYSTEMATIC_ASSESSMENT", "stats": [{"groupId": "EG000", "numEvents": 0, "numAffected": 0, "numAtRisk": 191}, {"groupId": "EG001", "numEvents": 1, "numAffected": 1, "numAtRisk": 419}, {"groupId": "EG002", "numEvents": 0, "numAffected": 0, "numAtRisk": 38}]}, {"term": "Anorexia", "organSystem": "General disorders", "sourceVocabulary": "MedDRA", "assessmentType": "SYSTEMATIC_ASSESSMENT", "stats": [{"groupId": "EG000", "numEvents": 0, "numAffected": 0, "numAtRisk": 191}, {"groupId": "EG001", "numEvents": 1, "numAffected": 1, "numAtRisk": 419}, {"groupId": "EG002", "numEvents": 0, "numAffected": 0, "numAtRisk": 38}]}, {"term": "Anxiety disorder", "organSystem": "General disorders", "sourceVocabulary": "MedDRA", "assessmentType": "SYSTEMATIC_ASSESSMENT", "stats": [{"groupId": "EG000", "numEvents": 0, "numAffected": 0, "numAtRisk": 191}, {"groupId": "EG001", "numEvents": 1, "numAffected": 1, "numAtRisk": 419}, {"groupId": "EG002", "numEvents": 0, "numAffected": 0, "numAtRisk": 38}]}, {"term": "Aortic thrombosis", "organSystem": "General disorders", "sourceVocabulary": "MedDRA", "assessmentType": "SYSTEMATIC_ASSESSMENT", "stats": [{"groupId": "EG000", "numEvents": 0, "numAffected": 0, "numAtRisk": 191}, {"groupId": "EG001", "numEvents": 1, "numAffected": 1, "numAtRisk": 419}, {"groupId": "EG002", "numEvents": 0, "numAffected": 0, "numAtRisk": 38}]}, {"term": "Arrhythmia", "organSystem": "General disorders", "sourceVocabulary": "MedDRA", "assessmentType": "SYSTEMATIC_ASSESSMENT", "stats": [{"groupId": "EG000", "numEvents": 0, "numAffected": 0, "numAtRisk": 191}, {"groupId": "EG001", "numEvents": 1, "numAffected": 1, "numAtRisk": 419}, {"groupId": "EG002", "numEvents": 0, "numAffected": 0, "numAtRisk": 38}]}, {"term": "Arterial disorder", "organSystem": "General disorders", "sourceVocabulary": "MedDRA", "assessmentType": "SYSTEMATIC_ASSESSMENT", "stats": [{"groupId": "EG000", "numEvents": 0, "numAffected": 0, "numAtRisk": 191}, {"groupId": "EG001", "numEvents": 1, "numAffected": 1, "numAtRisk": 419}, {"groupId": "EG002", "numEvents": 0, "numAffected": 0, "numAtRisk": 38}]}, {"term": "Arterial stenosis", "organSystem": "General disorders", "sourceVocabulary": "MedDRA", "assessmentType": "SYSTEMATIC_ASSESSMENT", "stats": [{"groupId": "EG000", "numEvents": 0, "numAffected": 0, "numAtRisk": 191}, {"groupId": "EG001", "numEvents": 1, "numAffected": 1, "numAtRisk": 419}, {"groupId": "EG002", "numEvents": 0, "numAffected": 0, "numAtRisk": 38}]}, {"term": "Arteriogram coronary", "organSystem": "General disorders", "sourceVocabulary": "MedDRA", "assessmentType": "SYSTEMATIC_ASSESSMENT", "stats": [{"groupId": "EG000", "numEvents": 0, "numAffected": 0, "numAtRisk": 191}, {"groupId": "EG001", "numEvents": 1, "numAffected": 1, "numAtRisk": 419}, {"groupId": "EG002", "numEvents": 0, "numAffected": 0, "numAtRisk": 38}]}, {"term": "Arteriopathic disease", "organSystem": "General disorders", "sourceVocabulary": "MedDRA", "assessmentType": "SYSTEMATIC_ASSESSMENT", "stats": [{"groupId": "EG000", "numEvents": 0, "numAffected": 0, "numAtRisk": 191}, {"groupId": "EG001", "numEvents": 1, "numAffected": 1, "numAtRisk": 419}, {"groupId": "EG002", "numEvents": 0, "numAffected": 0, "numAtRisk": 38}]}, {"term": "Arthralgia", "organSystem": "General disorders", "sourceVocabulary": "MedDRA", "assessmentType": "SYSTEMATIC_ASSESSMENT", "stats": [{"groupId": "EG000", "numEvents": 0, "numAffected": 0, "numAtRisk": 191}, {"groupId": "EG001", "numEvents": 1, "numAffected": 1, "numAtRisk": 419}, {"groupId": "EG002", "numEvents": 0, "numAffected": 0, "numAtRisk": 38}]}, {"term": "Asthenia", "organSystem": "General disorders", "sourceVocabulary": "MedDRA", "assessmentType": "SYSTEMATIC_ASSESSMENT", "stats": [{"groupId": "EG000", "numEvents": 1, "numAffected": 1, "numAtRisk": 191}, {"groupId": "EG001", "numEvents": 0, "numAffected": 0, "numAtRisk": 419}, {"groupId": "EG002", "numEvents": 0, "numAffected": 0, "numAtRisk": 38}]}, {"term": "Bacteraemia", "organSystem": "General disorders", "sourceVocabulary": "MedDRA", "assessmentType": "SYSTEMATIC_ASSESSMENT", "stats": [{"groupId": "EG000", "numEvents": 1, "numAffected": 1, "numAtRisk": 191}, {"groupId": "EG001", "numEvents": 0, "numAffected": 0, "numAtRisk": 419}, {"groupId": "EG002", "numEvents": 0, "numAffected": 0, "numAtRisk": 38}]}, {"term": "Balance disorder", "organSystem": "General disorders", "sourceVocabulary": "MedDRA", "assessmentType": "SYSTEMATIC_ASSESSMENT", "stats": [{"groupId": "EG000", "numEvents": 1, "numAffected": 1, "numAtRisk": 191}, {"groupId": "EG001", "numEvents": 0, "numAffected": 0, "numAtRisk": 419}, {"groupId": "EG002", "numEvents": 0, "numAffected": 0, "numAtRisk": 38}]}, {"term": "Biopsy liver", "organSystem": "General disorders", "sourceVocabulary": "MedDRA", "assessmentType": "SYSTEMATIC_ASSESSMENT", "stats": [{"groupId": "EG000", "numEvents": 0, "numAffected": 0, "numAtRisk": 191}, {"groupId": "EG001", "numEvents": 1, "numAffected": 1, "numAtRisk": 419}, {"groupId": "EG002", "numEvents": 0, "numAffected": 0, "numAtRisk": 38}]}, {"term": "Bronchopulmonary aspergillosis", "organSystem": "General disorders", "sourceVocabulary": "MedDRA", "assessmentType": "SYSTEMATIC_ASSESSMENT", "stats": [{"groupId": "EG000", "numEvents": 0, "numAffected": 0, "numAtRisk": 191}, {"groupId": "EG001", "numEvents": 1, "numAffected": 1, "numAtRisk": 419}, {"groupId": "EG002", "numEvents": 0, "numAffected": 0, "numAtRisk": 38}]}, {"term": "Cardiac ablation", "organSystem": "General disorders", "sourceVocabulary": "MedDRA", "assessmentType": "SYSTEMATIC_ASSESSMENT", "stats": [{"groupId": "EG000", "numEvents": 0, "numAffected": 0, "numAtRisk": 191}, {"groupId": "EG001", "numEvents": 1, "numAffected": 1, "numAtRisk": 419}, {"groupId": "EG002", "numEvents": 0, "numAffected": 0, "numAtRisk": 38}]}, {"term": "Cardiac failure", "organSystem": "General disorders", "sourceVocabulary": "MedDRA", "assessmentType": "SYSTEMATIC_ASSESSMENT", "stats": [{"groupId": "EG000", "numEvents": 0, "numAffected": 0, "numAtRisk": 191}, {"groupId": "EG001", "numEvents": 1, "numAffected": 1, "numAtRisk": 419}, {"groupId": "EG002", "numEvents": 0, "numAffected": 0, "numAtRisk": 38}]}, {"term": "Cardiac procedure complication", "organSystem": "General disorders", "sourceVocabulary": "MedDRA", "assessmentType": "SYSTEMATIC_ASSESSMENT", "stats": [{"groupId": "EG000", "numEvents": 1, "numAffected": 1, "numAtRisk": 191}, {"groupId": "EG001", "numEvents": 0, "numAffected": 0, "numAtRisk": 419}, {"groupId": "EG002", "numEvents": 0, "numAffected": 0, "numAtRisk": 38}]}, {"term": "Cardio-renal syndrome", "organSystem": "General disorders", "sourceVocabulary": "MedDRA", "assessmentType": "SYSTEMATIC_ASSESSMENT", "stats": [{"groupId": "EG000", "numEvents": 0, "numAffected": 0, "numAtRisk": 191}, {"groupId": "EG001", "numEvents": 1, "numAffected": 1, "numAtRisk": 419}, {"groupId": "EG002", "numEvents": 0, "numAffected": 0, "numAtRisk": 38}]}, {"term": "Cardiomyopathy", "organSystem": "General disorders", "sourceVocabulary": "MedDRA", "assessmentType": "SYSTEMATIC_ASSESSMENT", "stats": [{"groupId": "EG000", "numEvents": 0, "numAffected": 0, "numAtRisk": 191}, {"groupId": "EG001", "numEvents": 1, "numAffected": 1, "numAtRisk": 419}, {"groupId": "EG002", "numEvents": 0, "numAffected": 0, "numAtRisk": 38}]}, {"term": "Cardiomyopathy alcoholic", "organSystem": "General disorders", "sourceVocabulary": "MedDRA", "assessmentType": "SYSTEMATIC_ASSESSMENT", "stats": [{"groupId": "EG000", "numEvents": 0, "numAffected": 0, "numAtRisk": 191}, {"groupId": "EG001", "numEvents": 1, "numAffected": 1, "numAtRisk": 419}, {"groupId": "EG002", "numEvents": 0, "numAffected": 0, "numAtRisk": 38}]}, {"term": "Cellulitis", "organSystem": "General disorders", "sourceVocabulary": "MedDRA", "assessmentType": "SYSTEMATIC_ASSESSMENT", "stats": [{"groupId": "EG000", "numEvents": 0, "numAffected": 0, "numAtRisk": 191}, {"groupId": "EG001", "numEvents": 1, "numAffected": 1, "numAtRisk": 419}, {"groupId": "EG002", "numEvents": 0, "numAffected": 0, "numAtRisk": 38}]}, {"term": "Cervical dysplasia", "organSystem": "General disorders", "sourceVocabulary": "MedDRA", "assessmentType": "SYSTEMATIC_ASSESSMENT", "stats": [{"groupId": "EG000", "numEvents": 0, "numAffected": 0, "numAtRisk": 191}, {"groupId": "EG001", "numEvents": 1, "numAffected": 1, "numAtRisk": 419}, {"groupId": "EG002", "numEvents": 0, "numAffected": 0, "numAtRisk": 38}]}, {"term": "Chest discomfort", "organSystem": "General disorders", "sourceVocabulary": "MedDRA", "assessmentType": "SYSTEMATIC_ASSESSMENT", "stats": [{"groupId": "EG000", "numEvents": 0, "numAffected": 0, "numAtRisk": 191}, {"groupId": "EG001", "numEvents": 1, "numAffected": 1, "numAtRisk": 419}, {"groupId": "EG002", "numEvents": 0, "numAffected": 0, "numAtRisk": 38}]}, {"term": "Colon cancer", "organSystem": "General disorders", "sourceVocabulary": "MedDRA", "assessmentType": "SYSTEMATIC_ASSESSMENT", "stats": [{"groupId": "EG000", "numEvents": 1, "numAffected": 1, "numAtRisk": 191}, {"groupId": "EG001", "numEvents": 0, "numAffected": 0, "numAtRisk": 419}, {"groupId": "EG002", "numEvents": 0, "numAffected": 0, "numAtRisk": 38}]}, {"term": "Colonic obstruction", "organSystem": "General disorders", "sourceVocabulary": "MedDRA", "assessmentType": "SYSTEMATIC_ASSESSMENT", "stats": [{"groupId": "EG000", "numEvents": 0, "numAffected": 0, "numAtRisk": 191}, {"groupId": "EG001", "numEvents": 1, "numAffected": 1, "numAtRisk": 419}, {"groupId": "EG002", "numEvents": 0, "numAffected": 0, "numAtRisk": 38}]}, {"term": "Colostomy", "organSystem": "General disorders", "sourceVocabulary": "MedDRA", "assessmentType": "SYSTEMATIC_ASSESSMENT", "stats": [{"groupId": "EG000", "numEvents": 0, "numAffected": 0, "numAtRisk": 191}, {"groupId": "EG001", "numEvents": 1, "numAffected": 1, "numAtRisk": 419}, {"groupId": "EG002", "numEvents": 0, "numAffected": 0, "numAtRisk": 38}]}, {"term": "Constipation", "organSystem": "General disorders", "sourceVocabulary": "MedDRA", "assessmentType": "SYSTEMATIC_ASSESSMENT", "stats": [{"groupId": "EG000", "numEvents": 1, "numAffected": 1, "numAtRisk": 191}, {"groupId": "EG001", "numEvents": 0, "numAffected": 0, "numAtRisk": 419}, {"groupId": "EG002", "numEvents": 0, "numAffected": 0, "numAtRisk": 38}]}, {"term": "Contrast media reaction", "organSystem": "General disorders", "sourceVocabulary": "MedDRA", "assessmentType": "SYSTEMATIC_ASSESSMENT", "stats": [{"groupId": "EG000", "numEvents": 0, "numAffected": 0, "numAtRisk": 191}, {"groupId": "EG001", "numEvents": 1, "numAffected": 1, "numAtRisk": 419}, {"groupId": "EG002", "numEvents": 0, "numAffected": 0, "numAtRisk": 38}]}, {"term": "Convulsion", "organSystem": "General disorders", "sourceVocabulary": "MedDRA", "assessmentType": "SYSTEMATIC_ASSESSMENT", "stats": [{"groupId": "EG000", "numEvents": 0, "numAffected": 0, "numAtRisk": 191}, {"groupId": "EG001", "numEvents": 1, "numAffected": 1, "numAtRisk": 419}, {"groupId": "EG002", "numEvents": 0, "numAffected": 0, "numAtRisk": 38}]}, {"term": "Coronary artery restenosis", "organSystem": "General disorders", "sourceVocabulary": "MedDRA", "assessmentType": "SYSTEMATIC_ASSESSMENT", "stats": [{"groupId": "EG000", "numEvents": 1, "numAffected": 1, "numAtRisk": 191}, {"groupId": "EG001", "numEvents": 0, "numAffected": 0, "numAtRisk": 419}, {"groupId": "EG002", "numEvents": 0, "numAffected": 0, "numAtRisk": 38}]}, {"term": "Decreased RV Sensing", "organSystem": "General disorders", "sourceVocabulary": "MedDRA", "assessmentType": "SYSTEMATIC_ASSESSMENT", "stats": [{"groupId": "EG000", "numEvents": 0, "numAffected": 0, "numAtRisk": 191}, {"groupId": "EG001", "numEvents": 1, "numAffected": 1, "numAtRisk": 419}, {"groupId": "EG002", "numEvents": 0, "numAffected": 0, "numAtRisk": 38}]}, {"term": "Depressed level of consciousness", "organSystem": "General disorders", "sourceVocabulary": "MedDRA", "assessmentType": "SYSTEMATIC_ASSESSMENT", "stats": [{"groupId": "EG000", "numEvents": 1, "numAffected": 1, "numAtRisk": 191}, {"groupId": "EG001", "numEvents": 0, "numAffected": 0, "numAtRisk": 419}, {"groupId": "EG002", "numEvents": 0, "numAffected": 0, "numAtRisk": 38}]}, {"term": "Device electrical finding", "organSystem": "General disorders", "sourceVocabulary": "MedDRA", "assessmentType": "SYSTEMATIC_ASSESSMENT", "stats": [{"groupId": "EG000", "numEvents": 0, "numAffected": 0, "numAtRisk": 191}, {"groupId": "EG001", "numEvents": 1, "numAffected": 1, "numAtRisk": 419}, {"groupId": "EG002", "numEvents": 0, "numAffected": 0, "numAtRisk": 38}]}, {"term": "Device migration", "organSystem": "General disorders", "sourceVocabulary": "MedDRA", "assessmentType": "SYSTEMATIC_ASSESSMENT", "stats": [{"groupId": "EG000", "numEvents": 0, "numAffected": 0, "numAtRisk": 191}, {"groupId": "EG001", "numEvents": 1, "numAffected": 1, "numAtRisk": 419}, {"groupId": "EG002", "numEvents": 0, "numAffected": 0, "numAtRisk": 38}]}, {"term": "Device related infection", "organSystem": "General disorders", "sourceVocabulary": "MedDRA", "assessmentType": "SYSTEMATIC_ASSESSMENT", "stats": [{"groupId": "EG000", "numEvents": 1, "numAffected": 1, "numAtRisk": 191}, {"groupId": "EG001", "numEvents": 0, "numAffected": 0, "numAtRisk": 419}, {"groupId": "EG002", "numEvents": 0, "numAffected": 0, "numAtRisk": 38}]}, {"term": "Diabetes mellitus insulin-dependent", "organSystem": "General disorders", "sourceVocabulary": "MedDRA", "assessmentType": "SYSTEMATIC_ASSESSMENT", "stats": [{"groupId": "EG000", "numEvents": 1, "numAffected": 1, "numAtRisk": 191}, {"groupId": "EG001", "numEvents": 0, "numAffected": 0, "numAtRisk": 419}, {"groupId": "EG002", "numEvents": 0, "numAffected": 0, "numAtRisk": 38}]}, {"term": "Dislodgement of LV lead", "organSystem": "General disorders", "sourceVocabulary": "MedDRA", "assessmentType": "SYSTEMATIC_ASSESSMENT", "stats": [{"groupId": "EG000", "numEvents": 0, "numAffected": 0, "numAtRisk": 191}, {"groupId": "EG001", "numEvents": 1, "numAffected": 1, "numAtRisk": 419}, {"groupId": "EG002", "numEvents": 0, "numAffected": 0, "numAtRisk": 38}]}, {"term": "Diverticulitis esophageal", "organSystem": "General disorders", "sourceVocabulary": "MedDRA", "assessmentType": "SYSTEMATIC_ASSESSMENT", "stats": [{"groupId": "EG000", "numEvents": 0, "numAffected": 0, "numAtRisk": 191}, {"groupId": "EG001", "numEvents": 1, "numAffected": 1, "numAtRisk": 419}, {"groupId": "EG002", "numEvents": 0, "numAffected": 0, "numAtRisk": 38}]}, {"term": "Duodenal ulcer", "organSystem": "General disorders", "sourceVocabulary": "MedDRA", "assessmentType": "SYSTEMATIC_ASSESSMENT", "stats": [{"groupId": "EG000", "numEvents": 0, "numAffected": 0, "numAtRisk": 191}, {"groupId": "EG001", "numEvents": 1, "numAffected": 1, "numAtRisk": 419}, {"groupId": "EG002", "numEvents": 0, "numAffected": 0, "numAtRisk": 38}]}, {"term": "Edema peripheral", "organSystem": "General disorders", "sourceVocabulary": "MedDRA", "assessmentType": "SYSTEMATIC_ASSESSMENT", "stats": [{"groupId": "EG000", "numEvents": 0, "numAffected": 0, "numAtRisk": 191}, {"groupId": "EG001", "numEvents": 1, "numAffected": 1, "numAtRisk": 419}, {"groupId": "EG002", "numEvents": 0, "numAffected": 0, "numAtRisk": 38}]}, {"term": "Elevated pacing threshold", "organSystem": "General disorders", "sourceVocabulary": "MedDRA", "assessmentType": "SYSTEMATIC_ASSESSMENT", "stats": [{"groupId": "EG000", "numEvents": 1, "numAffected": 1, "numAtRisk": 191}, {"groupId": "EG001", "numEvents": 0, "numAffected": 0, "numAtRisk": 419}, {"groupId": "EG002", "numEvents": 0, "numAffected": 0, "numAtRisk": 38}]}, {"term": "Endocarditis", "organSystem": "General disorders", "sourceVocabulary": "MedDRA", "assessmentType": "SYSTEMATIC_ASSESSMENT", "stats": [{"groupId": "EG000", "numEvents": 1, "numAffected": 1, "numAtRisk": 191}, {"groupId": "EG001", "numEvents": 0, "numAffected": 0, "numAtRisk": 419}, {"groupId": "EG002", "numEvents": 0, "numAffected": 0, "numAtRisk": 38}]}, {"term": "Epistaxis", "organSystem": "General disorders", "sourceVocabulary": "MedDRA", "assessmentType": "SYSTEMATIC_ASSESSMENT", "stats": [{"groupId": "EG000", "numEvents": 0, "numAffected": 0, "numAtRisk": 191}, {"groupId": "EG001", "numEvents": 1, "numAffected": 1, "numAtRisk": 419}, {"groupId": "EG002", "numEvents": 0, "numAffected": 0, "numAtRisk": 38}]}, {"term": "Extrasystoles", "organSystem": "General disorders", "sourceVocabulary": "MedDRA", "assessmentType": "SYSTEMATIC_ASSESSMENT", "stats": [{"groupId": "EG000", "numEvents": 1, "numAffected": 1, "numAtRisk": 191}, {"groupId": "EG001", "numEvents": 0, "numAffected": 0, "numAtRisk": 419}, {"groupId": "EG002", "numEvents": 0, "numAffected": 0, "numAtRisk": 38}]}, {"term": "Fluid overload", "organSystem": "General disorders", "sourceVocabulary": "MedDRA", "assessmentType": "SYSTEMATIC_ASSESSMENT", "stats": [{"groupId": "EG000", "numEvents": 0, "numAffected": 0, "numAtRisk": 191}, {"groupId": "EG001", "numEvents": 1, "numAffected": 1, "numAtRisk": 419}, {"groupId": "EG002", "numEvents": 0, "numAffected": 0, "numAtRisk": 38}]}, {"term": "Gastroenteritis", "organSystem": "General disorders", "sourceVocabulary": "MedDRA", "assessmentType": "SYSTEMATIC_ASSESSMENT", "stats": [{"groupId": "EG000", "numEvents": 1, "numAffected": 1, "numAtRisk": 191}, {"groupId": "EG001", "numEvents": 0, "numAffected": 0, "numAtRisk": 419}, {"groupId": "EG002", "numEvents": 0, "numAffected": 0, "numAtRisk": 38}]}, {"term": "General physical health deterioration", "organSystem": "General disorders", "sourceVocabulary": "MedDRA", "assessmentType": "SYSTEMATIC_ASSESSMENT", "stats": [{"groupId": "EG000", "numEvents": 1, "numAffected": 1, "numAtRisk": 191}, {"groupId": "EG001", "numEvents": 0, "numAffected": 0, "numAtRisk": 419}, {"groupId": "EG002", "numEvents": 0, "numAffected": 0, "numAtRisk": 38}]}, {"term": "Goiter", "organSystem": "General disorders", "sourceVocabulary": "MedDRA", "assessmentType": "SYSTEMATIC_ASSESSMENT", "stats": [{"groupId": "EG000", "numEvents": 1, "numAffected": 1, "numAtRisk": 191}, {"groupId": "EG001", "numEvents": 0, "numAffected": 0, "numAtRisk": 419}, {"groupId": "EG002", "numEvents": 0, "numAffected": 0, "numAtRisk": 38}]}, {"term": "Hairy cell leukemia", "organSystem": "General disorders", "sourceVocabulary": "MedDRA", "assessmentType": "SYSTEMATIC_ASSESSMENT", "stats": [{"groupId": "EG000", "numEvents": 0, "numAffected": 0, "numAtRisk": 191}, {"groupId": "EG001", "numEvents": 1, "numAffected": 1, "numAtRisk": 419}, {"groupId": "EG002", "numEvents": 0, "numAffected": 0, "numAtRisk": 38}]}, {"term": "Headache", "organSystem": "General disorders", "sourceVocabulary": "MedDRA", "assessmentType": "SYSTEMATIC_ASSESSMENT", "stats": [{"groupId": "EG000", "numEvents": 0, "numAffected": 0, "numAtRisk": 191}, {"groupId": "EG001", "numEvents": 1, "numAffected": 1, "numAtRisk": 419}, {"groupId": "EG002", "numEvents": 0, "numAffected": 0, "numAtRisk": 38}]}, {"term": "Hematoma evacuation", "organSystem": "General disorders", "sourceVocabulary": "MedDRA", "assessmentType": "SYSTEMATIC_ASSESSMENT", "stats": [{"groupId": "EG000", "numEvents": 0, "numAffected": 0, "numAtRisk": 191}, {"groupId": "EG001", "numEvents": 1, "numAffected": 1, "numAtRisk": 419}, {"groupId": "EG002", "numEvents": 0, "numAffected": 0, "numAtRisk": 38}]}, {"term": "Hemianopsia homonymous", "organSystem": "General disorders", "sourceVocabulary": "MedDRA", "assessmentType": "SYSTEMATIC_ASSESSMENT", "stats": [{"groupId": "EG000", "numEvents": 1, "numAffected": 1, "numAtRisk": 191}, {"groupId": "EG001", "numEvents": 0, "numAffected": 0, "numAtRisk": 419}, {"groupId": "EG002", "numEvents": 0, "numAffected": 0, "numAtRisk": 38}]}, {"term": "Hemoglobin decreased", "organSystem": "General disorders", "sourceVocabulary": "MedDRA", "assessmentType": "SYSTEMATIC_ASSESSMENT", "stats": [{"groupId": "EG000", "numEvents": 1, "numAffected": 1, "numAtRisk": 191}, {"groupId": "EG001", "numEvents": 0, "numAffected": 0, "numAtRisk": 419}, {"groupId": "EG002", "numEvents": 0, "numAffected": 0, "numAtRisk": 38}]}, {"term": "Hemorrhage", "organSystem": "General disorders", "sourceVocabulary": "MedDRA", "assessmentType": "SYSTEMATIC_ASSESSMENT", "stats": [{"groupId": "EG000", "numEvents": 0, "numAffected": 0, "numAtRisk": 191}, {"groupId": "EG001", "numEvents": 1, "numAffected": 1, "numAtRisk": 419}, {"groupId": "EG002", "numEvents": 0, "numAffected": 0, "numAtRisk": 38}]}, {"term": "Hemorrhoids", "organSystem": "General disorders", "sourceVocabulary": "MedDRA", "assessmentType": "SYSTEMATIC_ASSESSMENT", "stats": [{"groupId": "EG000", "numEvents": 0, "numAffected": 0, "numAtRisk": 191}, {"groupId": "EG001", "numEvents": 1, "numAffected": 1, "numAtRisk": 419}, {"groupId": "EG002", "numEvents": 0, "numAffected": 0, "numAtRisk": 38}]}, {"term": "Hepatic function abnormal", "organSystem": "General disorders", "sourceVocabulary": "MedDRA", "assessmentType": "SYSTEMATIC_ASSESSMENT", "stats": [{"groupId": "EG000", "numEvents": 0, "numAffected": 0, "numAtRisk": 191}, {"groupId": "EG001", "numEvents": 1, "numAffected": 1, "numAtRisk": 419}, {"groupId": "EG002", "numEvents": 0, "numAffected": 0, "numAtRisk": 38}]}, {"term": "Hip arthroplasty", "organSystem": "General disorders", "sourceVocabulary": "MedDRA", "assessmentType": "SYSTEMATIC_ASSESSMENT", "stats": [{"groupId": "EG000", "numEvents": 0, "numAffected": 0, "numAtRisk": 191}, {"groupId": "EG001", "numEvents": 1, "numAffected": 1, "numAtRisk": 419}, {"groupId": "EG002", "numEvents": 0, "numAffected": 0, "numAtRisk": 38}]}, {"term": "Hypersensitivity", "organSystem": "General disorders", "sourceVocabulary": "MedDRA", "assessmentType": "SYSTEMATIC_ASSESSMENT", "stats": [{"groupId": "EG000", "numEvents": 0, "numAffected": 0, "numAtRisk": 191}, {"groupId": "EG001", "numEvents": 1, "numAffected": 1, "numAtRisk": 419}, {"groupId": "EG002", "numEvents": 0, "numAffected": 0, "numAtRisk": 38}]}, {"term": "Hyperthyroidism", "organSystem": "General disorders", "sourceVocabulary": "MedDRA", "assessmentType": "SYSTEMATIC_ASSESSMENT", "stats": [{"groupId": "EG000", "numEvents": 0, "numAffected": 0, "numAtRisk": 191}, {"groupId": "EG001", "numEvents": 1, "numAffected": 1, "numAtRisk": 419}, {"groupId": "EG002", "numEvents": 0, "numAffected": 0, "numAtRisk": 38}]}, {"term": "Hypervolemic", "organSystem": "General disorders", "sourceVocabulary": "MedDRA", "assessmentType": "SYSTEMATIC_ASSESSMENT", "stats": [{"groupId": "EG000", "numEvents": 0, "numAffected": 0, "numAtRisk": 191}, {"groupId": "EG001", "numEvents": 1, "numAffected": 1, "numAtRisk": 419}, {"groupId": "EG002", "numEvents": 0, "numAffected": 0, "numAtRisk": 38}]}, {"term": "Hypoglycemia", "organSystem": "General disorders", "sourceVocabulary": "MedDRA", "assessmentType": "SYSTEMATIC_ASSESSMENT", "stats": [{"groupId": "EG000", "numEvents": 0, "numAffected": 0, "numAtRisk": 191}, {"groupId": "EG001", "numEvents": 1, "numAffected": 1, "numAtRisk": 419}, {"groupId": "EG002", "numEvents": 0, "numAffected": 0, "numAtRisk": 38}]}, {"term": "Hypokalemia", "organSystem": "General disorders", "sourceVocabulary": "MedDRA", "assessmentType": "SYSTEMATIC_ASSESSMENT", "stats": [{"groupId": "EG000", "numEvents": 1, "numAffected": 1, "numAtRisk": 191}, {"groupId": "EG001", "numEvents": 0, "numAffected": 0, "numAtRisk": 419}, {"groupId": "EG002", "numEvents": 0, "numAffected": 0, "numAtRisk": 38}]}, {"term": "Hyponatremia", "organSystem": "General disorders", "sourceVocabulary": "MedDRA", "assessmentType": "SYSTEMATIC_ASSESSMENT", "stats": [{"groupId": "EG000", "numEvents": 0, "numAffected": 0, "numAtRisk": 191}, {"groupId": "EG001", "numEvents": 1, "numAffected": 1, "numAtRisk": 419}, {"groupId": "EG002", "numEvents": 0, "numAffected": 0, "numAtRisk": 38}]}, {"term": "Hypothyroidism", "organSystem": "General disorders", "sourceVocabulary": "MedDRA", "assessmentType": "SYSTEMATIC_ASSESSMENT", "stats": [{"groupId": "EG000", "numEvents": 0, "numAffected": 0, "numAtRisk": 191}, {"groupId": "EG001", "numEvents": 1, "numAffected": 1, "numAtRisk": 419}, {"groupId": "EG002", "numEvents": 0, "numAffected": 0, "numAtRisk": 38}]}, {"term": "Hypoxia", "organSystem": "General disorders", "sourceVocabulary": "MedDRA", "assessmentType": "SYSTEMATIC_ASSESSMENT", "stats": [{"groupId": "EG000", "numEvents": 0, "numAffected": 0, "numAtRisk": 191}, {"groupId": "EG001", "numEvents": 1, "numAffected": 1, "numAtRisk": 419}, {"groupId": "EG002", "numEvents": 0, "numAffected": 0, "numAtRisk": 38}]}, {"term": "Implant site erosion", "organSystem": "General disorders", "sourceVocabulary": "MedDRA", "assessmentType": "SYSTEMATIC_ASSESSMENT", "stats": [{"groupId": "EG000", "numEvents": 0, "numAffected": 0, "numAtRisk": 191}, {"groupId": "EG001", "numEvents": 1, "numAffected": 1, "numAtRisk": 419}, {"groupId": "EG002", "numEvents": 0, "numAffected": 0, "numAtRisk": 38}]}, {"term": "Implant site inflammation", "organSystem": "General disorders", "sourceVocabulary": "MedDRA", "assessmentType": "SYSTEMATIC_ASSESSMENT", "stats": [{"groupId": "EG000", "numEvents": 0, "numAffected": 0, "numAtRisk": 191}, {"groupId": "EG001", "numEvents": 1, "numAffected": 1, "numAtRisk": 419}, {"groupId": "EG002", "numEvents": 0, "numAffected": 0, "numAtRisk": 38}]}, {"term": "Implant site irritation", "organSystem": "General disorders", "sourceVocabulary": "MedDRA", "assessmentType": "SYSTEMATIC_ASSESSMENT", "stats": [{"groupId": "EG000", "numEvents": 0, "numAffected": 0, "numAtRisk": 191}, {"groupId": "EG001", "numEvents": 1, "numAffected": 1, "numAtRisk": 419}, {"groupId": "EG002", "numEvents": 0, "numAffected": 0, "numAtRisk": 38}]}, {"term": "In-stent arterial restenosis", "organSystem": "General disorders", "sourceVocabulary": "MedDRA", "assessmentType": "SYSTEMATIC_ASSESSMENT", "stats": [{"groupId": "EG000", "numEvents": 0, "numAffected": 0, "numAtRisk": 191}, {"groupId": "EG001", "numEvents": 1, "numAffected": 1, "numAtRisk": 419}, {"groupId": "EG002", "numEvents": 0, "numAffected": 0, "numAtRisk": 38}]}, {"term": "Incision site complication", "organSystem": "General disorders", "sourceVocabulary": "MedDRA", "assessmentType": "SYSTEMATIC_ASSESSMENT", "stats": [{"groupId": "EG000", "numEvents": 1, "numAffected": 1, "numAtRisk": 191}, {"groupId": "EG001", "numEvents": 0, "numAffected": 0, "numAtRisk": 419}, {"groupId": "EG002", "numEvents": 0, "numAffected": 0, "numAtRisk": 38}]}, {"term": "Infection", "organSystem": "General disorders", "sourceVocabulary": "MedDRA", "assessmentType": "SYSTEMATIC_ASSESSMENT", "stats": [{"groupId": "EG000", "numEvents": 0, "numAffected": 0, "numAtRisk": 191}, {"groupId": "EG001", "numEvents": 1, "numAffected": 1, "numAtRisk": 419}, {"groupId": "EG002", "numEvents": 0, "numAffected": 0, "numAtRisk": 38}]}, {"term": "Inguinal hernia repair", "organSystem": "General disorders", "sourceVocabulary": "MedDRA", "assessmentType": "SYSTEMATIC_ASSESSMENT", "stats": [{"groupId": "EG000", "numEvents": 0, "numAffected": 0, "numAtRisk": 191}, {"groupId": "EG001", "numEvents": 1, "numAffected": 1, "numAtRisk": 419}, {"groupId": "EG002", "numEvents": 0, "numAffected": 0, "numAtRisk": 38}]}, {"term": "Intermittent claudication", "organSystem": "General disorders", "sourceVocabulary": "MedDRA", "assessmentType": "SYSTEMATIC_ASSESSMENT", "stats": [{"groupId": "EG000", "numEvents": 0, "numAffected": 0, "numAtRisk": 191}, {"groupId": "EG001", "numEvents": 1, "numAffected": 1, "numAtRisk": 419}, {"groupId": "EG002", "numEvents": 0, "numAffected": 0, "numAtRisk": 38}]}, {"term": "Intestinal obstruction", "organSystem": "General disorders", "sourceVocabulary": "MedDRA", "assessmentType": "SYSTEMATIC_ASSESSMENT", "stats": [{"groupId": "EG000", "numEvents": 0, "numAffected": 0, "numAtRisk": 191}, {"groupId": "EG001", "numEvents": 1, "numAffected": 1, "numAtRisk": 419}, {"groupId": "EG002", "numEvents": 0, "numAffected": 0, "numAtRisk": 38}]}, {"term": "Iodine allergy", "organSystem": "General disorders", "sourceVocabulary": "MedDRA", "assessmentType": "SYSTEMATIC_ASSESSMENT", "stats": [{"groupId": "EG000", "numEvents": 0, "numAffected": 0, "numAtRisk": 191}, {"groupId": "EG001", "numEvents": 1, "numAffected": 1, "numAtRisk": 419}, {"groupId": "EG002", "numEvents": 0, "numAffected": 0, "numAtRisk": 38}]}, {"term": "Joint dislocation", "organSystem": "General disorders", "sourceVocabulary": "MedDRA", "assessmentType": "SYSTEMATIC_ASSESSMENT", "stats": [{"groupId": "EG000", "numEvents": 1, "numAffected": 1, "numAtRisk": 191}, {"groupId": "EG001", "numEvents": 0, "numAffected": 0, "numAtRisk": 419}, {"groupId": "EG002", "numEvents": 0, "numAffected": 0, "numAtRisk": 38}]}, {"term": "Joint swelling", "organSystem": "General disorders", "sourceVocabulary": "MedDRA", "assessmentType": "SYSTEMATIC_ASSESSMENT", "stats": [{"groupId": "EG000", "numEvents": 1, "numAffected": 1, "numAtRisk": 191}, {"groupId": "EG001", "numEvents": 0, "numAffected": 0, "numAtRisk": 419}, {"groupId": "EG002", "numEvents": 0, "numAffected": 0, "numAtRisk": 38}]}, {"term": "Knee arthroplasty", "organSystem": "General disorders", "sourceVocabulary": "MedDRA", "assessmentType": "SYSTEMATIC_ASSESSMENT", "stats": [{"groupId": "EG000", "numEvents": 1, "numAffected": 1, "numAtRisk": 191}, {"groupId": "EG001", "numEvents": 0, "numAffected": 0, "numAtRisk": 419}, {"groupId": "EG002", "numEvents": 0, "numAffected": 0, "numAtRisk": 38}]}, {"term": "Leukothrombopenia", "organSystem": "General disorders", "sourceVocabulary": "MedDRA", "assessmentType": "SYSTEMATIC_ASSESSMENT", "stats": [{"groupId": "EG000", "numEvents": 0, "numAffected": 0, "numAtRisk": 191}, {"groupId": "EG001", "numEvents": 0, "numAffected": 0, "numAtRisk": 419}, {"groupId": "EG002", "numEvents": 1, "numAffected": 1, "numAtRisk": 38}]}, {"term": "Low cardiac output syndrome", "organSystem": "General disorders", "sourceVocabulary": "MedDRA", "assessmentType": "SYSTEMATIC_ASSESSMENT", "stats": [{"groupId": "EG000", "numEvents": 1, "numAffected": 1, "numAtRisk": 191}, {"groupId": "EG001", "numEvents": 0, "numAffected": 0, "numAtRisk": 419}, {"groupId": "EG002", "numEvents": 0, "numAffected": 0, "numAtRisk": 38}]}, {"term": "Lower respiratory tract infection", "organSystem": "General disorders", "sourceVocabulary": "MedDRA", "assessmentType": "SYSTEMATIC_ASSESSMENT", "stats": [{"groupId": "EG000", "numEvents": 1, "numAffected": 1, "numAtRisk": 191}, {"groupId": "EG001", "numEvents": 0, "numAffected": 0, "numAtRisk": 419}, {"groupId": "EG002", "numEvents": 0, "numAffected": 0, "numAtRisk": 38}]}, {"term": "Lower respiratory tract infection viral", "organSystem": "General disorders", "sourceVocabulary": "MedDRA", "assessmentType": "SYSTEMATIC_ASSESSMENT", "stats": [{"groupId": "EG000", "numEvents": 0, "numAffected": 0, "numAtRisk": 191}, {"groupId": "EG001", "numEvents": 1, "numAffected": 1, "numAtRisk": 419}, {"groupId": "EG002", "numEvents": 0, "numAffected": 0, "numAtRisk": 38}]}, {"term": "Lumbar spinal stenosis", "organSystem": "General disorders", "sourceVocabulary": "MedDRA", "assessmentType": "SYSTEMATIC_ASSESSMENT", "stats": [{"groupId": "EG000", "numEvents": 0, "numAffected": 0, "numAtRisk": 191}, {"groupId": "EG001", "numEvents": 1, "numAffected": 1, "numAtRisk": 419}, {"groupId": "EG002", "numEvents": 0, "numAffected": 0, "numAtRisk": 38}]}, {"term": "Lung adenocarcinoma", "organSystem": "General disorders", "sourceVocabulary": "MedDRA", "assessmentType": "SYSTEMATIC_ASSESSMENT", "stats": [{"groupId": "EG000", "numEvents": 0, "numAffected": 0, "numAtRisk": 191}, {"groupId": "EG001", "numEvents": 1, "numAffected": 1, "numAtRisk": 419}, {"groupId": "EG002", "numEvents": 0, "numAffected": 0, "numAtRisk": 38}]}, {"term": "Lung consolidation", "organSystem": "General disorders", "sourceVocabulary": "MedDRA", "assessmentType": "SYSTEMATIC_ASSESSMENT", "stats": [{"groupId": "EG000", "numEvents": 0, "numAffected": 0, "numAtRisk": 191}, {"groupId": "EG001", "numEvents": 1, "numAffected": 1, "numAtRisk": 419}, {"groupId": "EG002", "numEvents": 0, "numAffected": 0, "numAtRisk": 38}]}, {"term": "Malaise", "organSystem": "General disorders", "sourceVocabulary": "MedDRA", "assessmentType": "SYSTEMATIC_ASSESSMENT", "stats": [{"groupId": "EG000", "numEvents": 1, "numAffected": 1, "numAtRisk": 191}, {"groupId": "EG001", "numEvents": 0, "numAffected": 0, "numAtRisk": 419}, {"groupId": "EG002", "numEvents": 0, "numAffected": 0, "numAtRisk": 38}]}, {"term": "Medical device complication", "organSystem": "General disorders", "sourceVocabulary": "MedDRA", "assessmentType": "SYSTEMATIC_ASSESSMENT", "stats": [{"groupId": "EG000", "numEvents": 0, "numAffected": 0, "numAtRisk": 191}, {"groupId": "EG001", "numEvents": 1, "numAffected": 1, "numAtRisk": 419}, {"groupId": "EG002", "numEvents": 0, "numAffected": 0, "numAtRisk": 38}]}, {"term": "Melaena", "organSystem": "General disorders", "sourceVocabulary": "MedDRA", "assessmentType": "SYSTEMATIC_ASSESSMENT", "stats": [{"groupId": "EG000", "numEvents": 0, "numAffected": 0, "numAtRisk": 191}, {"groupId": "EG001", "numEvents": 1, "numAffected": 1, "numAtRisk": 419}, {"groupId": "EG002", "numEvents": 0, "numAffected": 0, "numAtRisk": 38}]}, {"term": "Metastases to bone", "organSystem": "General disorders", "sourceVocabulary": "MedDRA", "assessmentType": "SYSTEMATIC_ASSESSMENT", "stats": [{"groupId": "EG000", "numEvents": 0, "numAffected": 0, "numAtRisk": 191}, {"groupId": "EG001", "numEvents": 1, "numAffected": 1, "numAtRisk": 419}, {"groupId": "EG002", "numEvents": 0, "numAffected": 0, "numAtRisk": 38}]}, {"term": "Metastatic neoplasm", "organSystem": "General disorders", "sourceVocabulary": "MedDRA", "assessmentType": "SYSTEMATIC_ASSESSMENT", "stats": [{"groupId": "EG000", "numEvents": 1, "numAffected": 1, "numAtRisk": 191}, {"groupId": "EG001", "numEvents": 0, "numAffected": 0, "numAtRisk": 419}, {"groupId": "EG002", "numEvents": 0, "numAffected": 0, "numAtRisk": 38}]}, {"term": "Mitral valve disease", "organSystem": "General disorders", "sourceVocabulary": "MedDRA", "assessmentType": "SYSTEMATIC_ASSESSMENT", "stats": [{"groupId": "EG000", "numEvents": 0, "numAffected": 0, "numAtRisk": 191}, {"groupId": "EG001", "numEvents": 1, "numAffected": 1, "numAtRisk": 419}, {"groupId": "EG002", "numEvents": 0, "numAffected": 0, "numAtRisk": 38}]}, {"term": "Mitral valve repair", "organSystem": "General disorders", "sourceVocabulary": "MedDRA", "assessmentType": "SYSTEMATIC_ASSESSMENT", "stats": [{"groupId": "EG000", "numEvents": 0, "numAffected": 0, "numAtRisk": 191}, {"groupId": "EG001", "numEvents": 1, "numAffected": 1, "numAtRisk": 419}, {"groupId": "EG002", "numEvents": 0, "numAffected": 0, "numAtRisk": 38}]}, {"term": "Multi-organ failure", "organSystem": "General disorders", "sourceVocabulary": "MedDRA", "assessmentType": "SYSTEMATIC_ASSESSMENT", "stats": [{"groupId": "EG000", "numEvents": 0, "numAffected": 0, "numAtRisk": 191}, {"groupId": "EG001", "numEvents": 1, "numAffected": 1, "numAtRisk": 419}, {"groupId": "EG002", "numEvents": 0, "numAffected": 0, "numAtRisk": 38}]}, {"term": "Musculoskeletal chest pain", "organSystem": "General disorders", "sourceVocabulary": "MedDRA", "assessmentType": "SYSTEMATIC_ASSESSMENT", "stats": [{"groupId": "EG000", "numEvents": 0, "numAffected": 0, "numAtRisk": 191}, {"groupId": "EG001", "numEvents": 1, "numAffected": 1, "numAtRisk": 419}, {"groupId": "EG002", "numEvents": 0, "numAffected": 0, "numAtRisk": 38}]}, {"term": "Neoplasm malignant", "organSystem": "General disorders", "sourceVocabulary": "MedDRA", "assessmentType": "SYSTEMATIC_ASSESSMENT", "stats": [{"groupId": "EG000", "numEvents": 0, "numAffected": 0, "numAtRisk": 191}, {"groupId": "EG001", "numEvents": 1, "numAffected": 1, "numAtRisk": 419}, {"groupId": "EG002", "numEvents": 0, "numAffected": 0, "numAtRisk": 38}]}, {"term": "Nephrolithiasis", "organSystem": "General disorders", "sourceVocabulary": "MedDRA", "assessmentType": "SYSTEMATIC_ASSESSMENT", "stats": [{"groupId": "EG000", "numEvents": 0, "numAffected": 0, "numAtRisk": 191}, {"groupId": "EG001", "numEvents": 1, "numAffected": 1, "numAtRisk": 419}, {"groupId": "EG002", "numEvents": 0, "numAffected": 0, "numAtRisk": 38}]}, {"term": "Nodal arrhythmia", "organSystem": "General disorders", "sourceVocabulary": "MedDRA", "assessmentType": "SYSTEMATIC_ASSESSMENT", "stats": [{"groupId": "EG000", "numEvents": 0, "numAffected": 0, "numAtRisk": 191}, {"groupId": "EG001", "numEvents": 1, "numAffected": 1, "numAtRisk": 419}, {"groupId": "EG002", "numEvents": 0, "numAffected": 0, "numAtRisk": 38}]}, {"term": "Orthostatic intolerance", "organSystem": "General disorders", "sourceVocabulary": "MedDRA", "assessmentType": "SYSTEMATIC_ASSESSMENT", "stats": [{"groupId": "EG000", "numEvents": 0, "numAffected": 0, "numAtRisk": 191}, {"groupId": "EG001", "numEvents": 1, "numAffected": 1, "numAtRisk": 419}, {"groupId": "EG002", "numEvents": 0, "numAffected": 0, "numAtRisk": 38}]}, {"term": "Oxygen saturation decreased", "organSystem": "General disorders", "sourceVocabulary": "MedDRA", "assessmentType": "SYSTEMATIC_ASSESSMENT", "stats": [{"groupId": "EG000", "numEvents": 0, "numAffected": 0, "numAtRisk": 191}, {"groupId": "EG001", "numEvents": 1, "numAffected": 1, "numAtRisk": 419}, {"groupId": "EG002", "numEvents": 0, "numAffected": 0, "numAtRisk": 38}]}, {"term": "Palpitations", "organSystem": "General disorders", "sourceVocabulary": "MedDRA", "assessmentType": "SYSTEMATIC_ASSESSMENT", "stats": [{"groupId": "EG000", "numEvents": 0, "numAffected": 0, "numAtRisk": 191}, {"groupId": "EG001", "numEvents": 1, "numAffected": 1, "numAtRisk": 419}, {"groupId": "EG002", "numEvents": 0, "numAffected": 0, "numAtRisk": 38}]}, {"term": "Perianal abscess", "organSystem": "General disorders", "sourceVocabulary": "MedDRA", "assessmentType": "SYSTEMATIC_ASSESSMENT", "stats": [{"groupId": "EG000", "numEvents": 0, "numAffected": 0, "numAtRisk": 191}, {"groupId": "EG001", "numEvents": 1, "numAffected": 1, "numAtRisk": 419}, {"groupId": "EG002", "numEvents": 0, "numAffected": 0, "numAtRisk": 38}]}, {"term": "Peripheral arterial occlusive disease", "organSystem": "General disorders", "sourceVocabulary": "MedDRA", "assessmentType": "SYSTEMATIC_ASSESSMENT", "stats": [{"groupId": "EG000", "numEvents": 0, "numAffected": 0, "numAtRisk": 191}, {"groupId": "EG001", "numEvents": 0, "numAffected": 0, "numAtRisk": 419}, {"groupId": "EG002", "numEvents": 1, "numAffected": 1, "numAtRisk": 38}]}, {"term": "Peripheral ischemia", "organSystem": "General disorders", "sourceVocabulary": "MedDRA", "assessmentType": "SYSTEMATIC_ASSESSMENT", "stats": [{"groupId": "EG000", "numEvents": 0, "numAffected": 0, "numAtRisk": 191}, {"groupId": "EG001", "numEvents": 1, "numAffected": 1, "numAtRisk": 419}, {"groupId": "EG002", "numEvents": 0, "numAffected": 0, "numAtRisk": 38}]}, {"term": "Phlebitis", "organSystem": "General disorders", "sourceVocabulary": "MedDRA", "assessmentType": "SYSTEMATIC_ASSESSMENT", "stats": [{"groupId": "EG000", "numEvents": 0, "numAffected": 0, "numAtRisk": 191}, {"groupId": "EG001", "numEvents": 1, "numAffected": 1, "numAtRisk": 419}, {"groupId": "EG002", "numEvents": 0, "numAffected": 0, "numAtRisk": 38}]}, {"term": "Pituitary tumor", "organSystem": "General disorders", "sourceVocabulary": "MedDRA", "assessmentType": "SYSTEMATIC_ASSESSMENT", "stats": [{"groupId": "EG000", "numEvents": 0, "numAffected": 0, "numAtRisk": 191}, {"groupId": "EG001", "numEvents": 1, "numAffected": 1, "numAtRisk": 419}, {"groupId": "EG002", "numEvents": 0, "numAffected": 0, "numAtRisk": 38}]}, {"term": "Pleural effusion", "organSystem": "General disorders", "sourceVocabulary": "MedDRA", "assessmentType": "SYSTEMATIC_ASSESSMENT", "stats": [{"groupId": "EG000", "numEvents": 0, "numAffected": 0, "numAtRisk": 191}, {"groupId": "EG001", "numEvents": 1, "numAffected": 1, "numAtRisk": 419}, {"groupId": "EG002", "numEvents": 0, "numAffected": 0, "numAtRisk": 38}]}, {"term": "Polyneuropathy", "organSystem": "General disorders", "sourceVocabulary": "MedDRA", "assessmentType": "SYSTEMATIC_ASSESSMENT", "stats": [{"groupId": "EG000", "numEvents": 1, "numAffected": 1, "numAtRisk": 191}, {"groupId": "EG001", "numEvents": 0, "numAffected": 0, "numAtRisk": 419}, {"groupId": "EG002", "numEvents": 0, "numAffected": 0, "numAtRisk": 38}]}, {"term": "Prostate cancer", "organSystem": "General disorders", "sourceVocabulary": "MedDRA", "assessmentType": "SYSTEMATIC_ASSESSMENT", "stats": [{"groupId": "EG000", "numEvents": 0, "numAffected": 0, "numAtRisk": 191}, {"groupId": "EG001", "numEvents": 1, "numAffected": 1, "numAtRisk": 419}, {"groupId": "EG002", "numEvents": 0, "numAffected": 0, "numAtRisk": 38}]}, {"term": "Pulmonary hypertension", "organSystem": "General disorders", "sourceVocabulary": "MedDRA", "assessmentType": "SYSTEMATIC_ASSESSMENT", "stats": [{"groupId": "EG000", "numEvents": 1, "numAffected": 1, "numAtRisk": 191}, {"groupId": "EG001", "numEvents": 0, "numAffected": 0, "numAtRisk": 419}, {"groupId": "EG002", "numEvents": 0, "numAffected": 0, "numAtRisk": 38}]}, {"term": "Pulmonary mass", "organSystem": "General disorders", "sourceVocabulary": "MedDRA", "assessmentType": "SYSTEMATIC_ASSESSMENT", "stats": [{"groupId": "EG000", "numEvents": 0, "numAffected": 0, "numAtRisk": 191}, {"groupId": "EG001", "numEvents": 1, "numAffected": 1, "numAtRisk": 419}, {"groupId": "EG002", "numEvents": 0, "numAffected": 0, "numAtRisk": 38}]}, {"term": "Rectal hemorrhage", "organSystem": "General disorders", "sourceVocabulary": "MedDRA", "assessmentType": "SYSTEMATIC_ASSESSMENT", "stats": [{"groupId": "EG000", "numEvents": 0, "numAffected": 0, "numAtRisk": 191}, {"groupId": "EG001", "numEvents": 1, "numAffected": 1, "numAtRisk": 419}, {"groupId": "EG002", "numEvents": 0, "numAffected": 0, "numAtRisk": 38}]}, {"term": "Renal cancer metastatic", "organSystem": "General disorders", "sourceVocabulary": "MedDRA", "assessmentType": "SYSTEMATIC_ASSESSMENT", "stats": [{"groupId": "EG000", "numEvents": 1, "numAffected": 1, "numAtRisk": 191}, {"groupId": "EG001", "numEvents": 0, "numAffected": 0, "numAtRisk": 419}, {"groupId": "EG002", "numEvents": 0, "numAffected": 0, "numAtRisk": 38}]}, {"term": "Renal impairment", "organSystem": "General disorders", "sourceVocabulary": "MedDRA", "assessmentType": "SYSTEMATIC_ASSESSMENT", "stats": [{"groupId": "EG000", "numEvents": 0, "numAffected": 0, "numAtRisk": 191}, {"groupId": "EG001", "numEvents": 1, "numAffected": 1, "numAtRisk": 419}, {"groupId": "EG002", "numEvents": 0, "numAffected": 0, "numAtRisk": 38}]}, {"term": "Retinal detachment", "organSystem": "General disorders", "sourceVocabulary": "MedDRA", "assessmentType": "SYSTEMATIC_ASSESSMENT", "stats": [{"groupId": "EG000", "numEvents": 1, "numAffected": 1, "numAtRisk": 191}, {"groupId": "EG001", "numEvents": 0, "numAffected": 0, "numAtRisk": 419}, {"groupId": "EG002", "numEvents": 0, "numAffected": 0, "numAtRisk": 38}]}, {"term": "Retroperitoneal hemorrhage", "organSystem": "General disorders", "sourceVocabulary": "MedDRA", "assessmentType": "SYSTEMATIC_ASSESSMENT", "stats": [{"groupId": "EG000", "numEvents": 0, "numAffected": 0, "numAtRisk": 191}, {"groupId": "EG001", "numEvents": 1, "numAffected": 1, "numAtRisk": 419}, {"groupId": "EG002", "numEvents": 0, "numAffected": 0, "numAtRisk": 38}]}, {"term": "Sinusitis", "organSystem": "General disorders", "sourceVocabulary": "MedDRA", "assessmentType": "SYSTEMATIC_ASSESSMENT", "stats": [{"groupId": "EG000", "numEvents": 0, "numAffected": 0, "numAtRisk": 191}, {"groupId": "EG001", "numEvents": 1, "numAffected": 1, "numAtRisk": 419}, {"groupId": "EG002", "numEvents": 0, "numAffected": 0, "numAtRisk": 38}]}, {"term": "Sinusitis", "organSystem": "General disorders", "sourceVocabulary": "MedDRA", "assessmentType": "SYSTEMATIC_ASSESSMENT", "stats": [{"groupId": "EG000", "numEvents": 1, "numAffected": 1, "numAtRisk": 191}, {"groupId": "EG001", "numEvents": 0, "numAffected": 0, "numAtRisk": 419}, {"groupId": "EG002", "numEvents": 0, "numAffected": 0, "numAtRisk": 38}]}, {"term": "Skin irritation", "organSystem": "General disorders", "sourceVocabulary": "MedDRA", "assessmentType": "SYSTEMATIC_ASSESSMENT", "stats": [{"groupId": "EG000", "numEvents": 0, "numAffected": 0, "numAtRisk": 191}, {"groupId": "EG001", "numEvents": 1, "numAffected": 1, "numAtRisk": 419}, {"groupId": "EG002", "numEvents": 0, "numAffected": 0, "numAtRisk": 38}]}, {"term": "Skin ulcer", "organSystem": "General disorders", "sourceVocabulary": "MedDRA", "assessmentType": "SYSTEMATIC_ASSESSMENT", "stats": [{"groupId": "EG000", "numEvents": 1, "numAffected": 1, "numAtRisk": 191}, {"groupId": "EG001", "numEvents": 0, "numAffected": 0, "numAtRisk": 419}, {"groupId": "EG002", "numEvents": 0, "numAffected": 0, "numAtRisk": 38}]}, {"term": "Small cell lung cancer stage unspecified", "organSystem": "General disorders", "sourceVocabulary": "MedDRA", "assessmentType": "SYSTEMATIC_ASSESSMENT", "stats": [{"groupId": "EG000", "numEvents": 0, "numAffected": 0, "numAtRisk": 191}, {"groupId": "EG001", "numEvents": 1, "numAffected": 1, "numAtRisk": 419}, {"groupId": "EG002", "numEvents": 0, "numAffected": 0, "numAtRisk": 38}]}, {"term": "Small intestinal obstruction", "organSystem": "General disorders", "sourceVocabulary": "MedDRA", "assessmentType": "SYSTEMATIC_ASSESSMENT", "stats": [{"groupId": "EG000", "numEvents": 0, "numAffected": 0, "numAtRisk": 191}, {"groupId": "EG001", "numEvents": 1, "numAffected": 1, "numAtRisk": 419}, {"groupId": "EG002", "numEvents": 0, "numAffected": 0, "numAtRisk": 38}]}, {"term": "Spondylolysis", "organSystem": "General disorders", "sourceVocabulary": "MedDRA", "assessmentType": "SYSTEMATIC_ASSESSMENT", "stats": [{"groupId": "EG000", "numEvents": 1, "numAffected": 1, "numAtRisk": 191}, {"groupId": "EG001", "numEvents": 0, "numAffected": 0, "numAtRisk": 419}, {"groupId": "EG002", "numEvents": 0, "numAffected": 0, "numAtRisk": 38}]}, {"term": "Squamous cell carcinoma", "organSystem": "General disorders", "sourceVocabulary": "MedDRA", "assessmentType": "SYSTEMATIC_ASSESSMENT", "stats": [{"groupId": "EG000", "numEvents": 0, "numAffected": 0, "numAtRisk": 191}, {"groupId": "EG001", "numEvents": 1, "numAffected": 1, "numAtRisk": 419}, {"groupId": "EG002", "numEvents": 0, "numAffected": 0, "numAtRisk": 38}]}, {"term": "Subarachnoid hemorrhage", "organSystem": "General disorders", "sourceVocabulary": "MedDRA", "assessmentType": "SYSTEMATIC_ASSESSMENT", "stats": [{"groupId": "EG000", "numEvents": 0, "numAffected": 0, "numAtRisk": 191}, {"groupId": "EG001", "numEvents": 1, "numAffected": 1, "numAtRisk": 419}, {"groupId": "EG002", "numEvents": 0, "numAffected": 0, "numAtRisk": 38}]}, {"term": "Subdural hematoma", "organSystem": "General disorders", "sourceVocabulary": "MedDRA", "assessmentType": "SYSTEMATIC_ASSESSMENT", "stats": [{"groupId": "EG000", "numEvents": 0, "numAffected": 0, "numAtRisk": 191}, {"groupId": "EG001", "numEvents": 1, "numAffected": 1, "numAtRisk": 419}, {"groupId": "EG002", "numEvents": 0, "numAffected": 0, "numAtRisk": 38}]}, {"term": "Supraventricular tachycardia", "organSystem": "General disorders", "sourceVocabulary": "MedDRA", "assessmentType": "SYSTEMATIC_ASSESSMENT", "stats": [{"groupId": "EG000", "numEvents": 0, "numAffected": 0, "numAtRisk": 191}, {"groupId": "EG001", "numEvents": 1, "numAffected": 1, "numAtRisk": 419}, {"groupId": "EG002", "numEvents": 0, "numAffected": 0, "numAtRisk": 38}]}, {"term": "Throat lesion", "organSystem": "General disorders", "sourceVocabulary": "MedDRA", "assessmentType": "SYSTEMATIC_ASSESSMENT", "stats": [{"groupId": "EG000", "numEvents": 1, "numAffected": 1, "numAtRisk": 191}, {"groupId": "EG001", "numEvents": 0, "numAffected": 0, "numAtRisk": 419}, {"groupId": "EG002", "numEvents": 0, "numAffected": 0, "numAtRisk": 38}]}, {"term": "Thrombocytopenia", "organSystem": "General disorders", "sourceVocabulary": "MedDRA", "assessmentType": "SYSTEMATIC_ASSESSMENT", "stats": [{"groupId": "EG000", "numEvents": 1, "numAffected": 1, "numAtRisk": 191}, {"groupId": "EG001", "numEvents": 0, "numAffected": 0, "numAtRisk": 419}, {"groupId": "EG002", "numEvents": 0, "numAffected": 0, "numAtRisk": 38}]}, {"term": "Tonsillar disorder", "organSystem": "General disorders", "sourceVocabulary": "MedDRA", "assessmentType": "SYSTEMATIC_ASSESSMENT", "stats": [{"groupId": "EG000", "numEvents": 0, "numAffected": 0, "numAtRisk": 191}, {"groupId": "EG001", "numEvents": 1, "numAffected": 1, "numAtRisk": 419}, {"groupId": "EG002", "numEvents": 0, "numAffected": 0, "numAtRisk": 38}]}, {"term": "Tooth disorder", "organSystem": "General disorders", "sourceVocabulary": "MedDRA", "assessmentType": "SYSTEMATIC_ASSESSMENT", "stats": [{"groupId": "EG000", "numEvents": 0, "numAffected": 0, "numAtRisk": 191}, {"groupId": "EG001", "numEvents": 1, "numAffected": 1, "numAtRisk": 419}, {"groupId": "EG002", "numEvents": 0, "numAffected": 0, "numAtRisk": 38}]}, {"term": "Twiddler's syndrome", "organSystem": "General disorders", "sourceVocabulary": "MedDRA", "assessmentType": "SYSTEMATIC_ASSESSMENT", "stats": [{"groupId": "EG000", "numEvents": 1, "numAffected": 1, "numAtRisk": 191}, {"groupId": "EG001", "numEvents": 0, "numAffected": 0, "numAtRisk": 419}, {"groupId": "EG002", "numEvents": 0, "numAffected": 0, "numAtRisk": 38}]}, {"term": "Urinary bladder adenoma", "organSystem": "General disorders", "sourceVocabulary": "MedDRA", "assessmentType": "SYSTEMATIC_ASSESSMENT", "stats": [{"groupId": "EG000", "numEvents": 0, "numAffected": 0, "numAtRisk": 191}, {"groupId": "EG001", "numEvents": 1, "numAffected": 1, "numAtRisk": 419}, {"groupId": "EG002", "numEvents": 0, "numAffected": 0, "numAtRisk": 38}]}, {"term": "Valvuloplasty cardiac", "organSystem": "General disorders", "sourceVocabulary": "MedDRA", "assessmentType": "SYSTEMATIC_ASSESSMENT", "stats": [{"groupId": "EG000", "numEvents": 0, "numAffected": 0, "numAtRisk": 191}, {"groupId": "EG001", "numEvents": 1, "numAffected": 1, "numAtRisk": 419}, {"groupId": "EG002", "numEvents": 0, "numAffected": 0, "numAtRisk": 38}]}, {"term": "Vascular pseudoaneurysm", "organSystem": "General disorders", "sourceVocabulary": "MedDRA", "assessmentType": "SYSTEMATIC_ASSESSMENT", "stats": [{"groupId": "EG000", "numEvents": 0, "numAffected": 0, "numAtRisk": 191}, {"groupId": "EG001", "numEvents": 1, "numAffected": 1, "numAtRisk": 419}, {"groupId": "EG002", "numEvents": 0, "numAffected": 0, "numAtRisk": 38}]}, {"term": "Venous stenosis", "organSystem": "General disorders", "sourceVocabulary": "MedDRA", "assessmentType": "SYSTEMATIC_ASSESSMENT", "stats": [{"groupId": "EG000", "numEvents": 0, "numAffected": 0, "numAtRisk": 191}, {"groupId": "EG001", "numEvents": 1, "numAffected": 1, "numAtRisk": 419}, {"groupId": "EG002", "numEvents": 0, "numAffected": 0, "numAtRisk": 38}]}, {"term": "Ventricular arrhythmia", "organSystem": "General disorders", "sourceVocabulary": "MedDRA", "assessmentType": "SYSTEMATIC_ASSESSMENT", "stats": [{"groupId": "EG000", "numEvents": 0, "numAffected": 0, "numAtRisk": 191}, {"groupId": "EG001", "numEvents": 1, "numAffected": 1, "numAtRisk": 419}, {"groupId": "EG002", "numEvents": 0, "numAffected": 0, "numAtRisk": 38}]}, {"term": "Ventricular assist device insertion", "organSystem": "General disorders", "sourceVocabulary": "MedDRA", "assessmentType": "SYSTEMATIC_ASSESSMENT", "stats": [{"groupId": "EG000", "numEvents": 0, "numAffected": 0, "numAtRisk": 191}, {"groupId": "EG001", "numEvents": 1, "numAffected": 1, "numAtRisk": 419}, {"groupId": "EG002", "numEvents": 0, "numAffected": 0, "numAtRisk": 38}]}, {"term": "Vertigo CNS origin", "organSystem": "General disorders", "sourceVocabulary": "MedDRA", "assessmentType": "SYSTEMATIC_ASSESSMENT", "stats": [{"groupId": "EG000", "numEvents": 0, "numAffected": 0, "numAtRisk": 191}, {"groupId": "EG001", "numEvents": 1, "numAffected": 1, "numAtRisk": 419}, {"groupId": "EG002", "numEvents": 0, "numAffected": 0, "numAtRisk": 38}]}, {"term": "Vestibular neuronitis", "organSystem": "General disorders", "sourceVocabulary": "MedDRA", "assessmentType": "SYSTEMATIC_ASSESSMENT", "stats": [{"groupId": "EG000", "numEvents": 0, "numAffected": 0, "numAtRisk": 191}, {"groupId": "EG001", "numEvents": 1, "numAffected": 1, "numAtRisk": 419}, {"groupId": "EG002", "numEvents": 0, "numAffected": 0, "numAtRisk": 38}]}, {"term": "Viral infection", "organSystem": "General disorders", "sourceVocabulary": "MedDRA", "assessmentType": "SYSTEMATIC_ASSESSMENT", "stats": [{"groupId": "EG000", "numEvents": 1, "numAffected": 1, "numAtRisk": 191}, {"groupId": "EG001", "numEvents": 0, "numAffected": 0, "numAtRisk": 419}, {"groupId": "EG002", "numEvents": 0, "numAffected": 0, "numAtRisk": 38}]}, {"term": "Vocal cord polyp", "organSystem": "General disorders", "sourceVocabulary": "MedDRA", "assessmentType": "SYSTEMATIC_ASSESSMENT", "stats": [{"groupId": "EG000", "numEvents": 0, "numAffected": 0, "numAtRisk": 191}, {"groupId": "EG001", "numEvents": 1, "numAffected": 1, "numAtRisk": 419}, {"groupId": "EG002", "numEvents": 0, "numAffected": 0, "numAtRisk": 38}]}, {"term": "Vocal cord thickening", "organSystem": "General disorders", "sourceVocabulary": "MedDRA", "assessmentType": "SYSTEMATIC_ASSESSMENT", "stats": [{"groupId": "EG000", "numEvents": 0, "numAffected": 0, "numAtRisk": 191}, {"groupId": "EG001", "numEvents": 1, "numAffected": 1, "numAtRisk": 419}, {"groupId": "EG002", "numEvents": 0, "numAffected": 0, "numAtRisk": 38}]}, {"term": "Wound dehiscence", "organSystem": "General disorders", "sourceVocabulary": "MedDRA", "assessmentType": "SYSTEMATIC_ASSESSMENT", "stats": [{"groupId": "EG000", "numEvents": 0, "numAffected": 0, "numAtRisk": 191}, {"groupId": "EG001", "numEvents": 1, "numAffected": 1, "numAtRisk": 419}, {"groupId": "EG002", "numEvents": 0, "numAffected": 0, "numAtRisk": 38}]}], "otherEvents": [{"term": "Cardiac failure chronic", "organSystem": "General disorders", "sourceVocabulary": "MedDRA", "assessmentType": "SYSTEMATIC_ASSESSMENT", "stats": [{"groupId": "EG000", "numEvents": 30, "numAffected": 24, "numAtRisk": 119}, {"groupId": "EG001", "numEvents": 35, "numAffected": 31, "numAtRisk": 491}, {"groupId": "EG002", "numEvents": 1, "numAffected": 1, "numAtRisk": 38}]}, {"term": "Atrial fibrillation", "organSystem": "General disorders", "sourceVocabulary": "MedDRA", "assessmentType": "SYSTEMATIC_ASSESSMENT", "stats": [{"groupId": "EG000", "numEvents": 8, "numAffected": 8, "numAtRisk": 119}, {"groupId": "EG001", "numEvents": 57, "numAffected": 47, "numAtRisk": 491}, {"groupId": "EG002", "numEvents": 0, "numAffected": 0, "numAtRisk": 38}]}, {"term": "Dizziness", "organSystem": "General disorders", "sourceVocabulary": "MedDRA", "assessmentType": "SYSTEMATIC_ASSESSMENT", "stats": [{"groupId": "EG000", "numEvents": 9, "numAffected": 9, "numAtRisk": 119}, {"groupId": "EG001", "numEvents": 29, "numAffected": 25, "numAtRisk": 491}, {"groupId": "EG002", "numEvents": 1, "numAffected": 1, "numAtRisk": 38}]}, {"term": "Inappropriate device stimulation of tissue", "organSystem": "General disorders", "sourceVocabulary": "MedDRA", "assessmentType": "SYSTEMATIC_ASSESSMENT", "stats": [{"groupId": "EG000", "numEvents": 12, "numAffected": 11, "numAtRisk": 119}, {"groupId": "EG001", "numEvents": 25, "numAffected": 21, "numAtRisk": 491}, {"groupId": "EG002", "numEvents": 0, "numAffected": 0, "numAtRisk": 38}]}, {"term": "Inappropriate device irritation of tissue", "organSystem": "General disorders", "sourceVocabulary": "MedDRA", "assessmentType": "SYSTEMATIC_ASSESSMENT", "stats": [{"groupId": "EG000", "numEvents": 4, "numAffected": 4, "numAtRisk": 119}, {"groupId": "EG001", "numEvents": 30, "numAffected": 26, "numAtRisk": 491}, {"groupId": "EG002", "numEvents": 1, "numAffected": 1, "numAtRisk": 38}]}, {"term": "Hypotension", "organSystem": "General disorders", "sourceVocabulary": "MedDRA", "assessmentType": "SYSTEMATIC_ASSESSMENT", "stats": [{"groupId": "EG000", "numEvents": 12, "numAffected": 10, "numAtRisk": 119}, {"groupId": "EG001", "numEvents": 16, "numAffected": 16, "numAtRisk": 491}, {"groupId": "EG002", "numEvents": 0, "numAffected": 0, "numAtRisk": 38}]}, {"term": "Fatigue", "organSystem": "General disorders", "sourceVocabulary": "MedDRA", "assessmentType": "SYSTEMATIC_ASSESSMENT", "stats": [{"groupId": "EG000", "numEvents": 12, "numAffected": 12, "numAtRisk": 119}, {"groupId": "EG001", "numEvents": 15, "numAffected": 15, "numAtRisk": 491}, {"groupId": "EG002", "numEvents": 0, "numAffected": 0, "numAtRisk": 38}]}]}, "moreInfoModule": {"certainAgreement": {"piSponsorEmployee": false, "restrictionType": "OTHER", "restrictiveAgreement": true, "otherDetails": "In most cases, contracts allow investigators to publish study results per the publication plan/protocol following Medtronic's review to determine whether confidential information (\"CI\") is disclosed. Any such CI is deleted prior to publication/presentation. Medtronic may not censor/interfere with the publication except as described. Investigators may not publish any single-site publications until the main multi-site study publication has occurred."}, "pointOfContact": {"title": "CRDM Core Clinical", "organization": "Medtronic CRDM", "email": "medtroniccrmtrials@medtronic.com", "phone": "800-328-2518"}}}, "derivedSection": {"miscInfoModule": {"versionHolder": "2024-06-24"}, "conditionBrowseModule": {"meshes": [{"id": "D000006333", "term": "Heart Failure"}, {"id": "D000018754", "term": "Ventricular Dysfunction"}, {"id": "D000018487", "term": "Ventricular Dysfunction, Left"}], "ancestors": [{"id": "D000006331", "term": "Heart Diseases"}, {"id": "D000002318", "term": "Cardiovascular Diseases"}], "browseLeaves": [{"id": "M9421", "name": "Heart Failure", "asFound": "Heart Failure", "relevance": "HIGH"}, {"id": "M20824", "name": "Ventricular Dysfunction", "asFound": "Ventricular Dysfunction", "relevance": "HIGH"}, {"id": "M20591", "name": "Ventricular Dysfunction, Left", "asFound": "Left Ventricular Dysfunction", "relevance": "HIGH"}, {"id": "M27583", "name": "Systolic Murmurs", "relevance": "LOW"}, {"id": "M9419", "name": "Heart Diseases", "relevance": "LOW"}], "browseBranches": [{"abbrev": "BC14", "name": "Heart and Blood Diseases"}, {"abbrev": "All", "name": "All Conditions"}, {"abbrev": "BC23", "name": "Symptoms and General Pathology"}]}}, "hasResults": true}