{"protocolSection": {"identificationModule": {"nctId": "NCT02105012", "orgStudyIdInfo": {"id": "PT008001"}, "organization": {"fullName": "Pearl Therapeutics, Inc.", "class": "INDUSTRY"}, "briefTitle": "Study to Assess the Efficacy and Safety of Budesonide (PT008) in Adult Subjects With Mild to Moderate Persistent Asthma", "officialTitle": "Randomized, Double-Blind, Chronic Dosing (4 Weeks), Four-Period, Five-Treatment, Incomplete Block, Cross-Over, Multi-Center Study to Assess the Efficacy and Safety of Four Doses of Budesonide Inhalation Aerosol (BD MDI, PT008) Relative to Placebo MDI in Adult Subjects With Mild to Moderate Persistent Asthma"}, "statusModule": {"statusVerifiedDate": "2017-05", "overallStatus": "COMPLETED", "expandedAccessInfo": {"hasExpandedAccess": false}, "startDateStruct": {"date": "2014-04-01", "type": "ACTUAL"}, "primaryCompletionDateStruct": {"date": "2015-09-01", "type": "ACTUAL"}, "completionDateStruct": {"date": "2015-09-04", "type": "ACTUAL"}, "studyFirstSubmitDate": "2014-04-02", "studyFirstSubmitQcDate": "2014-04-04", "studyFirstPostDateStruct": {"date": "2014-04-07", "type": "ESTIMATED"}, "resultsFirstSubmitDate": "2016-10-31", "resultsFirstSubmitQcDate": "2017-05-05", "resultsFirstPostDateStruct": {"date": "2017-06-06", "type": "ACTUAL"}, "lastUpdateSubmitDate": "2017-05-05", "lastUpdatePostDateStruct": {"date": "2017-06-06", "type": "ACTUAL"}}, "sponsorCollaboratorsModule": {"responsibleParty": {"type": "SPONSOR"}, "leadSponsor": {"name": "Pearl Therapeutics, Inc.", "class": "INDUSTRY"}}, "oversightModule": {"oversightHasDmc": false, "isFdaRegulatedDrug": true, "isFdaRegulatedDevice": false}, "descriptionModule": {"briefSummary": "Study to assess the efficacy and safety of four doses of budesonide inhalation aerosol (BD MDI, PT008) relative to placebo MDI in adult subjects with mild to moderate persistent asthma.", "detailedDescription": "This is a randomized, double-blind, chronic dosing (4 weeks), four-period, five-treatment, incomplete block, cross-over, multicenter study to assess the efficacy and safety of four doses of budesonide inhalation aerosol (BD MDI, PT008) relative to placebo MDI in adult subjects with mild to moderate persistent asthma."}, "conditionsModule": {"conditions": ["Asthma"], "keywords": ["Mild", "moderate persistent", "Adult"]}, "designModule": {"studyType": "INTERVENTIONAL", "phases": ["PHASE2"], "designInfo": {"allocation": "RANDOMIZED", "interventionModel": "CROSSOVER", "primaryPurpose": "TREATMENT", "maskingInfo": {"masking": "DOUBLE", "maskingDescription": "Double Blind", "whoMasked": ["PARTICIPANT", "INVESTIGATOR"]}}, "enrollmentInfo": {"count": 147, "type": "ACTUAL"}}, "armsInterventionsModule": {"armGroups": [{"label": "BD MDI 320 \u00b5g", "type": "EXPERIMENTAL", "description": "Budesonide metered dose inhaler (BD MDI) 320 \u00b5g (PT008) administered as 2 inhalations BID", "interventionNames": ["Drug: BD MDI 320 \u00b5g"]}, {"label": "BD MDI 160 \u00b5g", "type": "EXPERIMENTAL", "description": "BD MDI 160 \u00b5g (PT008) administered as 2 inhalations BID", "interventionNames": ["Drug: BD MDI 160 \u00b5g"]}, {"label": "BD MDI 80 \u00b5g", "type": "EXPERIMENTAL", "description": "BD MDI 80 \u00b5g (PT008) administered as 2 inhalations BID", "interventionNames": ["Drug: BD MDI 80 \u00b5g"]}, {"label": "BD MDI 40 \u00b5g", "type": "EXPERIMENTAL", "description": "BD MDI 40 \u00b5g (PT008) administered as 2 inhalations BID", "interventionNames": ["Drug: BD MDI 40 \u00b5g"]}, {"label": "Placebo MDI", "type": "PLACEBO_COMPARATOR", "description": "Placebo MDI administered as 2 inhalations BID", "interventionNames": ["Drug: Placebo MDI"]}], "interventions": [{"type": "DRUG", "name": "BD MDI 320 \u00b5g", "description": "Budesonide Inhalation Aerosol administered as 2 inhalations BID", "armGroupLabels": ["BD MDI 320 \u00b5g"], "otherNames": ["PT008"]}, {"type": "DRUG", "name": "BD MDI 160 \u00b5g", "description": "Budesonide Inhalation Aerosol administered as 2 inhalations BID", "armGroupLabels": ["BD MDI 160 \u00b5g"], "otherNames": ["PT008"]}, {"type": "DRUG", "name": "BD MDI 80 \u00b5g", "description": "Budesonide Inhalation Aerosol administered as 2 inhalations BID", "armGroupLabels": ["BD MDI 80 \u00b5g"], "otherNames": ["PT008"]}, {"type": "DRUG", "name": "BD MDI 40 \u00b5g", "description": "Budesonide Inhalation Aerosol administered as 2 inhalations BID", "armGroupLabels": ["BD MDI 40 \u00b5g"], "otherNames": ["PT008"]}, {"type": "DRUG", "name": "Placebo MDI", "description": "Placebo MDI administered as 2 inhalations BID", "armGroupLabels": ["Placebo MDI"]}]}, "outcomesModule": {"primaryOutcomes": [{"measure": "Change From Baseline in Morning Pre-dose Trough Forced Expiratory Volume in 1 Second (FEV1) at the End of the Treatment Period", "description": "Change from baseline in morning pre-dose trough Forced Expiratory Volume in 1 second (FEV1) at the end of the Treatment Period.", "timeFrame": "Baseline to End of Treatment Period (Day 29 or Day 15 if Day 29 is missing)"}], "secondaryOutcomes": [{"measure": "Change From Baseline in Mean Morning Pre-dose Diary Peak Expiratory Flow Rate (PEFR)", "description": "Change From Baseline in Mean Morning Pre-dose Diary Peak Expiratory Flow Rate (PEFR)", "timeFrame": "Baseline to Last 7 Days of Treatment Period"}, {"measure": "Change From Baseline in Mean Evening Pre-dose Diary Peak Expiratory Flow Rate (PEFR)", "description": "Change From Baseline in Mean Evening Pre-dose Diary Peak Expiratory Flow Rate (PEFR)", "timeFrame": "Baseline to Last 7 Days of Treatment Period"}, {"measure": "Change From Baseline in Mean Number of Puffs of Rescue Ventolin HFA", "description": "Change from baseline in mean number of puffs of rescue Ventolin HFA", "timeFrame": "Baseline to Last 7 Days of Treatment"}, {"measure": "Change From Baseline in Asthma Control Questionnaire (ACQ-5) Score", "description": "The ACQ-5 measures 5 symptoms (woken at night by symptoms, wake in the morning with symptoms, limitation of daily activities, shortness of breath, and wheeze). The scale is 0-6, where 0=minimum and 6=maximum", "timeFrame": "Baseline to End of Treatment Period (Day 29 or Day 15 if Day 29 is missing)"}]}, "eligibilityModule": {"eligibilityCriteria": "Inclusion Criteria:\n\n* \u2265 18 - 65 years of age\n* Diagnosis of mild to moderate persistent asthma, diagnosed at least 6 months prior to screening\n* Currently receiving treatment with a low to medium dose of an inhaled corticosteroid (ICS) OR a combination of controller medications for at least 4 weeks preceding screening\n* Pre-albuterol FEV1 of \\> 60% and \\< 85% of predicted normal value\n* Reversibility: Increase in FEV1 of \u2265 12% and \u2265 200 mL over the pre-albuterol FEV1 within 30 - 60 minutes after the inhalation of 4 puffs of Ventolin hydrofluoroalkane (HFA)\n* Asthma Symptom Criteria: Have required albuterol use on at least two of the last seven days and have an Asthma Control Questionnaire (ACQ) total score \u2265 1.5 prior to Randomization\n\nExclusion Criteria:\n\n* Life-Threatening Asthma: A subject must not have life-threatening asthma defined as a history of significant asthma episode(s) requiring intubation associated with hypercapnia, respiratory arrest, hypoxic seizures, or asthma-related syncopal episode(s) within the 12 months prior to screening\n* Worsening of Asthma: A subject must not have experienced a worsening of asthma which involved an emergency department visit, hospitalization or use of oral/parenteral corticosteroids within 6 weeks of screening\n* Intermittent, Seasonal, or Exercise-Induced Asthma Alone: Subjects with only intermittent, seasonal or exercise-induced asthma are excluded from participation in this study\n* Concurrent Respiratory Disease\n* Pregnant women or nursing mothers\n* A current diagnosis of Chronic Obstructive Pulmonary Disease (COPD\n* Current smokers or subjects with a \\> 10 pack year history of cigarettes, cigars, or pipe smoking\n* Respiratory tract infection within 6 weeks prior to Visit 1\n* Subjects with documented myocardial infarction within a year from screening visit\n* Clinically significant abnormal ECG\n* Abnormal liver function tests defined as aspartate aminotransferase (AST), alanine aminotransferace (ALT), alkaline phosphatase or total bilirubin \u2265 1.5 times upper limit of normal on repeat testing\n* Subjects who have cancer that has not been in complete remission for at least 5 years\n* Drug Allergy: Subjects who have a history of hypersensitivity to any component of the metered-dose inhaler (MDI)", "healthyVolunteers": false, "sex": "ALL", "minimumAge": "18 Years", "maximumAge": "65 Years", "stdAges": ["ADULT", "OLDER_ADULT"]}, "contactsLocationsModule": {"overallOfficials": [{"name": "Paul Dorinsky, MD, FCCP", "affiliation": "Pearl Therapeutics, Inc.", "role": "STUDY_DIRECTOR"}], "locations": [{"facility": "Pearl Therapeutics Study Site", "city": "Athens", "state": "Alabama", "country": "United States", "geoPoint": {"lat": 34.80243, "lon": -86.97219}}, {"facility": "Pearl Therapeutics Study Site", "city": "Birmingham", "state": "Alabama", "country": "United States", "geoPoint": {"lat": 33.52066, "lon": -86.80249}}, {"facility": "Pearl Therapeutics Study Site", "city": "Foley", "state": "Alabama", "country": "United States", "geoPoint": {"lat": 30.40659, "lon": -87.6836}}, {"facility": "Pearl Therapeutics Study Site", "city": "Los Angeles", "state": "California", "country": "United States", "geoPoint": {"lat": 34.05223, "lon": -118.24368}}, {"facility": "Pearl Therapeutics", "city": "Los Angeles", "state": "California", "country": "United States", "geoPoint": {"lat": 34.05223, "lon": -118.24368}}, {"facility": "Pearl Therapeutics Study Site", "city": "Rolling Hills Estates", "state": "California", "country": "United States", "geoPoint": {"lat": 33.78779, "lon": -118.35813}}, {"facility": "Pearl Therapeutics Study Site", "city": "San Diego", "state": "California", "country": "United States", "geoPoint": {"lat": 32.71533, "lon": -117.15726}}, {"facility": "Pearl Therapeutics Study Site", "city": "Stockton", "state": "California", "country": "United States", "geoPoint": {"lat": 37.9577, "lon": -121.29078}}, {"facility": "Pearl Therapeutics Study Site", "city": "Clearwater", "state": "Florida", "country": "United States", "geoPoint": {"lat": 27.96585, "lon": -82.8001}}, {"facility": "Pearl Therapeutics Study Site", "city": "Clermont", "state": "Florida", "country": "United States", "geoPoint": {"lat": 28.54944, "lon": -81.77285}}, {"facility": "Pearl Therapeutics Study Site", "city": "Miami", "state": "Florida", "country": "United States", "geoPoint": {"lat": 25.77427, "lon": -80.19366}}, {"facility": "Pearl Therapeutics Study Site", "city": "Orlando", "state": "Florida", "country": "United States", "geoPoint": {"lat": 28.53834, "lon": -81.37924}}, {"facility": "Pearl Therapeutics Study Site", "city": "Ormond Beach", "state": "Florida", "country": "United States", "geoPoint": {"lat": 29.28581, "lon": -81.05589}}, {"facility": "Pearl Therapeutics Study Site", "city": "Saint Cloud", "state": "Florida", "country": "United States", "geoPoint": {"lat": 28.2489, "lon": -81.28118}}, {"facility": "Pearl Therapeutics Study Site", "city": "Sebring", "state": "Florida", "country": "United States", "geoPoint": {"lat": 27.49559, "lon": -81.44091}}, {"facility": "Pearl Therapeutics Study Site", "city": "Tampa", "state": "Florida", "country": "United States", "geoPoint": {"lat": 27.94752, "lon": -82.45843}}, {"facility": "Pearl Therapeutics Study Site", "city": "Blue Island", "state": "Illinois", "country": "United States", "geoPoint": {"lat": 41.65726, "lon": -87.68005}}, {"facility": "Pearl Therapeutics Study Site", "city": "North Dartmouth", "state": "Massachusetts", "country": "United States", "geoPoint": {"lat": 41.63899, "lon": -70.97032}}, {"facility": "Pearl Therapeutics Study Site", "city": "Hazelwood", "state": "Missouri", "country": "United States", "geoPoint": {"lat": 38.77144, "lon": -90.37095}}, {"facility": "Pearl Therapeutics Study Site", "city": "Skillman", "state": "New Jersey", "country": "United States", "geoPoint": {"lat": 40.42011, "lon": -74.7146}}, {"facility": "Pearl Therapeutics Study Site", "city": "Charlotte", "state": "North Carolina", "country": "United States", "geoPoint": {"lat": 35.22709, "lon": -80.84313}}, {"facility": "Pearl Therapeutics Study Site", "city": "Winston-Salem", "state": "North Carolina", "country": "United States", "geoPoint": {"lat": 36.09986, "lon": -80.24422}}, {"facility": "Pearl Therapeutics Study Site", "city": "Cincinnati", "state": "Ohio", "country": "United States", "geoPoint": {"lat": 39.12713, "lon": -84.51435}}, {"facility": "Pearl Therapeutics Study Site", "city": "Columbus", "state": "Ohio", "country": "United States", "geoPoint": {"lat": 39.96118, "lon": -82.99879}}, {"facility": "Pearl Therapeutics Study Site", "city": "Dayton", "state": "Ohio", "country": "United States", "geoPoint": {"lat": 39.75895, "lon": -84.19161}}, {"facility": "Pearl Therapeutics Study Site", "city": "Middleburg Heights", "state": "Ohio", "country": "United States", "geoPoint": {"lat": 41.36144, "lon": -81.81291}}, {"facility": "Pearl Therapeutics Study Site", "city": "Oregon", "state": "Ohio", "country": "United States", "geoPoint": {"lat": 41.64366, "lon": -83.48688}}, {"facility": "Pearl Therapeutics Study Site", "city": "Sylvania", "state": "Ohio", "country": "United States", "geoPoint": {"lat": 41.71894, "lon": -83.71299}}, {"facility": "Pearl Therapeutics Study Site", "city": "Toledo", "state": "Ohio", "country": "United States", "geoPoint": {"lat": 41.66394, "lon": -83.55521}}, {"facility": "Pearl Therapeutics Study Site", "city": "Oklahoma City", "state": "Oklahoma", "country": "United States", "geoPoint": {"lat": 35.46756, "lon": -97.51643}}, {"facility": "Pearl Therapeutics Study Site", "city": "Lake Oswego", "state": "Oregon", "country": "United States", "geoPoint": {"lat": 45.42067, "lon": -122.67065}}, {"facility": "Pearl Therapeutics Study Site", "city": "Medford", "state": "Oregon", "country": "United States", "geoPoint": {"lat": 42.32652, "lon": -122.87559}}, {"facility": "Pearl Therapeutics Study Site", "city": "Greenville", "state": "South Carolina", "country": "United States", "geoPoint": {"lat": 34.85262, "lon": -82.39401}}, {"facility": "Pearl Therapeutics Study Site", "city": "Spartanburg", "state": "South Carolina", "country": "United States", "geoPoint": {"lat": 34.94957, "lon": -81.93205}}, {"facility": "Pearl Therapeutics Study Site", "city": "Rapid City", "state": "South Dakota", "country": "United States", "geoPoint": {"lat": 44.08054, "lon": -103.23101}}, {"facility": "Pearl Therapeutics Study Site", "city": "Tullahoma", "state": "Tennessee", "country": "United States", "geoPoint": {"lat": 35.36202, "lon": -86.20943}}, {"facility": "Pearl Therapeutics Study Site", "city": "El Paso", "state": "Texas", "country": "United States", "geoPoint": {"lat": 31.75872, "lon": -106.48693}}, {"facility": "Pearl Therapeutics Study Site", "city": "Houston", "state": "Texas", "country": "United States", "geoPoint": {"lat": 29.76328, "lon": -95.36327}}, {"facility": "Pearl Therapeutics Study Site", "city": "Plano", "state": "Texas", "country": "United States", "geoPoint": {"lat": 33.01984, "lon": -96.69889}}, {"facility": "Pearl Therapeutics Study Site", "city": "San Antonio", "state": "Texas", "country": "United States", "geoPoint": {"lat": 29.42412, "lon": -98.49363}}, {"facility": "Pearl Therapeutics Study Site", "city": "Everett", "state": "Washington", "country": "United States", "geoPoint": {"lat": 47.97898, "lon": -122.20208}}]}, "ipdSharingStatementModule": {"ipdSharing": "YES"}}, "resultsSection": {"participantFlowModule": {"preAssignmentDetails": "A Randomized, Double-Blind, Chronic Dosing (4 Weeks), Four-Period, Five-Treatment, Incomplete Block, Cross-Over, Multi-Center Study to Assess the Efficacy and Safety of Four Doses of Budesonide Inhalation Aerosol (BD MDI, PT008) Relative to Placebo MDI in Adult Subjects With Mild to Moderate Persistent Asthma", "recruitmentDetails": "Conducted at 44 sites in the US from May 2015 to September 2015. Study participation maximum of 32 weeks.", "groups": [{"id": "FG000", "title": "All Subjects"}], "periods": [{"title": "Overall Study", "milestones": [{"type": "STARTED", "achievements": [{"groupId": "FG000", "numSubjects": "147"}]}, {"type": "BD MDI 320 \u00b5g", "achievements": [{"groupId": "FG000", "numSubjects": "124"}]}, {"type": "BD MDI 160 \u00b5g", "achievements": [{"groupId": "FG000", "numSubjects": "132"}]}, {"type": "BD MDI 80 \u00b5g", "achievements": [{"groupId": "FG000", "numSubjects": "64"}]}, {"type": "BD MDI 40 \u00b5g", "achievements": [{"groupId": "FG000", "numSubjects": "63"}]}, {"type": "Placebo MDI", "achievements": [{"groupId": "FG000", "numSubjects": "127"}]}, {"type": "COMPLETED", "achievements": [{"groupId": "FG000", "numSubjects": "114"}]}, {"type": "NOT COMPLETED", "achievements": [{"groupId": "FG000", "numSubjects": "33"}]}], "dropWithdraws": [{"type": "Withdrawal by Subject", "reasons": [{"groupId": "FG000", "numSubjects": "11"}]}, {"type": "Protocol Specified Criteria", "reasons": [{"groupId": "FG000", "numSubjects": "9"}]}, {"type": "Lost to Follow-up", "reasons": [{"groupId": "FG000", "numSubjects": "4"}]}, {"type": "Protocol Violation", "reasons": [{"groupId": "FG000", "numSubjects": "4"}]}, {"type": "Physician Decision", "reasons": [{"groupId": "FG000", "numSubjects": "3"}]}, {"type": "Adverse Event", "reasons": [{"groupId": "FG000", "numSubjects": "1"}]}, {"type": "Lack of Efficacy", "reasons": [{"groupId": "FG000", "numSubjects": "1"}]}]}]}, "baselineCharacteristicsModule": {"populationDescription": "Safety Population", "groups": [{"id": "BG000", "title": "All Subjects"}], "denoms": [{"units": "Participants", "counts": [{"groupId": "BG000", "value": "147"}]}], "measures": [{"title": "Age, Continuous", "paramType": "MEAN", "dispersionType": "STANDARD_DEVIATION", "unitOfMeasure": "Years", "classes": [{"categories": [{"measurements": [{"groupId": "BG000", "value": "45.7", "spread": "11.2"}]}]}]}, {"title": "Sex: Female, Male", "paramType": "COUNT_OF_PARTICIPANTS", "unitOfMeasure": "Participants", "classes": [{"categories": [{"title": "Female", "measurements": [{"groupId": "BG000", "value": "102"}]}, {"title": "Male", "measurements": [{"groupId": "BG000", "value": "45"}]}]}]}]}, "outcomeMeasuresModule": {"outcomeMeasures": [{"type": "PRIMARY", "title": "Change From Baseline in Morning Pre-dose Trough Forced Expiratory Volume in 1 Second (FEV1) at the End of the Treatment Period", "description": "Change from baseline in morning pre-dose trough Forced Expiratory Volume in 1 second (FEV1) at the end of the Treatment Period.", "populationDescription": "Modified Intent to Treat Population (MITT)", "reportingStatus": "POSTED", "paramType": "LEAST_SQUARES_MEAN", "dispersionType": "95% Confidence Interval", "unitOfMeasure": "Liters", "timeFrame": "Baseline to End of Treatment Period (Day 29 or Day 15 if Day 29 is missing)", "groups": [{"id": "OG000", "title": "BD MDI 320 \u00b5g", "description": "Budesonide (BD) Metered Dose Inhaler (MDI) 320 \u00b5g"}, {"id": "OG001", "title": "BD MDI 160 \u00b5g", "description": "Budesonide (BD) Metered Dose Inhaler (MDI) 160 \u00b5g"}, {"id": "OG002", "title": "BD MDI 80 \u00b5g", "description": "Budesonide (BD) Metered Dose Inhaler (MDI) 80 \u00b5g"}, {"id": "OG003", "title": "BD MDI 40 \u00b5g", "description": "Budesonide (BD) Metered Dose Inhaler (MDI) 40 \u00b5g"}, {"id": "OG004", "title": "Placebo MDI", "description": "Placebo MDI."}], "denoms": [{"units": "Participants", "counts": [{"groupId": "OG000", "value": "109"}, {"groupId": "OG001", "value": "109"}, {"groupId": "OG002", "value": "56"}, {"groupId": "OG003", "value": "56"}, {"groupId": "OG004", "value": "111"}]}], "classes": [{"categories": [{"measurements": [{"groupId": "OG000", "value": "-0.002", "lowerLimit": "-0.036", "upperLimit": "0.033"}, {"groupId": "OG001", "value": "-0.001", "lowerLimit": "-0.035", "upperLimit": "0.033"}, {"groupId": "OG002", "value": "-0.034", "lowerLimit": "-0.081", "upperLimit": "0.014"}, {"groupId": "OG003", "value": "-0.031", "lowerLimit": "-0.079", "upperLimit": "0.016"}, {"groupId": "OG004", "value": "-0.116", "lowerLimit": "-0.150", "upperLimit": "-0.082"}]}]}]}, {"type": "SECONDARY", "title": "Change From Baseline in Mean Morning Pre-dose Diary Peak Expiratory Flow Rate (PEFR)", "description": "Change From Baseline in Mean Morning Pre-dose Diary Peak Expiratory Flow Rate (PEFR)", "populationDescription": "MITT", "reportingStatus": "POSTED", "paramType": "LEAST_SQUARES_MEAN", "dispersionType": "95% Confidence Interval", "unitOfMeasure": "Liters/min", "timeFrame": "Baseline to Last 7 Days of Treatment Period", "groups": [{"id": "OG000", "title": "BD MDI 320 \u00b5g", "description": "Budesonide (BD) Metered Dose Inhaler (MDI) 320 \u00b5g"}, {"id": "OG001", "title": "BD MDI 160 \u00b5g", "description": "Budesonide (BD) Metered Dose Inhaler (MDI) 160 \u00b5g"}, {"id": "OG002", "title": "BD MDI 80 \u00b5g", "description": "Budesonide (BD) Metered Dose Inhaler (MDI) 80 \u00b5g"}, {"id": "OG003", "title": "BD MDI 40 \u00b5g", "description": "Budesonide (BD) Metered Dose Inhaler (MDI) 40 \u00b5g"}, {"id": "OG004", "title": "Placebo MDI", "description": "Placebo MDI."}], "denoms": [{"units": "Participants", "counts": [{"groupId": "OG000", "value": "105"}, {"groupId": "OG001", "value": "107"}, {"groupId": "OG002", "value": "55"}, {"groupId": "OG003", "value": "50"}, {"groupId": "OG004", "value": "107"}]}], "classes": [{"categories": [{"measurements": [{"groupId": "OG000", "value": "-5.802", "lowerLimit": "-17.937", "upperLimit": "6.333"}, {"groupId": "OG001", "value": "-7.461", "lowerLimit": "-19.536", "upperLimit": "4.614"}, {"groupId": "OG002", "value": "-9.992", "lowerLimit": "-24.293", "upperLimit": "4.309"}, {"groupId": "OG003", "value": "-5.653", "lowerLimit": "-20.320", "upperLimit": "9.014"}, {"groupId": "OG004", "value": "-29.933", "lowerLimit": "-42.019", "upperLimit": "-17.847"}]}]}]}, {"type": "SECONDARY", "title": "Change From Baseline in Mean Evening Pre-dose Diary Peak Expiratory Flow Rate (PEFR)", "description": "Change From Baseline in Mean Evening Pre-dose Diary Peak Expiratory Flow Rate (PEFR)", "populationDescription": "MITT", "reportingStatus": "POSTED", "paramType": "LEAST_SQUARES_MEAN", "dispersionType": "95% Confidence Interval", "unitOfMeasure": "Liters/min", "timeFrame": "Baseline to Last 7 Days of Treatment Period", "groups": [{"id": "OG000", "title": "BD MDI 320 \u00b5g", "description": "Budesonide (BD) Metered Dose Inhaler (MDI) 320 \u00b5g"}, {"id": "OG001", "title": "BD MDI 160 \u00b5g", "description": "Budesonide (BD) Metered Dose Inhaler (MDI) 160 \u00b5g"}, {"id": "OG002", "title": "BD MDI 80 \u00b5g", "description": "Budesonide (BD) Metered Dose Inhaler (MDI) 80 \u00b5g"}, {"id": "OG003", "title": "BD MDI 40 \u00b5g", "description": "Budesonide (BD) Metered Dose Inhaler (MDI) 40 \u00b5g"}, {"id": "OG004", "title": "Placebo MDI", "description": "Placebo MDI."}], "denoms": [{"units": "Participants", "counts": [{"groupId": "OG000", "value": "105"}, {"groupId": "OG001", "value": "108"}, {"groupId": "OG002", "value": "52"}, {"groupId": "OG003", "value": "52"}, {"groupId": "OG004", "value": "110"}]}], "classes": [{"categories": [{"measurements": [{"groupId": "OG000", "value": "-7.345", "lowerLimit": "-18.394", "upperLimit": "3.703"}, {"groupId": "OG001", "value": "-11.791", "lowerLimit": "-22.737", "upperLimit": "-0.844"}, {"groupId": "OG002", "value": "-14.403", "lowerLimit": "-28.118", "upperLimit": "-0.688"}, {"groupId": "OG003", "value": "-1.896", "lowerLimit": "-15.585", "upperLimit": "11.793"}, {"groupId": "OG004", "value": "-32.807", "lowerLimit": "-43.712", "upperLimit": "-21.902"}]}]}]}, {"type": "SECONDARY", "title": "Change From Baseline in Mean Number of Puffs of Rescue Ventolin HFA", "description": "Change from baseline in mean number of puffs of rescue Ventolin HFA", "populationDescription": "MITT", "reportingStatus": "POSTED", "paramType": "LEAST_SQUARES_MEAN", "dispersionType": "95% Confidence Interval", "unitOfMeasure": "Puffs/Day", "timeFrame": "Baseline to Last 7 Days of Treatment", "groups": [{"id": "OG000", "title": "BD MDI 320 \u00b5g", "description": "Budesonide (BD) Metered Dose Inhaler (MDI) 320 \u00b5g"}, {"id": "OG001", "title": "BD MDI 160 \u00b5g", "description": "Budesonide (BD) Metered Dose Inhaler (MDI) 160 \u00b5g"}, {"id": "OG002", "title": "BD MDI 80 \u00b5g", "description": "Budesonide (BD) Metered Dose Inhaler (MDI) 80 \u00b5g"}, {"id": "OG003", "title": "BD MDI 40 \u00b5g", "description": "Budesonide (BD) Metered Dose Inhaler (MDI) 40 \u00b5g"}, {"id": "OG004", "title": "Placebo MDI", "description": "Placebo MDI."}], "denoms": [{"units": "Participants", "counts": [{"groupId": "OG000", "value": "111"}, {"groupId": "OG001", "value": "115"}, {"groupId": "OG002", "value": "56"}, {"groupId": "OG003", "value": "56"}, {"groupId": "OG004", "value": "114"}]}], "classes": [{"categories": [{"measurements": [{"groupId": "OG000", "value": "-0.140", "lowerLimit": "-0.531", "upperLimit": "0.251"}, {"groupId": "OG001", "value": "-0.268", "lowerLimit": "-0.654", "upperLimit": "0.119"}, {"groupId": "OG002", "value": "-0.312", "lowerLimit": "-0.810", "upperLimit": "0.186"}, {"groupId": "OG003", "value": "-0.095", "lowerLimit": "-0.592", "upperLimit": "0.402"}, {"groupId": "OG004", "value": "0.606", "lowerLimit": "0.218", "upperLimit": "0.994"}]}]}]}, {"type": "SECONDARY", "title": "Change From Baseline in Asthma Control Questionnaire (ACQ-5) Score", "description": "The ACQ-5 measures 5 symptoms (woken at night by symptoms, wake in the morning with symptoms, limitation of daily activities, shortness of breath, and wheeze). The scale is 0-6, where 0=minimum and 6=maximum", "populationDescription": "MITT", "reportingStatus": "POSTED", "paramType": "LEAST_SQUARES_MEAN", "dispersionType": "95% Confidence Interval", "unitOfMeasure": "Scores on a scale", "timeFrame": "Baseline to End of Treatment Period (Day 29 or Day 15 if Day 29 is missing)", "groups": [{"id": "OG000", "title": "BD MDI 320 \u00b5g", "description": "Budesonide (BD) Metered Dose Inhaler (MDI) 320 \u00b5g"}, {"id": "OG001", "title": "BD MDI 160 \u00b5g", "description": "Budesonide (BD) Metered Dose Inhaler (MDI) 160 \u00b5g"}, {"id": "OG002", "title": "BD MDI 80 \u00b5g", "description": "Budesonide (BD) Metered Dose Inhaler (MDI) 80 \u00b5g"}, {"id": "OG003", "title": "BD MDI 40 \u00b5g", "description": "Budesonide (BD) Metered Dose Inhaler (MDI) 40 \u00b5g"}, {"id": "OG004", "title": "Placebo MDI", "description": "Placebo MDI."}], "denoms": [{"units": "Participants", "counts": [{"groupId": "OG000", "value": "109"}, {"groupId": "OG001", "value": "114"}, {"groupId": "OG002", "value": "57"}, {"groupId": "OG003", "value": "57"}, {"groupId": "OG004", "value": "115"}]}], "classes": [{"categories": [{"measurements": [{"groupId": "OG000", "value": "-0.575", "lowerLimit": "-0.730", "upperLimit": "-0.420"}, {"groupId": "OG001", "value": "-0.565", "lowerLimit": "-0.717", "upperLimit": "-0.412"}, {"groupId": "OG002", "value": "-0.515", "lowerLimit": "-0.714", "upperLimit": "-0.317"}, {"groupId": "OG003", "value": "-0.407", "lowerLimit": "-0.605", "upperLimit": "-0.209"}, {"groupId": "OG004", "value": "-0.100", "lowerLimit": "-0.252", "upperLimit": "0.052"}]}]}]}]}, "adverseEventsModule": {"frequencyThreshold": "2", "timeFrame": "AEs were recorded from the time subjects received their first dose of study medication, during the entire study period, and up to 14 days from the date of the last study medication dose.", "description": "The Safety population was defined as all subjects who were randomized to treatment and received at least 1 dose of the study treatment. Subjects in the Safety population were analyzed according to the treatment received.", "eventGroups": [{"id": "EG000", "title": "BD MDI 320 \u00b5g", "description": "Budesonide (BD) Metered Dose Inhaler (MDI) 320 \u00b5g", "seriousNumAffected": 0, "seriousNumAtRisk": 124, "otherNumAffected": 7, "otherNumAtRisk": 124}, {"id": "EG001", "title": "BD MDI 160 \u00b5g", "description": "Budesonide (BD) Metered Dose Inhaler (MDI) 160 \u00b5g", "seriousNumAffected": 0, "seriousNumAtRisk": 132, "otherNumAffected": 7, "otherNumAtRisk": 132}, {"id": "EG002", "title": "BD MDI 80 \u00b5g", "description": "Budesonide (BD) Metered Dose Inhaler (MDI) 80 \u00b5g", "seriousNumAffected": 2, "seriousNumAtRisk": 64, "otherNumAffected": 1, "otherNumAtRisk": 64}, {"id": "EG003", "title": "BD MDI 40 \u00b5g", "description": "Budesonide (BD) Metered Dose Inhaler (MDI) 40 \u00b5g", "seriousNumAffected": 0, "seriousNumAtRisk": 63, "otherNumAffected": 2, "otherNumAtRisk": 63}, {"id": "EG004", "title": "Placebo MDI", "description": "Placebo MDI.", "seriousNumAffected": 0, "seriousNumAtRisk": 127, "otherNumAffected": 12, "otherNumAtRisk": 127}], "seriousEvents": [{"term": "Colitis", "organSystem": "Gastrointestinal disorders", "sourceVocabulary": "MedDRA", "assessmentType": "SYSTEMATIC_ASSESSMENT", "stats": [{"groupId": "EG000", "numEvents": 0, "numAffected": 0, "numAtRisk": 124}, {"groupId": "EG001", "numEvents": 0, "numAffected": 0, "numAtRisk": 132}, {"groupId": "EG002", "numEvents": 1, "numAffected": 1, "numAtRisk": 64}, {"groupId": "EG003", "numEvents": 0, "numAffected": 0, "numAtRisk": 63}, {"groupId": "EG004", "numEvents": 0, "numAffected": 0, "numAtRisk": 127}]}, {"term": "Asthma", "organSystem": "Respiratory, thoracic and mediastinal disorders", "sourceVocabulary": "MedDRA", "assessmentType": "SYSTEMATIC_ASSESSMENT", "stats": [{"groupId": "EG000", "numEvents": 0, "numAffected": 0, "numAtRisk": 124}, {"groupId": "EG001", "numEvents": 0, "numAffected": 0, "numAtRisk": 132}, {"groupId": "EG002", "numEvents": 1, "numAffected": 1, "numAtRisk": 64}, {"groupId": "EG003", "numEvents": 0, "numAffected": 0, "numAtRisk": 63}, {"groupId": "EG004", "numEvents": 0, "numAffected": 0, "numAtRisk": 127}]}], "otherEvents": [{"term": "Nasopharyngitis", "organSystem": "Infections and infestations", "sourceVocabulary": "MedDRA", "assessmentType": "SYSTEMATIC_ASSESSMENT", "stats": [{"groupId": "EG000", "numEvents": 5, "numAffected": 4, "numAtRisk": 124}, {"groupId": "EG001", "numEvents": 1, "numAffected": 1, "numAtRisk": 132}, {"groupId": "EG002", "numEvents": 0, "numAffected": 0, "numAtRisk": 64}, {"groupId": "EG003", "numEvents": 1, "numAffected": 1, "numAtRisk": 63}, {"groupId": "EG004", "numEvents": 1, "numAffected": 1, "numAtRisk": 127}]}, {"term": "Upper Respiratory Tract Infection", "organSystem": "Respiratory, thoracic and mediastinal disorders", "sourceVocabulary": "MedDRA", "assessmentType": "SYSTEMATIC_ASSESSMENT", "stats": [{"groupId": "EG000", "numEvents": 3, "numAffected": 3, "numAtRisk": 124}, {"groupId": "EG001", "numEvents": 5, "numAffected": 5, "numAtRisk": 132}, {"groupId": "EG002", "numEvents": 1, "numAffected": 1, "numAtRisk": 64}, {"groupId": "EG003", "numEvents": 1, "numAffected": 1, "numAtRisk": 63}, {"groupId": "EG004", "numEvents": 4, "numAffected": 4, "numAtRisk": 127}]}, {"term": "Asthma", "organSystem": "Respiratory, thoracic and mediastinal disorders", "sourceVocabulary": "MedDRA", "assessmentType": "SYSTEMATIC_ASSESSMENT", "stats": [{"groupId": "EG000", "numEvents": 0, "numAffected": 0, "numAtRisk": 124}, {"groupId": "EG001", "numEvents": 1, "numAffected": 1, "numAtRisk": 132}, {"groupId": "EG002", "numEvents": 0, "numAffected": 0, "numAtRisk": 64}, {"groupId": "EG003", "numEvents": 0, "numAffected": 0, "numAtRisk": 63}, {"groupId": "EG004", "numEvents": 7, "numAffected": 7, "numAtRisk": 127}]}]}, "moreInfoModule": {"certainAgreement": {"piSponsorEmployee": false, "restrictionType": "OTHER", "restrictiveAgreement": true, "otherDetails": "Drafts of any and all publications or presentations of this study must be submitted at least 30 days prior to submission for publication or presentation to Pearl Therapeutics for review, approval, and to ensure consistency. Pearl Therapeutics has the right to request appropriate modification to correct facts and to represent its opinions, or the opinions of the publication committee, if these differ with the proposed publication."}, "pointOfContact": {"title": "Paul Dorinsky, MD, FCCP", "organization": "Pearl Therapeutics Inc.", "email": "pdorinsky@pearltherapeutics.com", "phone": "650-305-2600"}}}, "derivedSection": {"miscInfoModule": {"versionHolder": "2024-06-24"}, "conditionBrowseModule": {"meshes": [{"id": "D000001249", "term": "Asthma"}], "ancestors": [{"id": "D000001982", "term": "Bronchial Diseases"}, {"id": "D000012140", "term": "Respiratory Tract Diseases"}, {"id": "D000008173", "term": "Lung Diseases, Obstructive"}, {"id": "D000008171", "term": "Lung Diseases"}, {"id": "D000012130", "term": "Respiratory Hypersensitivity"}, {"id": "D000006969", "term": "Hypersensitivity, Immediate"}, {"id": "D000006967", "term": "Hypersensitivity"}, {"id": "D000007154", "term": "Immune System Diseases"}], "browseLeaves": [{"id": "M27137", "name": "Respiratory Aspiration", "relevance": "LOW"}, {"id": "M4556", "name": "Asthma", "asFound": "Asthma", "relevance": "HIGH"}, {"id": "M5258", "name": "Bronchial Diseases", "relevance": "LOW"}, {"id": "M14977", "name": "Respiratory Tract Diseases", "relevance": "LOW"}, {"id": "M11168", "name": "Lung Diseases", "relevance": "LOW"}, {"id": "M11170", "name": "Lung Diseases, Obstructive", "relevance": "LOW"}, {"id": "M10018", "name": "Hypersensitivity", "relevance": "LOW"}, {"id": "M14967", "name": "Respiratory Hypersensitivity", "relevance": "LOW"}, {"id": "M10020", "name": "Hypersensitivity, Immediate", "relevance": "LOW"}, {"id": "M10200", "name": "Immune System Diseases", "relevance": "LOW"}, {"id": "T1303", "name": "Chronic Graft Versus Host Disease", "relevance": "LOW"}, {"id": "T4202", "name": "Oculocerebral Syndrome With Hypopigmentation", "relevance": "LOW"}], "browseBranches": [{"abbrev": "BC08", "name": "Respiratory Tract (Lung and Bronchial) Diseases"}, {"abbrev": "BC23", "name": "Symptoms and General Pathology"}, {"abbrev": "All", "name": "All Conditions"}, {"abbrev": "BC20", "name": "Immune System Diseases"}, {"abbrev": "Rare", "name": "Rare Diseases"}]}, "interventionBrowseModule": {"browseLeaves": [{"id": "M21711", "name": "Budesonide", "relevance": "LOW"}], "browseBranches": [{"abbrev": "Infl", "name": "Anti-Inflammatory Agents"}, {"abbrev": "Resp", "name": "Respiratory System Agents"}, {"abbrev": "All", "name": "All Drugs and Chemicals"}]}}, "hasResults": true}