{"protocolSection": {"identificationModule": {"nctId": "NCT00279955", "orgStudyIdInfo": {"id": "235"}, "organization": {"fullName": "Medtronic Cardiac Rhythm and Heart Failure", "class": "INDUSTRY"}, "briefTitle": "PARTNERS HF: Program to Access and Review Trending Information and Evaluate Correlation to Symptoms in Patients With Heart Failure", "officialTitle": "Program to Access and Review Trending Information and Evaluate Correlation to Symptoms in Patients With Heart Failure"}, "statusModule": {"statusVerifiedDate": "2012-06", "overallStatus": "COMPLETED", "expandedAccessInfo": {"hasExpandedAccess": false}, "startDateStruct": {"date": "2004-06"}, "primaryCompletionDateStruct": {"date": "2008-03", "type": "ACTUAL"}, "completionDateStruct": {"date": "2008-06", "type": "ACTUAL"}, "studyFirstSubmitDate": "2006-01-18", "studyFirstSubmitQcDate": "2006-01-18", "studyFirstPostDateStruct": {"date": "2006-01-20", "type": "ESTIMATED"}, "resultsFirstSubmitDate": "2011-07-20", "resultsFirstSubmitQcDate": "2011-11-03", "resultsFirstPostDateStruct": {"date": "2011-12-08", "type": "ESTIMATED"}, "lastUpdateSubmitDate": "2012-06-11", "lastUpdatePostDateStruct": {"date": "2012-06-15", "type": "ESTIMATED"}}, "sponsorCollaboratorsModule": {"responsibleParty": {"type": "SPONSOR"}, "leadSponsor": {"name": "Medtronic Cardiac Rhythm and Heart Failure", "class": "INDUSTRY"}, "collaborators": [{"name": "Medtronic", "class": "INDUSTRY"}]}, "descriptionModule": {"briefSummary": "The purpose of this study is to determine the value of diagnostic data obtained from Medtronic implantable cardioverter defibrillators (ICDs) with cardiac resynchronization therapy (CRT) to evaluate cardiovascular and heart failure related adverse events and health care utilization."}, "conditionsModule": {"conditions": ["Heart Failure, Congestive"], "keywords": ["Heart Failure, Congestive", "Implantable Cardioverter-Defibrillators"]}, "designModule": {"studyType": "OBSERVATIONAL", "designInfo": {"observationalModel": "COHORT", "timePerspective": "PROSPECTIVE"}, "enrollmentInfo": {"count": 1024, "type": "ACTUAL"}}, "armsInterventionsModule": {"interventions": [{"type": "DEVICE", "name": "Cardiac Resynchronization Therapy Device", "description": "Patients with an ICD indication, a CRT indication and symptomatic heart failure who are implanted with a Cardiac Resynchronization Therapy Device."}]}, "outcomesModule": {"primaryOutcomes": [{"measure": "Occurrence of Heart Failure (HF) Related Adverse Event (AE)", "description": "Number of participates with HF realted adverse event will be reported. Time to the first HF related Adverse event in the \"Follow-up Period\" from the 6-month visit to the 12-month visit is compared between two risk groups. The goal was to test if there is a significant difference in time to first HF-related adverse event between two groups. A heart failure related (HF-related) adverse event is defined as an adverse event that results in a subject's worsening HF or related to the heart's inability to meet the metabolic demands of the body.", "timeFrame": "From 6 month to the 12 month visit"}], "secondaryOutcomes": [{"measure": "Occurrence of Heart Failure (HF) Related Healthcare Utilization (HU)", "description": "Number of participates with HF realted healthcare utilization will be reported. Time to the first HF-related healthcare utilization in the \"Follow-up Period\" from the 6-month visit to the 12-month visit is compared between two risk groups. The goal was to test if there is a significant difference in time to first HF-related healthcare utilization between two groups. A heart failure related (HF-related) healthcare utilization is defined as unscheduled office visits, hospitalizations, urgent care visits, and emergency room visits which is resulted by heart failure related adverse event.", "timeFrame": "6 month to the 12 month visit"}, {"measure": "Occurrence of Heart Failure (HF) Related Pulmonary Congestion Event (PCE)", "description": "Number of participates with HF related pulmonary congestion event will be reported. Time to the first HF related pulmonary cogestion event in the \"Follow-up Period\" from the 6-month visit to the 12-month visit is compared between two risk groups to see if there is significant difference. A HF related pulmonary congestion event is defined as hospitalization with signs and/or symptoms of pulmonary congestion, or outpatient treatment with IV diuretics due to exacerbation of HF with signs and/or symptoms of pulmonary congestion.", "timeFrame": "6 month to the 12 month visit"}]}, "eligibilityModule": {"eligibilityCriteria": "Inclusion Criteria:\n\n* Patients who meet the ICD indications\n* Patients with Class III or IV heart failure.\n* Patients receiving or who received a Medtronic CRT ICD within the previous 3 months.\n* Patient must sign and date informed consent, and be 18 years of age or greater.\n* Patient must be available for follow up visits, and be willing and able to comply with study protocol.\n\nExclusion Criteria:\n\n* Patient with acute myocardial infarction (MI), coronary artery bypass graft surgery (CABG) or percutaneous coronary angioplasty (PTCA)/stent within the last month.\n* Patient with a mechanical right heart valve.\n* Patient with chronic (permanent) atrial arrhythmias.\n* Patient with life expectancy of less than 12 months.\n* Patient with status post heart transplant\n* Patient undergoing kidney dialysis\n* Patients enrolled in a concurrent study that may confound the results of the study.", "healthyVolunteers": false, "sex": "ALL", "minimumAge": "18 Years", "stdAges": ["ADULT", "OLDER_ADULT"], "studyPopulation": "Patients receiving a specified Medtronic Implantable Cardiac Resynchronization Therapy Defibrillator device where informed consent and/or authorization to use and disclose health information permission has been granted.", "samplingMethod": "NON_PROBABILITY_SAMPLE"}, "contactsLocationsModule": {"overallOfficials": [{"name": "David Whellan, MD", "affiliation": "Jefferson Heart Institute", "role": "PRINCIPAL_INVESTIGATOR"}], "locations": [{"city": "Huntsville", "state": "Alabama", "country": "United States", "geoPoint": {"lat": 34.7304, "lon": -86.58594}}, {"city": "Phoenix", "state": "Arizona", "country": "United States", "geoPoint": {"lat": 33.44838, "lon": -112.07404}}, {"city": "Scottsdale", "state": "Arizona", "country": "United States", "geoPoint": {"lat": 33.50921, "lon": -111.89903}}, {"city": "Little Rock", "state": "Arkansas", "country": "United States", "geoPoint": {"lat": 34.74648, "lon": -92.28959}}, {"city": "Loma Linda", "state": "California", "country": "United States", "geoPoint": {"lat": 34.04835, "lon": -117.26115}}, {"city": "San Diego", "state": "California", "country": "United States", "geoPoint": {"lat": 32.71533, "lon": -117.15726}}, {"city": "Denver", "state": "Colorado", "country": "United States", "geoPoint": {"lat": 39.73915, "lon": -104.9847}}, {"city": "Guilford", "state": "Connecticut", "country": "United States", "geoPoint": {"lat": 41.28899, "lon": -72.68176}}, {"city": "Bradenton", "state": "Florida", "country": "United States", "geoPoint": {"lat": 27.49893, "lon": -82.57482}}, {"city": "Ft. Lauderdale", "state": "Florida", "country": "United States", "geoPoint": {"lat": 26.12231, "lon": -80.14338}}, {"city": "Key Largo", "state": "Florida", "country": "United States", "geoPoint": {"lat": 25.08652, "lon": -80.44728}}, {"city": "Melbourne", "state": "Florida", "country": "United States", "geoPoint": {"lat": 28.08363, "lon": -80.60811}}, {"city": "Miami", "state": "Florida", "country": "United States", "geoPoint": {"lat": 25.77427, "lon": -80.19366}}, {"city": "Orlando", "state": "Florida", "country": "United States", "geoPoint": {"lat": 28.53834, "lon": -81.37924}}, {"city": "Palm Beach Gardens", "state": "Florida", "country": "United States", "geoPoint": {"lat": 26.82339, "lon": -80.13865}}, {"city": "Pensacola", "state": "Florida", "country": "United States", "geoPoint": {"lat": 30.42131, "lon": -87.21691}}, {"city": "Safety Harbor", "state": "Florida", "country": "United States", "geoPoint": {"lat": 27.99085, "lon": -82.69316}}, {"city": "Tallahassee", "state": "Florida", "country": "United States", "geoPoint": {"lat": 30.43826, "lon": -84.28073}}, {"city": "Tampa", "state": "Florida", "country": "United States", "geoPoint": {"lat": 27.94752, "lon": -82.45843}}, {"city": "Winter Park", "state": "Florida", "country": "United States", "geoPoint": {"lat": 28.6, "lon": -81.33924}}, {"city": "Atlanta", "state": "Georgia", "country": "United States", "geoPoint": {"lat": 33.749, "lon": -84.38798}}, {"city": "Augusta", "state": "Georgia", "country": "United States", "geoPoint": {"lat": 33.47097, "lon": -81.97484}}, {"city": "Honolulu", "state": "Hawaii", "country": "United States", "geoPoint": {"lat": 21.30694, "lon": -157.85833}}, {"city": "Evanston", "state": "Illinois", "country": "United States", "geoPoint": {"lat": 42.04114, "lon": -87.69006}}, {"city": "Maywood", "state": "Illinois", "country": "United States", "geoPoint": {"lat": 41.8792, "lon": -87.84312}}, {"city": "Merrionette Park", "state": "Illinois", "country": "United States", "geoPoint": {"lat": 41.6842, "lon": -87.70033}}, {"city": "Rockford", "state": "Illinois", "country": "United States", "geoPoint": {"lat": 42.27113, "lon": -89.094}}, {"city": "Springfield", "state": "Illinois", "country": "United States", "geoPoint": {"lat": 39.80172, "lon": -89.64371}}, {"city": "Winfield", "state": "Illinois", "country": "United States", "geoPoint": {"lat": 41.8617, "lon": -88.1609}}, {"city": "Topeka", "state": "Kansas", "country": "United States", "geoPoint": {"lat": 39.04833, "lon": -95.67804}}, {"city": "Wichita", "state": "Kansas", "country": "United States", "geoPoint": {"lat": 37.69224, "lon": -97.33754}}, {"city": "Edgewood", "state": "Kentucky", "country": "United States", "geoPoint": {"lat": 39.01867, "lon": -84.58189}}, {"city": "Florence", "state": "Kentucky", "country": "United States", "geoPoint": {"lat": 38.99895, "lon": -84.62661}}, {"city": "Louisville", "state": "Kentucky", "country": "United States", "geoPoint": {"lat": 38.25424, "lon": -85.75941}}, {"city": "Covington", "state": "Louisiana", "country": "United States", "geoPoint": {"lat": 30.47549, "lon": -90.10042}}, {"city": "Monroe", "state": "Louisiana", "country": "United States", "geoPoint": {"lat": 32.50931, "lon": -92.1193}}, {"city": "Portland", "state": "Maine", "country": "United States", "geoPoint": {"lat": 43.66147, "lon": -70.25533}}, {"city": "Salisbury", "state": "Maryland", "country": "United States", "geoPoint": {"lat": 38.36067, "lon": -75.59937}}, {"city": "Takoma Park", "state": "Maryland", "country": "United States", "geoPoint": {"lat": 38.97789, "lon": -77.00748}}, {"city": "Grand Rapids", "state": "Michigan", "country": "United States", "geoPoint": {"lat": 42.96336, "lon": -85.66809}}, {"city": "Marquette", "state": "Michigan", "country": "United States", "geoPoint": {"lat": 46.54354, "lon": -87.39542}}, {"city": "Petoskey", "state": "Michigan", "country": "United States", "geoPoint": {"lat": 45.37334, "lon": -84.95533}}, {"city": "Traverse City", "state": "Michigan", "country": "United States", "geoPoint": {"lat": 44.76306, "lon": -85.62063}}, {"city": "Minneapolis", "state": "Minnesota", "country": "United States", "geoPoint": {"lat": 44.97997, "lon": -93.26384}}, {"city": "St. Cloud", "state": "Minnesota", "country": "United States", "geoPoint": {"lat": 45.5608, "lon": -94.16249}}, {"city": "St. Louis", "state": "Missouri", "country": "United States", "geoPoint": {"lat": 38.62727, "lon": -90.19789}}, {"city": "Missoula", "state": "Montana", "country": "United States", "geoPoint": {"lat": 46.87215, "lon": -113.994}}, {"city": "Las Vegas", "state": "Nevada", "country": "United States", "geoPoint": {"lat": 36.17497, "lon": -115.13722}}, {"city": "Manchester", "state": "New Hampshire", "country": "United States", "geoPoint": {"lat": 42.99564, "lon": -71.45479}}, {"city": "Cherryhill", "state": "New Jersey", "country": "United States", "geoPoint": {"lat": 39.93484, "lon": -75.03073}}, {"city": "Ridgewood", "state": "New Jersey", "country": "United States", "geoPoint": {"lat": 40.97926, "lon": -74.11653}}, {"city": "Sewell", "state": "New Jersey", "country": "United States", "geoPoint": {"lat": 39.7665, "lon": -75.14434}}, {"city": "Bronx", "state": "New York", "country": "United States", "geoPoint": {"lat": 40.84985, "lon": -73.86641}}, {"city": "New York", "state": "New York", "country": "United States", "geoPoint": {"lat": 40.71427, "lon": -74.00597}}, {"city": "West Islip", "state": "New York", "country": "United States", "geoPoint": {"lat": 40.70621, "lon": -73.30623}}, {"city": "Williamsville", "state": "New York", "country": "United States", "geoPoint": {"lat": 42.96395, "lon": -78.73781}}, {"city": "Charlotte", "state": "North Carolina", "country": "United States", "geoPoint": {"lat": 35.22709, "lon": -80.84313}}, {"city": "Durham", "state": "North Carolina", "country": "United States", "geoPoint": {"lat": 35.99403, "lon": -78.89862}}, {"city": "Greensboro", "state": "North Carolina", "country": "United States", "geoPoint": {"lat": 36.07264, "lon": -79.79198}}, {"city": "Raleigh", "state": "North Carolina", "country": "United States", "geoPoint": {"lat": 35.7721, "lon": -78.63861}}, {"city": "Bismarck", "state": "North Dakota", "country": "United States", "geoPoint": {"lat": 46.80833, "lon": -100.78374}}, {"city": "Fargo", "state": "North Dakota", "country": "United States", "geoPoint": {"lat": 46.87719, "lon": -96.7898}}, {"city": "Cincinnati", "state": "Ohio", "country": "United States", "geoPoint": {"lat": 39.12713, "lon": -84.51435}}, {"city": "Columbus", "state": "Ohio", "country": "United States", "geoPoint": {"lat": 39.96118, "lon": -82.99879}}, {"city": "Dayton", "state": "Ohio", "country": "United States", "geoPoint": {"lat": 39.75895, "lon": -84.19161}}, {"city": "Elyria", "state": "Ohio", "country": "United States", "geoPoint": {"lat": 41.36838, "lon": -82.10765}}, {"city": "Lakewood", "state": "Ohio", "country": "United States", "geoPoint": {"lat": 41.48199, "lon": -81.79819}}, {"city": "Mayfield Heights", "state": "Ohio", "country": "United States", "geoPoint": {"lat": 41.51922, "lon": -81.4579}}, {"city": "West Lake", "state": "Ohio", "country": "United States", "geoPoint": {"lat": 41.45532, "lon": -81.91792}}, {"city": "Medford", "state": "Oregon", "country": "United States", "geoPoint": {"lat": 42.32652, "lon": -122.87559}}, {"city": "Camp Hill", "state": "Pennsylvania", "country": "United States", "geoPoint": {"lat": 40.23981, "lon": -76.91997}}, {"city": "Erie", "state": "Pennsylvania", "country": "United States", "geoPoint": {"lat": 42.12922, "lon": -80.08506}}, {"city": "Philadelphia", "state": "Pennsylvania", "country": "United States", "geoPoint": {"lat": 39.95233, "lon": -75.16379}}, {"city": "Pittsburgh", "state": "Pennsylvania", "country": "United States", "geoPoint": {"lat": 40.44062, "lon": -79.99589}}, {"city": "Wormleysburg", "state": "Pennsylvania", "country": "United States", "geoPoint": {"lat": 40.26287, "lon": -76.91386}}, {"city": "York", "state": "Pennsylvania", "country": "United States", "geoPoint": {"lat": 39.9626, "lon": -76.72774}}, {"city": "Pawtucket", "state": "Rhode Island", "country": "United States", "geoPoint": {"lat": 41.87871, "lon": -71.38256}}, {"city": "Providence", "state": "Rhode Island", "country": "United States", "geoPoint": {"lat": 41.82399, "lon": -71.41283}}, {"city": "Columbia", "state": "South Carolina", "country": "United States", "geoPoint": {"lat": 34.00071, "lon": -81.03481}}, {"city": "Spartanburg", "state": "South Carolina", "country": "United States", "geoPoint": {"lat": 34.94957, "lon": -81.93205}}, {"city": "Sioux Falls", "state": "South Dakota", "country": "United States", "geoPoint": {"lat": 43.54997, "lon": -96.70033}}, {"city": "Knoxville", "state": "Tennessee", "country": "United States", "geoPoint": {"lat": 35.96064, "lon": -83.92074}}, {"city": "Nashville", "state": "Tennessee", "country": "United States", "geoPoint": {"lat": 36.16589, "lon": -86.78444}}, {"city": "Fairfax", "state": "Texas", "country": "United States"}, {"city": "Fort Worth", "state": "Texas", "country": "United States", "geoPoint": {"lat": 32.72541, "lon": -97.32085}}, {"city": "Lubbock", "state": "Texas", "country": "United States", "geoPoint": {"lat": 33.57786, "lon": -101.85517}}, {"city": "Burlington", "state": "Vermont", "country": "United States", "geoPoint": {"lat": 44.47588, "lon": -73.21207}}, {"city": "Lynchburg", "state": "Virginia", "country": "United States", "geoPoint": {"lat": 37.41375, "lon": -79.14225}}, {"city": "Norfolk", "state": "Virginia", "country": "United States", "geoPoint": {"lat": 36.84681, "lon": -76.28522}}, {"city": "Richmond", "state": "Virginia", "country": "United States", "geoPoint": {"lat": 37.55376, "lon": -77.46026}}, {"city": "Kirkland", "state": "Washington", "country": "United States", "geoPoint": {"lat": 47.68149, "lon": -122.20874}}, {"city": "Green Bay", "state": "Wisconsin", "country": "United States", "geoPoint": {"lat": 44.51916, "lon": -88.01983}}, {"city": "Madison", "state": "Wisconsin", "country": "United States", "geoPoint": {"lat": 43.07305, "lon": -89.40123}}]}, "referencesModule": {"references": [{"pmid": "20413029", "type": "DERIVED", "citation": "Whellan DJ, Ousdigian KT, Al-Khatib SM, Pu W, Sarkar S, Porter CB, Pavri BB, O'Connor CM; PARTNERS Study Investigators. Combined heart failure device diagnostics identify patients at higher risk of subsequent heart failure hospitalizations: results from PARTNERS HF (Program to Access and Review Trending Information and Evaluate Correlation to Symptoms in Patients With Heart Failure) study. J Am Coll Cardiol. 2010 Apr 27;55(17):1803-10. doi: 10.1016/j.jacc.2009.11.089."}, {"pmid": "19061695", "type": "DERIVED", "citation": "Whellan DJ, O'Connor CM, Ousdigian KT, Lung TH; PARTNERS HF Study Investigators. Rationale, design, and baseline characteristics of a Program to Assess and Review Trending INformation and Evaluate CorRelation to Symptoms in Patients with Heart Failure (PARTNERS HF). Am Heart J. 2008 Nov;156(5):833-9, 839.e2. doi: 10.1016/j.ahj.2008.06.036. Epub 2008 Sep 23."}]}}, "resultsSection": {"participantFlowModule": {"preAssignmentDetails": "23 of 1024 subjects exited prior to successful implant due to not meeting in/exclusion criteria, unsucessful implants, missing informed consent form etc. Of the remaining 1001 subjects, 643 subjects had been followed longer than 6 months and had the OptiVol feature save-to-disk data available. Those 643 subjects were used for analyzing objectives.", "recruitmentDetails": "1024 subjects were enrolled in the study from 21 JUN 2004 through 14 FEB 2007 from 100 centers in US. Follow-up data collection ended on 06 MAR 2008.", "groups": [{"id": "FG000", "title": "At Least 1 OptiVol Fluid Index > 100 During DREP", "description": "All subjects who were followed longer than 6 months and had OptiVol fluid index crossing 100 during DREP. An OptiVol index \\> 100 indicates potential fluid retention in the lungs. DREP: Diagnostic Risk Evaluation Period which is defined from consent date or implant date to 6 month visit."}, {"id": "FG001", "title": "No OptiVol Fluid Index > 100 During DREP", "description": "All subjects who were followed longer than 6 months and never had OptiVol Fliud index crossing 100 during DREP. DREP: Diagnostic Risk Evaluation Period which is defined from consent date or implant date to 6 month visit."}, {"id": "FG002", "title": "No OptiVol Measurement", "description": "All subjects either who were not followed for at least 6 months, or didn't have OptiVol Fluid Index measurements available."}], "periods": [{"title": "Overall Study", "milestones": [{"type": "STARTED", "achievements": [{"groupId": "FG000", "numSubjects": "157"}, {"groupId": "FG001", "numSubjects": "486"}, {"groupId": "FG002", "numSubjects": "358"}]}, {"type": "COMPLETED", "achievements": [{"groupId": "FG000", "numSubjects": "157"}, {"groupId": "FG001", "numSubjects": "486"}, {"groupId": "FG002", "comment": "They are still counted as completes, though they are never used for the analyses of objectives.", "numSubjects": "358"}]}, {"type": "NOT COMPLETED", "achievements": [{"groupId": "FG000", "numSubjects": "0"}, {"groupId": "FG001", "numSubjects": "0"}, {"groupId": "FG002", "numSubjects": "0"}]}]}]}, "baselineCharacteristicsModule": {"groups": [{"id": "BG000", "title": "At Least 1 OptiVol Fluid Index > 100 During DREP", "description": "All subjects who were followed longer than 6 months and had OptiVol fluid index crossing 100 during DREP. An OptiVol index \\> 100 indicates potential fluid retention in the lungs. DREP: Diagnostic Risk Evaluation Period which is defined from consent date or implant date to 6 month visit."}, {"id": "BG001", "title": "No OptiVol Fluid Index > 100 During DREP", "description": "All subjects who were followed longer than 6 months and never had OptiVol Fliud index crossing 100 during DREP. DREP: Diagnostic Risk Evaluation Period which is defined from consent date or implant date to 6 month visit."}, {"id": "BG002", "title": "No OptiVol Measurement", "description": "All subjects either who were not followed for at least 6 months, or didn't have OptiVol Fluid Index measurements available."}, {"id": "BG003", "title": "Total", "description": "Total of all reporting groups"}], "denoms": [{"units": "Participants", "counts": [{"groupId": "BG000", "value": "157"}, {"groupId": "BG001", "value": "486"}, {"groupId": "BG002", "value": "358"}, {"groupId": "BG003", "value": "1001"}]}], "measures": [{"title": "Age Continuous", "paramType": "MEAN", "dispersionType": "STANDARD_DEVIATION", "unitOfMeasure": "years", "classes": [{"categories": [{"measurements": [{"groupId": "BG000", "value": "68.8", "spread": "11.0"}, {"groupId": "BG001", "value": "68.2", "spread": "10.6"}, {"groupId": "BG002", "value": "68.5", "spread": "11.0"}, {"groupId": "BG003", "value": "68.4", "spread": "10.8"}]}]}]}, {"title": "Sex: Female, Male", "paramType": "COUNT_OF_PARTICIPANTS", "unitOfMeasure": "Participants", "classes": [{"categories": [{"title": "Female", "measurements": [{"groupId": "BG000", "value": "45"}, {"groupId": "BG001", "value": "163"}, {"groupId": "BG002", "value": "109"}, {"groupId": "BG003", "value": "317"}]}, {"title": "Male", "measurements": [{"groupId": "BG000", "value": "112"}, {"groupId": "BG001", "value": "323"}, {"groupId": "BG002", "value": "249"}, {"groupId": "BG003", "value": "684"}]}]}]}, {"title": "Region of Enrollment", "paramType": "NUMBER", "unitOfMeasure": "participants", "classes": [{"title": "United States", "categories": [{"measurements": [{"groupId": "BG000", "value": "157"}, {"groupId": "BG001", "value": "486"}, {"groupId": "BG002", "value": "358"}, {"groupId": "BG003", "value": "1001"}]}]}]}]}, "outcomeMeasuresModule": {"outcomeMeasures": [{"type": "PRIMARY", "title": "Occurrence of Heart Failure (HF) Related Adverse Event (AE)", "description": "Number of participates with HF realted adverse event will be reported. Time to the first HF related Adverse event in the \"Follow-up Period\" from the 6-month visit to the 12-month visit is compared between two risk groups. The goal was to test if there is a significant difference in time to first HF-related adverse event between two groups. A heart failure related (HF-related) adverse event is defined as an adverse event that results in a subject's worsening HF or related to the heart's inability to meet the metabolic demands of the body.", "populationDescription": "Of the 1001 subjects meeting inclusion and exclusion criteria, 643 subjects had been followed longer than 6 months and had the OptiVolTM feature save-to-disk data available. Those 643 subjects were included in this analysis.", "reportingStatus": "POSTED", "paramType": "NUMBER", "unitOfMeasure": "participants", "timeFrame": "From 6 month to the 12 month visit", "groups": [{"id": "OG000", "title": "At Least 1 OptiVol Fluid Index > 100 During DREP", "description": "All subjects who were followed longer than 6 months and had OptiVol fluid index crossing 100 during DREP. An OptiVol index \\> 100 indicates potential fluid retention in the lungs. DREP: Diagnostic Risk Evaluation Period which is defined from consent date or implant date to 6 month visit."}, {"id": "OG001", "title": "No OptiVol Fluid Index > 100 During DREP", "description": "All subjects who were followed longer than 6 months and never had OptiVol Fliud index crossing 100 during DREP. DREP: Diagnostic Risk Evaluation Period which is defined from consent date or implant date to 6 month visit."}], "denoms": [{"units": "Participants", "counts": [{"groupId": "OG000", "value": "157"}, {"groupId": "OG001", "value": "486"}]}], "classes": [{"categories": [{"measurements": [{"groupId": "OG000", "value": "29"}, {"groupId": "OG001", "value": "50"}]}]}], "analyses": [{"groupIds": ["OG000", "OG001"], "testedNonInferiority": false, "nonInferiorityType": "SUPERIORITY_OR_OTHER", "pValue": "0.0119", "statisticalMethod": "Regression, Cox", "paramType": "Cox Proportional Hazard", "paramValue": "2.07", "ciPctValue": "95", "ciNumSides": "TWO_SIDED", "ciLowerLimit": "1.17", "ciUpperLimit": "3.67", "dispersionType": "STANDARD_DEVIATION", "dispersionValue": "0.292", "estimateComment": "The estimated parameter in a Cox regression model was adjusted by age, gender, New York Heart Association (NYHA) class at 6 month visit, Angiotensin Converting Enzyme (ACE)/Angiotensin Receptor Blocker (ARB) at 6 months, and Diuretics at 6 month."}]}, {"type": "SECONDARY", "title": "Occurrence of Heart Failure (HF) Related Healthcare Utilization (HU)", "description": "Number of participates with HF realted healthcare utilization will be reported. Time to the first HF-related healthcare utilization in the \"Follow-up Period\" from the 6-month visit to the 12-month visit is compared between two risk groups. The goal was to test if there is a significant difference in time to first HF-related healthcare utilization between two groups. A heart failure related (HF-related) healthcare utilization is defined as unscheduled office visits, hospitalizations, urgent care visits, and emergency room visits which is resulted by heart failure related adverse event.", "reportingStatus": "POSTED", "paramType": "NUMBER", "unitOfMeasure": "participants", "timeFrame": "6 month to the 12 month visit", "groups": [{"id": "OG000", "title": "At Least 1 OptiVol Fluid Index > 100 During DREP", "description": "All subjects who were followed longer than 6 months and had OptiVol fluid index crossing 100 during DREP. An OptiVol index \\> 100 indicates potential fluid retention in the lungs. DREP: Diagnostic Risk Evaluation Period which is defined from consent date or implant date to 6 month visit."}, {"id": "OG001", "title": "No OptiVol Fluid Index > 100 During DREP", "description": "All subjects who were followed longer than 6 months and never had OptiVol Fliud index crossing 100 during DREP. DREP: Diagnostic Risk Evaluation Period which is defined from consent date or implant date to 6 month visit."}], "denoms": [{"units": "Participants", "counts": [{"groupId": "OG000", "value": "157"}, {"groupId": "OG001", "value": "486"}]}], "classes": [{"categories": [{"measurements": [{"groupId": "OG000", "value": "22"}, {"groupId": "OG001", "value": "35"}]}]}], "analyses": [{"groupIds": ["OG000", "OG001"], "testedNonInferiority": false, "nonInferiorityType": "SUPERIORITY_OR_OTHER", "pValue": "0.0185", "statisticalMethod": "Regression, Cox", "paramType": "Cox Proportional Hazard", "paramValue": "1.90", "ciPctValue": "95", "ciNumSides": "TWO_SIDED", "ciLowerLimit": "1.11", "ciUpperLimit": "3.27", "dispersionType": "STANDARD_DEVIATION", "dispersionValue": "0.277", "estimateComment": "The estimated parameter in a Cox regression model was adjusted by age, gender, NYHA class at 6 month visit, ACE/ARB at 6 months, and and at least one day where CRT pacing \\<90% in last 21 days of DREP."}]}, {"type": "SECONDARY", "title": "Occurrence of Heart Failure (HF) Related Pulmonary Congestion Event (PCE)", "description": "Number of participates with HF related pulmonary congestion event will be reported. Time to the first HF related pulmonary cogestion event in the \"Follow-up Period\" from the 6-month visit to the 12-month visit is compared between two risk groups to see if there is significant difference. A HF related pulmonary congestion event is defined as hospitalization with signs and/or symptoms of pulmonary congestion, or outpatient treatment with IV diuretics due to exacerbation of HF with signs and/or symptoms of pulmonary congestion.", "reportingStatus": "POSTED", "paramType": "NUMBER", "unitOfMeasure": "participants", "timeFrame": "6 month to the 12 month visit", "groups": [{"id": "OG000", "title": "At Least 1 OptiVol Fluid Index > 100 During DREP", "description": "All subjects who were followed longer than 6 months and had OptiVol fluid index crossing 100 during DREP. An OptiVol index \\> 100 indicates potential fluid retention in the lungs. DREP: Diagnostic Risk Evaluation Period which is defined from consent date or implant date to 6 month visit."}, {"id": "OG001", "title": "No OptiVol Fluid Index > 100 During DREP", "description": "All subjects who were followed longer than 6 months and never had OptiVol Fliud index crossing 100 during DREP. DREP: Diagnostic Risk Evaluation Period which is defined from consent date or implant date to 6 month visit."}], "denoms": [{"units": "Participants", "counts": [{"groupId": "OG000", "value": "157"}, {"groupId": "OG001", "value": "486"}]}], "classes": [{"categories": [{"measurements": [{"groupId": "OG000", "value": "17"}, {"groupId": "OG001", "value": "28"}]}]}], "analyses": [{"groupIds": ["OG000", "OG001"], "testedNonInferiority": false, "nonInferiorityType": "SUPERIORITY_OR_OTHER", "pValue": "0.0578", "statisticalMethod": "Regression, Cox", "paramType": "Hazard Ratio (HR)", "paramValue": "1.80", "ciPctValue": "95", "ciNumSides": "TWO_SIDED", "ciLowerLimit": "0.98", "ciUpperLimit": "3.31", "dispersionType": "STANDARD_DEVIATION", "dispersionValue": "0.311", "estimateComment": "A Cox regression model has been used here, and the estimated parameter has been adjusted by including covariates age, gender, and NYHA class at 6 months."}]}]}, "adverseEventsModule": {"frequencyThreshold": "0", "timeFrame": "Those adverse events were collected during the study (0 to 12 month follow-up).", "description": "All adverse events which resulted in hospitalization are listed as serious adverse events.", "eventGroups": [{"id": "EG000", "title": "At Least 1 OptiVol Fluid Index > 100 During DREP", "description": "All subjects who were followed longer than 6 months and had OptiVol fluid index crossing 100 during DREP. An OptiVol index \\> 100 indicates potential fluid retention in the lungs. DREP: Diagnostic Risk Evaluation Period which is defined from consent date or implant date to 6 month visit.", "seriousNumAffected": 84, "seriousNumAtRisk": 157, "otherNumAffected": 75, "otherNumAtRisk": 157}, {"id": "EG001", "title": "No OptiVol Fluid Index > 100 During DREP", "description": "All subjects who were followed longer than 6 months and never had OptiVol Fliud index crossing 100 during DREP. DREP: Diagnostic Risk Evaluation Period which is defined from consent date or implant date to 6 month visit.", "seriousNumAffected": 114, "seriousNumAtRisk": 486, "otherNumAffected": 172, "otherNumAtRisk": 486}, {"id": "EG002", "title": "No OptiVol Measurement", "description": "All subjects either who were not followed for at least 6 months, or didn't have OptiVol Fluid Index measurements available.", "seriousNumAffected": 99, "seriousNumAtRisk": 358, "otherNumAffected": 96, "otherNumAtRisk": 358}], "seriousEvents": [{"term": "Atrial fibrillation", "organSystem": "General disorders", "stats": [{"groupId": "EG000", "numEvents": 2, "numAffected": 2, "numAtRisk": 157}, {"groupId": "EG001", "numEvents": 11, "numAffected": 10, "numAtRisk": 486}, {"groupId": "EG002", "numEvents": 4, "numAffected": 4, "numAtRisk": 358}]}, {"term": "Atrial flutter", "organSystem": "General disorders", "stats": [{"groupId": "EG000", "numEvents": 1, "numAffected": 1, "numAtRisk": 157}, {"groupId": "EG001", "numEvents": 6, "numAffected": 5, "numAtRisk": 486}, {"groupId": "EG002", "numEvents": 1, "numAffected": 1, "numAtRisk": 358}]}, {"term": "Atrial tachycardia", "organSystem": "General disorders", "stats": [{"groupId": "EG000", "numEvents": 0, "numAffected": 0, "numAtRisk": 157}, {"groupId": "EG001", "numEvents": 0, "numAffected": 0, "numAtRisk": 486}, {"groupId": "EG002", "numEvents": 2, "numAffected": 2, "numAtRisk": 358}]}, {"term": "Cardiomyopathy", "organSystem": "General disorders", "stats": [{"groupId": "EG000", "numEvents": 0, "numAffected": 0, "numAtRisk": 157}, {"groupId": "EG001", "numEvents": 0, "numAffected": 0, "numAtRisk": 486}, {"groupId": "EG002", "numEvents": 2, "numAffected": 2, "numAtRisk": 358}]}, {"term": "Chest pressure/tightness", "organSystem": "General disorders", "stats": [{"groupId": "EG000", "numEvents": 0, "numAffected": 0, "numAtRisk": 157}, {"groupId": "EG001", "numEvents": 3, "numAffected": 3, "numAtRisk": 486}, {"groupId": "EG002", "numEvents": 3, "numAffected": 3, "numAtRisk": 358}]}, {"term": "Chronic obstructive pulmonary disease", "organSystem": "General disorders", "stats": [{"groupId": "EG000", "numEvents": 1, "numAffected": 1, "numAtRisk": 157}, {"groupId": "EG001", "numEvents": 3, "numAffected": 3, "numAtRisk": 486}, {"groupId": "EG002", "numEvents": 0, "numAffected": 0, "numAtRisk": 358}]}, {"term": "Dehydration", "organSystem": "General disorders", "stats": [{"groupId": "EG000", "numEvents": 0, "numAffected": 0, "numAtRisk": 157}, {"groupId": "EG001", "numEvents": 3, "numAffected": 3, "numAtRisk": 486}, {"groupId": "EG002", "numEvents": 1, "numAffected": 1, "numAtRisk": 358}]}, {"term": "Dizziness", "organSystem": "General disorders", "stats": [{"groupId": "EG000", "numEvents": 0, "numAffected": 0, "numAtRisk": 157}, {"groupId": "EG001", "numEvents": 2, "numAffected": 2, "numAtRisk": 486}, {"groupId": "EG002", "numEvents": 2, "numAffected": 2, "numAtRisk": 358}]}, {"term": "Dyspnea/Shortness of breath", "organSystem": "General disorders", "stats": [{"groupId": "EG000", "numEvents": 17, "numAffected": 12, "numAtRisk": 157}, {"groupId": "EG001", "numEvents": 29, "numAffected": 21, "numAtRisk": 486}, {"groupId": "EG002", "numEvents": 21, "numAffected": 18, "numAtRisk": 358}]}, {"term": "Fatigue, tiredness", "organSystem": "General disorders", "stats": [{"groupId": "EG000", "numEvents": 1, "numAffected": 1, "numAtRisk": 157}, {"groupId": "EG001", "numEvents": 1, "numAffected": 1, "numAtRisk": 486}, {"groupId": "EG002", "numEvents": 1, "numAffected": 1, "numAtRisk": 358}]}, {"term": "Heart failure decompensation", "organSystem": "General disorders", "stats": [{"groupId": "EG000", "numEvents": 35, "numAffected": 24, "numAtRisk": 157}, {"groupId": "EG001", "numEvents": 24, "numAffected": 22, "numAtRisk": 486}, {"groupId": "EG002", "numEvents": 30, "numAffected": 24, "numAtRisk": 358}]}, {"term": "Hypertension", "organSystem": "General disorders", "stats": [{"groupId": "EG000", "numEvents": 0, "numAffected": 0, "numAtRisk": 157}, {"groupId": "EG001", "numEvents": 2, "numAffected": 1, "numAtRisk": 486}, {"groupId": "EG002", "numEvents": 0, "numAffected": 0, "numAtRisk": 358}]}, {"term": "Hypotension", "organSystem": "General disorders", "stats": [{"groupId": "EG000", "numEvents": 3, "numAffected": 3, "numAtRisk": 157}, {"groupId": "EG001", "numEvents": 4, "numAffected": 4, "numAtRisk": 486}, {"groupId": "EG002", "numEvents": 1, "numAffected": 1, "numAtRisk": 358}]}, {"term": "Ischemic heart disease", "organSystem": "General disorders", "stats": [{"groupId": "EG000", "numEvents": 0, "numAffected": 0, "numAtRisk": 157}, {"groupId": "EG001", "numEvents": 1, "numAffected": 1, "numAtRisk": 486}, {"groupId": "EG002", "numEvents": 0, "numAffected": 0, "numAtRisk": 358}]}, {"term": "Near (pre) syncope", "organSystem": "General disorders", "stats": [{"groupId": "EG000", "numEvents": 1, "numAffected": 1, "numAtRisk": 157}, {"groupId": "EG001", "numEvents": 0, "numAffected": 0, "numAtRisk": 486}, {"groupId": "EG002", "numEvents": 1, "numAffected": 1, "numAtRisk": 358}]}, {"term": "PVC's", "organSystem": "General disorders", "stats": [{"groupId": "EG000", "numEvents": 0, "numAffected": 0, "numAtRisk": 157}, {"groupId": "EG001", "numEvents": 1, "numAffected": 1, "numAtRisk": 486}, {"groupId": "EG002", "numEvents": 0, "numAffected": 0, "numAtRisk": 358}]}, {"term": "Paroxysymal nocturnal dyspnea", "organSystem": "General disorders", "stats": [{"groupId": "EG000", "numEvents": 0, "numAffected": 0, "numAtRisk": 157}, {"groupId": "EG001", "numEvents": 0, "numAffected": 0, "numAtRisk": 486}, {"groupId": "EG002", "numEvents": 0, "numAffected": 0, "numAtRisk": 358}]}, {"term": "Pericardial effusion", "organSystem": "General disorders", "stats": [{"groupId": "EG000", "numEvents": 1, "numAffected": 1, "numAtRisk": 157}, {"groupId": "EG001", "numEvents": 3, "numAffected": 3, "numAtRisk": 486}, {"groupId": "EG002", "numEvents": 0, "numAffected": 0, "numAtRisk": 358}]}, {"term": "Peripheral edema", "organSystem": "General disorders", "stats": [{"groupId": "EG000", "numEvents": 0, "numAffected": 0, "numAtRisk": 157}, {"groupId": "EG001", "numEvents": 0, "numAffected": 0, "numAtRisk": 486}, {"groupId": "EG002", "numEvents": 4, "numAffected": 4, "numAtRisk": 358}]}, {"term": "Peripheral vascular disease", "organSystem": "Vascular disorders", "stats": [{"groupId": "EG000", "numEvents": 0, "numAffected": 0, "numAtRisk": 157}, {"groupId": "EG001", "numEvents": 0, "numAffected": 0, "numAtRisk": 486}, {"groupId": "EG002", "numEvents": 3, "numAffected": 3, "numAtRisk": 358}]}, {"term": "Pleural effusion", "organSystem": "General disorders", "stats": [{"groupId": "EG000", "numEvents": 1, "numAffected": 1, "numAtRisk": 157}, {"groupId": "EG001", "numEvents": 1, "numAffected": 1, "numAtRisk": 486}, {"groupId": "EG002", "numEvents": 0, "numAffected": 0, "numAtRisk": 358}]}, {"term": "Pulmonary embolism", "organSystem": "General disorders", "stats": [{"groupId": "EG000", "numEvents": 2, "numAffected": 2, "numAtRisk": 157}, {"groupId": "EG001", "numEvents": 1, "numAffected": 1, "numAtRisk": 486}, {"groupId": "EG002", "numEvents": 2, "numAffected": 2, "numAtRisk": 358}]}, {"term": "Renal failure", "organSystem": "General disorders", "stats": [{"groupId": "EG000", "numEvents": 1, "numAffected": 1, "numAtRisk": 157}, {"groupId": "EG001", "numEvents": 0, "numAffected": 0, "numAtRisk": 486}, {"groupId": "EG002", "numEvents": 1, "numAffected": 1, "numAtRisk": 358}]}, {"term": "Shoulder pain/discomfort", "organSystem": "General disorders", "stats": [{"groupId": "EG000", "numEvents": 2, "numAffected": 1, "numAtRisk": 157}, {"groupId": "EG001", "numEvents": 0, "numAffected": 0, "numAtRisk": 486}, {"groupId": "EG002", "numEvents": 0, "numAffected": 0, "numAtRisk": 358}]}, {"term": "Syncope", "organSystem": "General disorders", "stats": [{"groupId": "EG000", "numEvents": 1, "numAffected": 1, "numAtRisk": 157}, {"groupId": "EG001", "numEvents": 4, "numAffected": 4, "numAtRisk": 486}, {"groupId": "EG002", "numEvents": 2, "numAffected": 2, "numAtRisk": 358}]}, {"term": "Thrombosis", "organSystem": "General disorders", "stats": [{"groupId": "EG000", "numEvents": 1, "numAffected": 1, "numAtRisk": 157}, {"groupId": "EG001", "numEvents": 2, "numAffected": 2, "numAtRisk": 486}, {"groupId": "EG002", "numEvents": 1, "numAffected": 1, "numAtRisk": 358}]}, {"term": "Vascular heart disease", "organSystem": "Vascular disorders", "stats": [{"groupId": "EG000", "numEvents": 0, "numAffected": 0, "numAtRisk": 157}, {"groupId": "EG001", "numEvents": 1, "numAffected": 1, "numAtRisk": 486}, {"groupId": "EG002", "numEvents": 0, "numAffected": 0, "numAtRisk": 358}]}, {"term": "Ventricular fibrillation", "organSystem": "Cardiac disorders", "stats": [{"groupId": "EG000", "numEvents": 1, "numAffected": 1, "numAtRisk": 157}, {"groupId": "EG001", "numEvents": 0, "numAffected": 0, "numAtRisk": 486}, {"groupId": "EG002", "numEvents": 2, "numAffected": 2, "numAtRisk": 358}]}, {"term": "Ventricular tachycardia", "organSystem": "General disorders", "stats": [{"groupId": "EG000", "numEvents": 6, "numAffected": 5, "numAtRisk": 157}, {"groupId": "EG001", "numEvents": 9, "numAffected": 8, "numAtRisk": 486}, {"groupId": "EG002", "numEvents": 2, "numAffected": 2, "numAtRisk": 358}]}, {"term": "Wheezing", "organSystem": "General disorders", "stats": [{"groupId": "EG000", "numEvents": 0, "numAffected": 0, "numAtRisk": 157}, {"groupId": "EG001", "numEvents": 1, "numAffected": 1, "numAtRisk": 486}, {"groupId": "EG002", "numEvents": 0, "numAffected": 0, "numAtRisk": 358}]}, {"term": "Worsening cough", "organSystem": "General disorders", "stats": [{"groupId": "EG000", "numEvents": 1, "numAffected": 1, "numAtRisk": 157}, {"groupId": "EG001", "numEvents": 1, "numAffected": 1, "numAtRisk": 486}, {"groupId": "EG002", "numEvents": 0, "numAffected": 0, "numAtRisk": 358}]}, {"term": "xOther Intrinsic Rhythm/Conduction Codes", "organSystem": "General disorders", "stats": [{"groupId": "EG000", "numEvents": 1, "numAffected": 1, "numAtRisk": 157}, {"groupId": "EG001", "numEvents": 1, "numAffected": 1, "numAtRisk": 486}, {"groupId": "EG002", "numEvents": 1, "numAffected": 1, "numAtRisk": 358}]}, {"term": "yOther patient disease/condition codes", "organSystem": "General disorders", "stats": [{"groupId": "EG000", "numEvents": 0, "numAffected": 0, "numAtRisk": 157}, {"groupId": "EG001", "numEvents": 1, "numAffected": 1, "numAtRisk": 486}, {"groupId": "EG002", "numEvents": 3, "numAffected": 2, "numAtRisk": 358}]}, {"term": "zAll \"Other\" codes", "organSystem": "General disorders", "stats": [{"groupId": "EG000", "numEvents": 27, "numAffected": 23, "numAtRisk": 157}, {"groupId": "EG001", "numEvents": 14, "numAffected": 13, "numAtRisk": 486}, {"groupId": "EG002", "numEvents": 19, "numAffected": 19, "numAtRisk": 358}]}], "otherEvents": [{"term": "Arm/hand swelling", "organSystem": "General disorders", "stats": [{"groupId": "EG000", "numEvents": 0, "numAffected": 0, "numAtRisk": 157}, {"groupId": "EG001", "numEvents": 2, "numAffected": 2, "numAtRisk": 486}, {"groupId": "EG002", "numEvents": 1, "numAffected": 1, "numAtRisk": 358}]}, {"term": "Atrial fibrillation", "organSystem": "General disorders", "stats": [{"groupId": "EG000", "numEvents": 5, "numAffected": 3, "numAtRisk": 157}, {"groupId": "EG001", "numEvents": 6, "numAffected": 6, "numAtRisk": 486}, {"groupId": "EG002", "numEvents": 6, "numAffected": 6, "numAtRisk": 358}]}, {"term": "Atrial flutter", "organSystem": "General disorders", "stats": [{"groupId": "EG000", "numEvents": 0, "numAffected": 0, "numAtRisk": 157}, {"groupId": "EG001", "numEvents": 3, "numAffected": 3, "numAtRisk": 486}, {"groupId": "EG002", "numEvents": 2, "numAffected": 2, "numAtRisk": 358}]}, {"term": "Atrial tachycardia", "organSystem": "General disorders", "stats": [{"groupId": "EG000", "numEvents": 0, "numAffected": 0, "numAtRisk": 157}, {"groupId": "EG001", "numEvents": 1, "numAffected": 1, "numAtRisk": 486}, {"groupId": "EG002", "numEvents": 0, "numAffected": 0, "numAtRisk": 358}]}, {"term": "Cardiomyopathy", "organSystem": "General disorders", "stats": [{"groupId": "EG000", "numEvents": 0, "numAffected": 0, "numAtRisk": 157}, {"groupId": "EG001", "numEvents": 0, "numAffected": 0, "numAtRisk": 486}, {"groupId": "EG002", "numEvents": 1, "numAffected": 1, "numAtRisk": 358}]}, {"term": "Chest pressure/tightness", "organSystem": "General disorders", "stats": [{"groupId": "EG000", "numEvents": 0, "numAffected": 0, "numAtRisk": 157}, {"groupId": "EG001", "numEvents": 5, "numAffected": 3, "numAtRisk": 486}, {"groupId": "EG002", "numEvents": 1, "numAffected": 1, "numAtRisk": 358}]}, {"term": "Chronic obstructive pulmonary disease", "organSystem": "General disorders", "stats": [{"groupId": "EG000", "numEvents": 2, "numAffected": 2, "numAtRisk": 157}, {"groupId": "EG001", "numEvents": 3, "numAffected": 2, "numAtRisk": 486}, {"groupId": "EG002", "numEvents": 1, "numAffected": 1, "numAtRisk": 358}]}, {"term": "Dehydration", "organSystem": "General disorders", "stats": [{"groupId": "EG000", "numEvents": 1, "numAffected": 1, "numAtRisk": 157}, {"groupId": "EG001", "numEvents": 1, "numAffected": 1, "numAtRisk": 486}, {"groupId": "EG002", "numEvents": 0, "numAffected": 0, "numAtRisk": 358}]}, {"term": "Dizziness", "organSystem": "General disorders", "stats": [{"groupId": "EG000", "numEvents": 4, "numAffected": 4, "numAtRisk": 157}, {"groupId": "EG001", "numEvents": 12, "numAffected": 12, "numAtRisk": 486}, {"groupId": "EG002", "numEvents": 8, "numAffected": 4, "numAtRisk": 358}]}, {"term": "Dyspnea/Shortness of breath", "organSystem": "General disorders", "stats": [{"groupId": "EG000", "numEvents": 30, "numAffected": 23, "numAtRisk": 157}, {"groupId": "EG001", "numEvents": 43, "numAffected": 39, "numAtRisk": 486}, {"groupId": "EG002", "numEvents": 23, "numAffected": 19, "numAtRisk": 358}]}, {"term": "Fatigue, tiredness", "organSystem": "General disorders", "stats": [{"groupId": "EG000", "numEvents": 3, "numAffected": 3, "numAtRisk": 157}, {"groupId": "EG001", "numEvents": 16, "numAffected": 16, "numAtRisk": 486}, {"groupId": "EG002", "numEvents": 3, "numAffected": 3, "numAtRisk": 358}]}, {"term": "Heart failure decompensation", "organSystem": "General disorders", "stats": [{"groupId": "EG000", "numEvents": 7, "numAffected": 6, "numAtRisk": 157}, {"groupId": "EG001", "numEvents": 8, "numAffected": 8, "numAtRisk": 486}, {"groupId": "EG002", "numEvents": 6, "numAffected": 4, "numAtRisk": 358}]}, {"term": "Hypertension", "organSystem": "General disorders", "stats": [{"groupId": "EG000", "numEvents": 1, "numAffected": 1, "numAtRisk": 157}, {"groupId": "EG001", "numEvents": 0, "numAffected": 0, "numAtRisk": 486}, {"groupId": "EG002", "numEvents": 1, "numAffected": 1, "numAtRisk": 358}]}, {"term": "Hypokalemia", "organSystem": "General disorders", "stats": [{"groupId": "EG000", "numEvents": 0, "numAffected": 0, "numAtRisk": 157}, {"groupId": "EG001", "numEvents": 0, "numAffected": 0, "numAtRisk": 486}, {"groupId": "EG002", "numEvents": 2, "numAffected": 2, "numAtRisk": 358}]}, {"term": "Hypotension", "organSystem": "General disorders", "stats": [{"groupId": "EG000", "numEvents": 3, "numAffected": 3, "numAtRisk": 157}, {"groupId": "EG001", "numEvents": 2, "numAffected": 2, "numAtRisk": 486}, {"groupId": "EG002", "numEvents": 4, "numAffected": 4, "numAtRisk": 358}]}, {"term": "Near (pre) syncope", "organSystem": "General disorders", "stats": [{"groupId": "EG000", "numEvents": 2, "numAffected": 2, "numAtRisk": 157}, {"groupId": "EG001", "numEvents": 3, "numAffected": 2, "numAtRisk": 486}, {"groupId": "EG002", "numEvents": 3, "numAffected": 3, "numAtRisk": 358}]}, {"term": "PVC's", "organSystem": "General disorders", "stats": [{"groupId": "EG000", "numEvents": 0, "numAffected": 0, "numAtRisk": 157}, {"groupId": "EG001", "numEvents": 2, "numAffected": 2, "numAtRisk": 486}, {"groupId": "EG002", "numEvents": 0, "numAffected": 0, "numAtRisk": 358}]}, {"term": "Palpitations", "organSystem": "General disorders", "stats": [{"groupId": "EG000", "numEvents": 1, "numAffected": 1, "numAtRisk": 157}, {"groupId": "EG001", "numEvents": 5, "numAffected": 5, "numAtRisk": 486}, {"groupId": "EG002", "numEvents": 1, "numAffected": 1, "numAtRisk": 358}]}, {"term": "Paroxysymal nocturnal dyspnea", "organSystem": "General disorders", "stats": [{"groupId": "EG000", "numEvents": 3, "numAffected": 1, "numAtRisk": 157}, {"groupId": "EG001", "numEvents": 4, "numAffected": 4, "numAtRisk": 486}, {"groupId": "EG002", "numEvents": 1, "numAffected": 1, "numAtRisk": 358}]}, {"term": "Pericardial effusion", "organSystem": "General disorders", "stats": [{"groupId": "EG000", "numEvents": 1, "numAffected": 1, "numAtRisk": 157}, {"groupId": "EG001", "numEvents": 0, "numAffected": 0, "numAtRisk": 486}, {"groupId": "EG002", "numEvents": 0, "numAffected": 0, "numAtRisk": 358}]}, {"term": "Peripheral edema", "organSystem": "General disorders", "stats": [{"groupId": "EG000", "numEvents": 7, "numAffected": 6, "numAtRisk": 157}, {"groupId": "EG001", "numEvents": 20, "numAffected": 16, "numAtRisk": 486}, {"groupId": "EG002", "numEvents": 10, "numAffected": 10, "numAtRisk": 358}]}, {"term": "Peripheral vascular disease", "organSystem": "General disorders", "stats": [{"groupId": "EG000", "numEvents": 0, "numAffected": 0, "numAtRisk": 157}, {"groupId": "EG001", "numEvents": 1, "numAffected": 1, "numAtRisk": 486}, {"groupId": "EG002", "numEvents": 0, "numAffected": 0, "numAtRisk": 358}]}, {"term": "Pleural effusion", "organSystem": "General disorders", "stats": [{"groupId": "EG000", "numEvents": 0, "numAffected": 0, "numAtRisk": 157}, {"groupId": "EG001", "numEvents": 1, "numAffected": 1, "numAtRisk": 486}, {"groupId": "EG002", "numEvents": 0, "numAffected": 0, "numAtRisk": 358}]}, {"term": "Rash", "organSystem": "General disorders", "stats": [{"groupId": "EG000", "numEvents": 0, "numAffected": 0, "numAtRisk": 157}, {"groupId": "EG001", "numEvents": 0, "numAffected": 0, "numAtRisk": 486}, {"groupId": "EG002", "numEvents": 1, "numAffected": 1, "numAtRisk": 358}]}, {"term": "Syncope", "organSystem": "General disorders", "stats": [{"groupId": "EG000", "numEvents": 0, "numAffected": 0, "numAtRisk": 157}, {"groupId": "EG001", "numEvents": 7, "numAffected": 7, "numAtRisk": 486}, {"groupId": "EG002", "numEvents": 2, "numAffected": 2, "numAtRisk": 358}]}, {"term": "Thrombosis", "organSystem": "General disorders", "stats": [{"groupId": "EG000", "numEvents": 1, "numAffected": 1, "numAtRisk": 157}, {"groupId": "EG001", "numEvents": 1, "numAffected": 1, "numAtRisk": 486}, {"groupId": "EG002", "numEvents": 0, "numAffected": 0, "numAtRisk": 358}]}, {"term": "Ventricular fibrillation", "organSystem": "General disorders", "stats": [{"groupId": "EG000", "numEvents": 0, "numAffected": 0, "numAtRisk": 157}, {"groupId": "EG001", "numEvents": 7, "numAffected": 7, "numAtRisk": 486}, {"groupId": "EG002", "numEvents": 5, "numAffected": 5, "numAtRisk": 358}]}, {"term": "Ventricular tachycardia", "organSystem": "General disorders", "stats": [{"groupId": "EG000", "numEvents": 2, "numAffected": 2, "numAtRisk": 157}, {"groupId": "EG001", "numEvents": 8, "numAffected": 3, "numAtRisk": 486}, {"groupId": "EG002", "numEvents": 9, "numAffected": 6, "numAtRisk": 358}]}, {"term": "Wheezing", "organSystem": "General disorders", "stats": [{"groupId": "EG000", "numEvents": 1, "numAffected": 1, "numAtRisk": 157}, {"groupId": "EG001", "numEvents": 2, "numAffected": 2, "numAtRisk": 486}, {"groupId": "EG002", "numEvents": 0, "numAffected": 0, "numAtRisk": 358}]}, {"term": "xOther Intrinsic Rhythm/Conduction Codes", "organSystem": "General disorders", "stats": [{"groupId": "EG000", "numEvents": 1, "numAffected": 1, "numAtRisk": 157}, {"groupId": "EG001", "numEvents": 1, "numAffected": 1, "numAtRisk": 486}, {"groupId": "EG002", "numEvents": 2, "numAffected": 2, "numAtRisk": 358}]}, {"term": "yOther Patient Disease/Conduction Codes", "organSystem": "General disorders", "stats": [{"groupId": "EG000", "numEvents": 1, "numAffected": 1, "numAtRisk": 157}, {"groupId": "EG001", "numEvents": 8, "numAffected": 8, "numAtRisk": 486}, {"groupId": "EG002", "numEvents": 4, "numAffected": 4, "numAtRisk": 358}]}, {"term": "zAll \"Other\" Codes", "organSystem": "General disorders", "stats": [{"groupId": "EG000", "numEvents": 19, "numAffected": 12, "numAtRisk": 157}, {"groupId": "EG001", "numEvents": 20, "numAffected": 17, "numAtRisk": 486}, {"groupId": "EG002", "numEvents": 17, "numAffected": 12, "numAtRisk": 358}]}]}, "moreInfoModule": {"certainAgreement": {"piSponsorEmployee": false, "restrictionType": "OTHER", "restrictiveAgreement": true, "otherDetails": "In most cases, contracts allow investigators (\"PI\") to publish per the publication strategy/Clinical Investigation Plan following Medtronic's review for (a) disclosure of confidential information (\"CI\"), and (b) selection and order of publications by the publications committee. Any such CI is deleted prior to publication/presentation. Medtronic may not otherwise censor/interfere with the publication. PI's may not publish single-site data until the main multi-site publication has occurred."}, "pointOfContact": {"title": "CRDM Core Clinical", "organization": "Medtronic CRDM Clinical Research", "email": "medtroniccrmtrials@medtronic.com", "phone": "800-328-2518"}}}, "derivedSection": {"miscInfoModule": {"versionHolder": "2024-06-24"}, "conditionBrowseModule": {"meshes": [{"id": "D000006333", "term": "Heart Failure"}], "ancestors": [{"id": "D000006331", "term": "Heart Diseases"}, {"id": "D000002318", "term": "Cardiovascular Diseases"}], "browseLeaves": [{"id": "M9421", "name": "Heart Failure", "asFound": "Heart Failure", "relevance": "HIGH"}, {"id": "M9419", "name": "Heart Diseases", "relevance": "LOW"}], "browseBranches": [{"abbrev": "BC14", "name": "Heart and Blood Diseases"}, {"abbrev": "All", "name": "All Conditions"}]}}, "hasResults": true}