{"protocolSection": {"identificationModule": {"nctId": "NCT00623103", "orgStudyIdInfo": {"id": "CENA713B2315"}, "organization": {"fullName": "Novartis", "class": "INDUSTRY"}, "briefTitle": "Long-term Safety of Rivastigmine Capsule and Patch in Patients With Mild to Moderately-severe Dementia Associated With Parkinson's Disease (PDD)", "officialTitle": "A 76-week Prospective, Open-label, Multicenter Study to Evaluate the Long-term Effect of Rivastigmine Capsule and Transdermal Patch on Worsening of the Underlying Motor Symptoms of PD in Patients With Mild to Moderately Severe Dementia Associated With Parkinson's Disease (PDD)"}, "statusModule": {"statusVerifiedDate": "2011-10", "overallStatus": "COMPLETED", "expandedAccessInfo": {"hasExpandedAccess": false}, "startDateStruct": {"date": "2008-01"}, "primaryCompletionDateStruct": {"date": "2010-11", "type": "ACTUAL"}, "studyFirstSubmitDate": "2008-02-14", "studyFirstSubmitQcDate": "2008-02-22", "studyFirstPostDateStruct": {"date": "2008-02-25", "type": "ESTIMATED"}, "resultsFirstSubmitDate": "2011-10-19", "resultsFirstSubmitQcDate": "2011-10-19", "resultsFirstPostDateStruct": {"date": "2011-11-28", "type": "ESTIMATED"}, "lastUpdateSubmitDate": "2011-10-19", "lastUpdatePostDateStruct": {"date": "2011-11-28", "type": "ESTIMATED"}}, "sponsorCollaboratorsModule": {"responsibleParty": {"type": "SPONSOR"}, "leadSponsor": {"name": "Novartis", "class": "INDUSTRY"}}, "descriptionModule": {"briefSummary": "The purpose of this study is to provide long-term safety data for rivastigmine capsule and transdermal patch treatments, in particular the effect of rivastigmine on worsening of the underlying motor symptoms of Parkinson's Disease (PD), in patients with mild to moderately severe dementia associated with PD."}, "conditionsModule": {"conditions": ["Parkinson's Disease Dementia"], "keywords": ["Parkinson's disease dementia", "cholinesterase inhibitor", "rivastigmine"]}, "designModule": {"studyType": "INTERVENTIONAL", "phases": ["PHASE3"], "designInfo": {"allocation": "RANDOMIZED", "interventionModel": "PARALLEL", "primaryPurpose": "TREATMENT", "maskingInfo": {"masking": "NONE"}}, "enrollmentInfo": {"count": 583, "type": "ACTUAL"}}, "armsInterventionsModule": {"armGroups": [{"label": "Rivastigmine capsule", "type": "EXPERIMENTAL", "description": "Rivastigmine capsules starting at a total dose of 3 mg/day (1.5 mg twice daily orally) titrated up in 3 mg/day increments every 4 weeks to a final dose of 12 mg/day (6 mg twice daily orally). The 12 mg/day dose or the highest dose tolerated was maintained until week 76.", "interventionNames": ["Drug: Rivastigmine capsule"]}, {"label": "Rivastigmine patch", "type": "EXPERIMENTAL", "description": "Rivastigmine patch once a day in the morning, worn for 24 hours, starting at 5 cm\\^2 (delivering 4.6 mg rivastigmine over a 24 hour period) for 4 weeks then titrated up to 10 cm\\^2 daily (delivering 9.5 mg rivastigmine over a 24 hour period). The 10 cm\\^2 patch or the highest well tolerated dose was maintained until week 76.", "interventionNames": ["Drug: Rivastigmine transdermal patch"]}], "interventions": [{"type": "DRUG", "name": "Rivastigmine capsule", "description": "Rivastigmine capsules orally twice a day. Target dose 12 mg/day.", "armGroupLabels": ["Rivastigmine capsule"], "otherNames": ["Exelon\u00ae"]}, {"type": "DRUG", "name": "Rivastigmine transdermal patch", "description": "Rivastigmine patch once a day in the morning, worn for 24 hours. Target dose 10 cm\\^2/day delivering 9.5 mg over a 24 hour period.", "armGroupLabels": ["Rivastigmine patch"], "otherNames": ["Exelon\u00ae"]}]}, "outcomesModule": {"primaryOutcomes": [{"measure": "Percentage of Participants With Adverse Events (AEs) Due, or Potentially Due, to Worsening of Parkinson Disease (PD) Motor Symptoms (Tremor, Muscle Rigidity, Bradykinesia, Fall)", "description": "The AEs were summarized by presenting the number and percentage of patients having any of the 4 AEs or discontinued due to any of the 4 predefined AEs (tremor, muscle rigidity, bradykinesia, and fall)in each treatment group. The 95% CIs associated with the rates were also presented.", "timeFrame": "76 Weeks"}, {"measure": "Percentage of Participants With Study Drug Discontinuations Due to Predefined AEs That Are Due, or Potentially Due, to Worsening of PD Motor Symptoms (Tremor, Muscle Rigidity, Bradykinesia, Fall)", "description": "The discontinuations due to these AEs were summarized by presenting the number and percentage of patients having any of the 4 AEs or discontinued due to any of the 4 predefined AEs (tremor, muscle rigidity, bradykinesia, and fall) in each treatment group. The 95% CIs associated with these rates were also presented.", "timeFrame": "76 Weeks"}], "secondaryOutcomes": [{"measure": "Change in Unified Parkinson Disease Rating Scale (UPDRS) Part III Motor Examination Scores at Weeks 8, 16, 24, 52 and 76 (or Early Discontinuation) Compared to Baseline", "description": "Unified Parkinson Disease Rating Scale (UPDRS) is a 6 part Parkinson's disease specific rating scale that estimates clinical function taking into consideration both disability (functional deficits) and impairment (objective clinical signs). Part III records the motor examination in Items 18-31 rated on a scale of 0 to 4 with (0 being absent/ normal and 4 being the worse) for a total possible score of 0 to 56.", "timeFrame": "From Baseline to Weeks 8, 16, 24, 52 and 76"}, {"measure": "Change in Mattis Dementia Rating Scale (Mattis DRS-2) Scores at Weeks 16, 24, 52 and 76 Compared to Baseline", "description": "Mattis DRS-2 is a measure of cognitive status. The total score is the sum of 5 subscale scores: Attention \\[0-37\\], Initiation/Perservation \\[0-37\\] (performing alternating movements), Construction \\[0-6\\] (copying designs), Conceptualization \\[0-39\\] (similarities) and Memory \\[0-25\\] (sentence recall, design recognition)for a total possible score of 0-144. Higher score is reflective of better cognitive function, lower scores associated with more pronounced cognitive deficit. The change from baseline was calculated such that a positive number indicates an improvement.", "timeFrame": "From Baseline to Weeks 16, 24, 52 and 76"}, {"measure": "Change in Ten Point Clock Test (TPCT) Scores at Weeks 16, 24, 52 and 76 (or Early Discontinuation) Compared to Baseline", "description": "The Ten Point Clock Test measures executive functioning and visuospatial skills. Participants are asked to put numbers on the face of a clock and then make the clock read 10 minutes after 11. Points are awarded on a scale of 0 to 10 for spacing of specific numbers and the positions of the hands. The change from baseline was calculated such that a positive number indicates improvement.", "timeFrame": "From Baseline to Weeks 16, 24, 52 and 76"}, {"measure": "Change in Neuropsychiatric Inventory-10 (NPI-10) Scores at Weeks 16, 24, 52 and 76 (or Early Discontinuation) Compared to Baseline", "description": "The parameter for analysis was the change from baseline of total score of 10 items on the NPI scale (NPI-10). The total score is a sum of the 10 domains, where the score for a domain is defined as the product of frequency (range: 1-4) and severity (range: 1-3). Each domain has a maximum score of 12 and all domains were equally weighted for total score(thus the range for the total score is 0 to 120 with 0 being completely healthy to 120 which is the worse score patient can get). The change from baseline was calculated such that a negative number indicates an improvement (symptom reduction).", "timeFrame": "At Week 16, 24, 52 and 76 (or early discontinuation)"}, {"measure": "Change in Alzheimer's Disease Cooperative Study-Activities Of Daily Living (ADCS-ADL) Scores at Weeks 16, 24, 52 and 76 (or Early Discontinuation) Compared to Baseline", "description": "The 23 item caregiver-based ADL scale of the dementia Alzheimer's disease Cooperative Study-Activities of Daily Living (ADCS-ADL) was used for analysis. This is a caregiver rated questionnaire of 23 items, with possible scores over a range of 0-78, where 78 denote full functioning with no impairment. The total score was derived by adding up the item scores of the 23 items.\n\nThe change from baseline was calculated such that a positive change indicates an improvement.", "timeFrame": "From Baseline to Week 16, 24, 52 and 76 (or early discontinuation)"}, {"measure": "UPDRS Part V Stage (Modified Hoehn and Yahr Staging)at Baseline, Week 8,16,24,52 and 76 (or Early Discontinuation)", "description": "Unified Parkinson Disease Rating Scale (UPDRS) is a 6 part Parkinson's disease specific rating scale that estimates clinical function taking into consideration both disability (functional deficits) and impairment (objective clinical signs). UPDRS Part V is assessed by the modified Hoehn and Yahr Staging Scale. The scale ranges from 0 (no signs of disease) to 5 (wheelchair bound or bedridden unless aided).", "timeFrame": "From Baseline to Week 8, 16, 24, 52 and 76 (or early discontinuation)"}]}, "eligibilityModule": {"eligibilityCriteria": "Inclusion Criteria:\n\n* Diagnosis of idiopathic Parkinson's disease, according to the UK Parkinson's disease Society Brain Bank criteria\n* Diagnosis of Parkinson's disease dementia according to Diagnostic and Statistical Manual of Mental Disorders, Fourth Edition (DSM-IV) criteria, with onset of symptoms of dementia at least 2 years following the first diagnosis of idiopathic Parkinson's disease\n* Mini Mental State Examination score of \u226510 and \u2264 26 (at Screening Visit only)\n\nExclusion Criteria:\n\n* An advanced, severe, or unstable disease of any type that may interfere with the primary and secondary variable evaluations\n* A score of 5 (wheelchair bound or bedridden) in the \"on\"-state on the Modified Hoehn and Yahr Staging (UPDRS Part V)\n* A current diagnosis of any primary neurodegenerative disorder other than idiopathic PD\n* A current diagnosis of any treatable dementia (hypothyroidism, syphilis, vitamin B12 or folate deficiency) that is verified by the investigator to be the cause of dementia.\n* A current diagnosis of probably vascular dementia according to the National Institute of Neurological Disorders and Stroke and the Association International pour la Recherche et l'Enseignement en Neurosciences (NINDS-AIREN) criteria\n* A current diagnosis of a major depressive episode according to DSM-IV criteria\n* A history of stereotaxic brain surgery for Parkinson's disease\n* A known exaggerated pharmacological sensitivity or hypersensitivity to drugs similar to rivastigmine or to other cholinergic compounds\n\nOther protocol-defined inclusion/exclusion criteria may apply.", "healthyVolunteers": false, "sex": "ALL", "minimumAge": "50 Years", "maximumAge": "85 Years", "stdAges": ["ADULT", "OLDER_ADULT"]}, "contactsLocationsModule": {"overallOfficials": [{"name": "Novartis Pharmaceuticals", "affiliation": "Novartis Pharmaceuticals", "role": "STUDY_DIRECTOR"}], "locations": [{"facility": "University of Alabama at Birmingham", "city": "Birmingham", "state": "Alabama", "zip": "35233", "country": "United States", "geoPoint": {"lat": 33.52066, "lon": -86.80249}}, {"facility": "21st Century Neurology", "city": "Phoenix", "state": "Arizona", "zip": "85004", "country": "United States", "geoPoint": {"lat": 33.44838, "lon": -112.07404}}, {"facility": "Neurosearch, Inc.", "city": "Reseda", "state": "California", "zip": "91335", "country": "United States", "geoPoint": {"lat": 34.20112, "lon": -118.53647}}, {"facility": "Neurosearch II, Inc.", "city": "Ventura", "state": "California", "zip": "93003", "country": "United States", "geoPoint": {"lat": 34.27834, "lon": -119.29317}}, {"facility": "Sunrise Clinical Research, Inc.", "city": "Hollywood", "state": "Florida", "zip": "33021", "country": "United States", "geoPoint": {"lat": 26.0112, "lon": -80.14949}}, {"facility": "Collier Neurologic Specialists", "city": "Naples", "state": "Florida", "zip": "34102", "country": "United States", "geoPoint": {"lat": 26.14234, "lon": -81.79596}}, {"facility": "Comprehensive Neurology Specialists, PC", "city": "Suwanee", "state": "Georgia", "zip": "30024", "country": "United States", "geoPoint": {"lat": 34.05149, "lon": -84.0713}}, {"facility": "Neurological Associates", "city": "Meridian", "state": "Idaho", "zip": "83646", "country": "United States", "geoPoint": {"lat": 43.61211, "lon": -116.39151}}, {"facility": "Evanstan Northwestern Healthcare Medical Group", "city": "Glenview", "state": "Illinois", "zip": "60026", "country": "United States", "geoPoint": {"lat": 42.06975, "lon": -87.78784}}, {"facility": "University of Kansas Medical Center", "city": "Kansas City", "state": "Kansas", "zip": "66160", "country": "United States", "geoPoint": {"lat": 39.11417, "lon": -94.62746}}, {"facility": "Neurological Care of Central NY", "city": "Syracuse", "state": "New York", "zip": "13210-1853", "country": "United States", "geoPoint": {"lat": 43.04812, "lon": -76.14742}}, {"facility": "Neurology & Neuroscience Associates, Inc.", "city": "Akron", "state": "Ohio", "zip": "44302", "country": "United States", "geoPoint": {"lat": 41.08144, "lon": -81.51901}}, {"facility": "Square 1 Clinical Research", "city": "Erie", "state": "Pennsylvania", "zip": "16506", "country": "United States", "geoPoint": {"lat": 42.12922, "lon": -80.08506}}, {"facility": "Research Protocol Management Solutions", "city": "Pittsburgh", "state": "Pennsylvania", "zip": "15243", "country": "United States", "geoPoint": {"lat": 40.44062, "lon": -79.99589}}, {"facility": "Neurology Specialists of Dallas", "city": "Dallas", "state": "Texas", "zip": "75231", "country": "United States", "geoPoint": {"lat": 32.78306, "lon": -96.80667}}, {"facility": "Progressive Clinical Research", "city": "Bountiful", "state": "Utah", "zip": "84010", "country": "United States", "geoPoint": {"lat": 40.88939, "lon": -111.88077}}, {"facility": "Veterans Affairs Puget Sound Health Care System", "city": "Seattle", "state": "Washington", "zip": "98108", "country": "United States", "geoPoint": {"lat": 47.60621, "lon": -122.33207}}, {"facility": "Novartis Investigative Site", "city": "Ciudad Autonoma de Bs As", "state": "Buenos Aires", "zip": "C1122AAL", "country": "Argentina", "geoPoint": {"lat": -34.61315, "lon": -58.37723}}, {"facility": "Novartis Investigative Site", "city": "Buenos Aires", "state": "Capital Federal", "zip": "C1429DUC", "country": "Argentina", "geoPoint": {"lat": -34.61315, "lon": -58.37723}}, {"facility": "Novartis Investigative Site", "city": "Rosario", "state": "Santa Fe", "zip": "S2000BZL", "country": "Argentina", "geoPoint": {"lat": -32.94682, "lon": -60.63932}}, {"facility": "Novartis Investigative Site", "city": "Buenos Aires", "zip": "C1425CDC", "country": "Argentina", "geoPoint": {"lat": -34.61315, "lon": -58.37723}}, {"facility": "Novartis Investigative Site", "city": "Kogarah", "state": "New South Wales", "zip": "2217", "country": "Australia", "geoPoint": {"lat": -33.98333, "lon": 151.11667}}, {"facility": "Novartis Investigative Site", "city": "Heidelberg", "state": "Victoria", "zip": "3084", "country": "Australia", "geoPoint": {"lat": -37.75, "lon": 145.06667}}, {"facility": "Novartis Investigative Site", "city": "Malvern", "state": "Victoria", "zip": "3144", "country": "Australia", "geoPoint": {"lat": -32.02849, "lon": 151.32225}}, {"facility": "Novartis Investigative Site", "city": "Melbourne", "state": "Victoria", "zip": "3050", "country": "Australia", "geoPoint": {"lat": -37.814, "lon": 144.96332}}, {"facility": "Novartis Investigative Site", "city": "Prahran", "state": "Victoria", "zip": "3181", "country": "Australia", "geoPoint": {"lat": -37.85114, "lon": 144.99318}}, {"facility": "Novartis Investigative Site", "city": "Graz", "zip": "8036", "country": "Austria", "geoPoint": {"lat": 47.06667, "lon": 15.45}}, {"facility": "Novartis Investigative Site", "city": "Innsbruck", "zip": "6020", "country": "Austria", "geoPoint": {"lat": 47.26266, "lon": 11.39454}}, {"facility": "Novartis Investigative Site", "city": "Linz", "zip": "4020", "country": "Austria", "geoPoint": {"lat": 48.30639, "lon": 14.28611}}, {"facility": "Novartis Investigative site", "city": "Linz", "zip": "A-4020", "country": "Austria", "geoPoint": {"lat": 48.30639, "lon": 14.28611}}, {"facility": "Novartis Investigative Site", "city": "Vienna", "zip": "1220", "country": "Austria", "geoPoint": {"lat": 48.20849, "lon": 16.37208}}, {"facility": "Novartis Investigative Site", "city": "Antwerpen", "zip": "2018", "country": "Belgium", "geoPoint": {"lat": 51.21989, "lon": 4.40346}}, {"facility": "Novartis Investigative Site", "city": "Bruxelles", "zip": "1200", "country": "Belgium", "geoPoint": {"lat": 50.85045, "lon": 4.34878}}, {"facility": "Novartis Investigative Site", "city": "Edegem", "zip": "2650", "country": "Belgium", "geoPoint": {"lat": 51.15662, "lon": 4.44504}}, {"facility": "Novartis Investigative Site", "city": "Jette", "zip": "1090", "country": "Belgium", "geoPoint": {"lat": 50.87309, "lon": 4.33419}}, {"facility": "Novartis Investigative Site", "city": "Kortrijk", "zip": "8500", "country": "Belgium", "geoPoint": {"lat": 50.82803, "lon": 3.26487}}, {"facility": "Novartis Investigative Site", "city": "Leuven", "zip": "3000", "country": "Belgium", "geoPoint": {"lat": 50.87959, "lon": 4.70093}}, {"facility": "Novartis Investigative Site", "city": "Liege", "zip": "4000", "country": "Belgium", "geoPoint": {"lat": 50.63373, "lon": 5.56749}}, {"facility": "Novartis Investigative Site", "city": "Wilrijk", "zip": "2610", "country": "Belgium", "geoPoint": {"lat": 51.16734, "lon": 4.39513}}, {"facility": "Novartis Investigative Site", "city": "Calgary", "state": "Alberta", "zip": "T2N 4N1", "country": "Canada", "geoPoint": {"lat": 51.05011, "lon": -114.08529}}, {"facility": "Novartis Investigative Site", "city": "Vancouver", "state": "British Columbia", "zip": "V6T 2B5", "country": "Canada", "geoPoint": {"lat": 49.24966, "lon": -123.11934}}, {"facility": "Novartis Investigative Site", "city": "Halifax", "state": "Nova Scotia", "zip": "B3J 3T1", "country": "Canada", "geoPoint": {"lat": 44.64533, "lon": -63.57239}}, {"facility": "Novartis Investigative Site", "city": "Kitchener", "state": "Ontario", "zip": "N2H 5Z8", "country": "Canada", "geoPoint": {"lat": 43.42537, "lon": -80.5112}}, {"facility": "Novartis Investigative Site", "city": "London", "state": "Ontario", "zip": "N6A 5A5", "country": "Canada", "geoPoint": {"lat": 42.98339, "lon": -81.23304}}, {"facility": "Novartis Investigative Site", "city": "Ottawa", "state": "Ontario", "zip": "K1G 4G3", "country": "Canada", "geoPoint": {"lat": 45.41117, "lon": -75.69812}}, {"facility": "Novartis Investigative site", "city": "Toronto", "state": "Ontario", "zip": "M4N 3M5", "country": "Canada", "geoPoint": {"lat": 43.70011, "lon": -79.4163}}, {"facility": "Novartis Investigative Site", "city": "Windsor", "state": "Ontario", "zip": "N8X 5A6", "country": "Canada", "geoPoint": {"lat": 42.30008, "lon": -83.01654}}, {"facility": "Novartis Investigative Site", "city": "Greenfield Park", "state": "Quebec", "zip": "J4V 2J2", "country": "Canada", "geoPoint": {"lat": 45.48649, "lon": -73.46223}}, {"facility": "Novartis Investigative Site", "city": "Montreal", "state": "Quebec", "zip": "H2L 4M1", "country": "Canada", "geoPoint": {"lat": 45.50884, "lon": -73.58781}}, {"facility": "Novartis Investigative Site", "city": "Montreal", "state": "Quebec", "zip": "H3G 1A4", "country": "Canada", "geoPoint": {"lat": 45.50884, "lon": -73.58781}}, {"facility": "Novartis Investigative Site", "city": "Regina", "state": "Saskatchewan", "zip": "S4T 1A5", "country": "Canada", "geoPoint": {"lat": 50.45008, "lon": -104.6178}}, {"facility": "Novartis Investigative Site", "city": "Quebec", "zip": "G1R 3X5", "country": "Canada", "geoPoint": {"lat": 46.81228, "lon": -71.21454}}, {"facility": "Novartis Investigative Site", "city": "Amiens Cedex", "zip": "80054", "country": "France", "geoPoint": {"lat": 49.9, "lon": 2.3}}, {"facility": "Novartis Investigative Site", "city": "Clermont", "zip": "63003", "country": "France", "geoPoint": {"lat": 49.38333, "lon": 2.4}}, {"facility": "Novartis Investigative Site", "city": "Lille Cedex", "zip": "59037", "country": "France", "geoPoint": {"lat": 50.63297, "lon": 3.05858}}, {"facility": "Novartis Investigative Site", "city": "Marseille Cedex", "zip": "13385", "country": "France", "geoPoint": {"lat": 43.29551, "lon": 5.38958}}, {"facility": "Novartis Investigative Site", "city": "Montpellier Cedex 5", "zip": "34295", "country": "France", "geoPoint": {"lat": 43.61092, "lon": 3.87723}}, {"facility": "Novartis Investigative Site", "city": "Paris Cedex", "zip": "75651", "country": "France", "geoPoint": {"lat": 48.85341, "lon": 2.3488}}, {"facility": "Novartis Investigative site", "city": "Pessac Cedex", "zip": "33604", "country": "France", "geoPoint": {"lat": 44.81011, "lon": -0.64129}}, {"facility": "Novartis Investigative site", "city": "Rennes", "zip": "F-35043", "country": "France", "geoPoint": {"lat": 48.11198, "lon": -1.67429}}, {"facility": "Novartis Investigative Site", "city": "Roanne", "zip": "42328", "country": "France", "geoPoint": {"lat": 46.03333, "lon": 4.06667}}, {"facility": "Novartis Investigative Site", "city": "Bad Nauheim", "zip": "61231", "country": "Germany", "geoPoint": {"lat": 50.36463, "lon": 8.73859}}, {"facility": "Novartis Investigative Site", "city": "Beelitz-Heilstaetten", "zip": "14547", "country": "Germany"}, {"facility": "Novartis Investigative site", "city": "Berlin", "zip": "10713", "country": "Germany", "geoPoint": {"lat": 52.52437, "lon": 13.41053}}, {"facility": "Novartis Investigative Site", "city": "Berlin", "zip": "13353", "country": "Germany", "geoPoint": {"lat": 52.52437, "lon": 13.41053}}, {"facility": "Novartis Investigative Site", "city": "Bonn", "zip": "53105", "country": "Germany", "geoPoint": {"lat": 50.73438, "lon": 7.09549}}, {"facility": "Novartis Investigative Site", "city": "Dresden", "zip": "01307", "country": "Germany", "geoPoint": {"lat": 51.05089, "lon": 13.73832}}, {"facility": "Novartis Investigative Site", "city": "Goettingen", "zip": "37075", "country": "Germany"}, {"facility": "Novartis Investigative Site", "city": "Hamburg", "zip": "21075", "country": "Germany", "geoPoint": {"lat": 53.57532, "lon": 10.01534}}, {"facility": "Novartis Investigative Site", "city": "Kassel", "zip": "34128", "country": "Germany", "geoPoint": {"lat": 51.31667, "lon": 9.5}}, {"facility": "Novartis Investigative Site", "city": "Leipzig", "zip": "04103", "country": "Germany", "geoPoint": {"lat": 51.33962, "lon": 12.37129}}, {"facility": "Novartis Investigative Site", "city": "Leun-Biskirchen", "zip": "35638", "country": "Germany"}, {"facility": "Novartis Investigative Site", "city": "Luebben", "zip": "15907", "country": "Germany", "geoPoint": {"lat": 51.93814, "lon": 13.88826}}, {"facility": "Novartis Investigative Site", "city": "Mainz", "zip": "D-55131", "country": "Germany", "geoPoint": {"lat": 49.98419, "lon": 8.2791}}, {"facility": "Novartis Investigative Site", "city": "Marburg", "zip": "35032", "country": "Germany", "geoPoint": {"lat": 50.80904, "lon": 8.77069}}, {"facility": "Novartis Investigative Site", "city": "Muenchen", "zip": "80804", "country": "Germany", "geoPoint": {"lat": 51.60698, "lon": 13.31243}}, {"facility": "Novartis Investigative Site", "city": "Munchen", "zip": "81675", "country": "Germany", "geoPoint": {"lat": 48.13743, "lon": 11.57549}}, {"facility": "Novartis Investigative Site", "city": "Nuernberg", "zip": "90402", "country": "Germany", "geoPoint": {"lat": 49.45421, "lon": 11.07752}}, {"facility": "Novartis Investigative site", "city": "Ulm", "zip": "89073", "country": "Germany", "geoPoint": {"lat": 48.39841, "lon": 9.99155}}, {"facility": "Novartis Investigative Site", "city": "Ulm", "zip": "89081", "country": "Germany", "geoPoint": {"lat": 48.39841, "lon": 9.99155}}, {"facility": "Novartis Investigative Site", "city": "Wolfach", "zip": "77709", "country": "Germany", "geoPoint": {"lat": 48.29319, "lon": 8.2158}}, {"facility": "Novartis Investigative Site", "city": "Bari", "state": "BA", "zip": "70121", "country": "Italy", "geoPoint": {"lat": 41.11148, "lon": 16.8554}}, {"facility": "Novartis Investigative Site", "city": "Bologna", "state": "BO", "zip": "40138", "country": "Italy", "geoPoint": {"lat": 44.49381, "lon": 11.33875}}, {"facility": "Novartis Investigative Site", "city": "Brescia", "state": "BS", "zip": "25123", "country": "Italy", "geoPoint": {"lat": 45.53558, "lon": 10.21472}}, {"facility": "Novartis Investigative Site", "city": "Foggia", "state": "FG", "zip": "71100", "country": "Italy", "geoPoint": {"lat": 41.45845, "lon": 15.55188}}, {"facility": "Novartis Investigative Site", "city": "Pozzilli", "state": "IS", "zip": "86077", "country": "Italy", "geoPoint": {"lat": 41.51142, "lon": 14.06252}}, {"facility": "Novartis Investigative Site", "city": "Lido di Camaiore", "state": "LU", "zip": "55041", "country": "Italy", "geoPoint": {"lat": 43.90012, "lon": 10.2269}}, {"facility": "Novartis Investigative Site", "city": "Milano", "state": "MI", "zip": "20100", "country": "Italy", "geoPoint": {"lat": 45.46427, "lon": 9.18951}}, {"facility": "Novartis Investigative Site", "city": "Roma", "state": "RM", "zip": "00133", "country": "Italy", "geoPoint": {"lat": 41.89193, "lon": 12.51133}}, {"facility": "Novartis Investigative Site", "city": "Roma", "state": "RM", "zip": "00163", "country": "Italy", "geoPoint": {"lat": 41.89193, "lon": 12.51133}}, {"facility": "Novartis Investigative Site", "city": "Roma", "state": "RM", "zip": "00179", "country": "Italy", "geoPoint": {"lat": 41.89193, "lon": 12.51133}}, {"facility": "Novartis Investigative Site", "city": "Roma", "state": "RM", "zip": "00185", "country": "Italy", "geoPoint": {"lat": 41.89193, "lon": 12.51133}}, {"facility": "Novartis Investigative Site", "city": "Trieste", "state": "TS", "zip": "34149", "country": "Italy", "geoPoint": {"lat": 45.64953, "lon": 13.77679}}, {"facility": "Novartis Investigative Site", "city": "Arcugnano", "state": "VI", "zip": "36057", "country": "Italy", "geoPoint": {"lat": 45.49579, "lon": 11.5477}}, {"facility": "Novartis Investigative site", "city": "Cassino", "zip": "03043", "country": "Italy", "geoPoint": {"lat": 41.48581, "lon": 13.82835}}, {"facility": "Novartis Investigative Site", "city": "Napoli", "zip": "80131", "country": "Italy", "geoPoint": {"lat": 40.85216, "lon": 14.26811}}, {"facility": "Novartis Investigative Site", "city": "Napoli", "zip": "80138", "country": "Italy", "geoPoint": {"lat": 40.85216, "lon": 14.26811}}, {"facility": "Novartis Investigative Site", "city": "Zwolle", "state": "AB", "zip": "8025", "country": "Netherlands", "geoPoint": {"lat": 52.5125, "lon": 6.09444}}, {"facility": "Novartis Investigative Site", "city": "Blaricum", "state": "AN", "zip": "1261", "country": "Netherlands", "geoPoint": {"lat": 52.2725, "lon": 5.24167}}, {"facility": "Novartis Investigative Site", "city": "Maastricht", "state": "AZ", "zip": "6202", "country": "Netherlands", "geoPoint": {"lat": 50.84833, "lon": 5.68889}}, {"facility": "Novartis Investigative Site", "city": "Breda", "state": "CK", "zip": "4818", "country": "Netherlands", "geoPoint": {"lat": 51.58656, "lon": 4.77596}}, {"facility": "Novartis Investigative Site", "city": "Enschede", "state": "ER", "zip": "7513", "country": "Netherlands", "geoPoint": {"lat": 52.21833, "lon": 6.89583}}, {"facility": "Novartis Investigative Site", "city": "Tilburg", "state": "GC", "zip": "5022", "country": "Netherlands", "geoPoint": {"lat": 51.55551, "lon": 5.0913}}, {"facility": "Novartis Investigative Site", "city": "Groningen", "state": "GZ", "zip": "9713", "country": "Netherlands", "geoPoint": {"lat": 53.21917, "lon": 6.56667}}, {"facility": "Novartis Investigative Site", "city": "Hertogenbosch", "state": "JL", "zip": "5232", "country": "Netherlands", "geoPoint": {"lat": 51.27, "lon": 5.59167}}, {"facility": "Novartis Investigative Site", "city": "Heerlen", "state": "PC", "zip": "6419", "country": "Netherlands", "geoPoint": {"lat": 50.88365, "lon": 5.98154}}, {"facility": "Novartis Investigative Site", "city": "Sittard", "zip": "6131 BK", "country": "Netherlands", "geoPoint": {"lat": 50.99833, "lon": 5.86944}}, {"facility": "Novartis Investigative Site", "city": "Barcelona", "zip": "08014", "country": "Spain", "geoPoint": {"lat": 41.38879, "lon": 2.15899}}, {"facility": "Novartis Investigative Site", "city": "Barcelona", "zip": "08028", "country": "Spain", "geoPoint": {"lat": 41.38879, "lon": 2.15899}}, {"facility": "Novartis Investigative Site", "city": "Barcelona", "zip": "08035", "country": "Spain", "geoPoint": {"lat": 41.38879, "lon": 2.15899}}, {"facility": "Novartis Investigative Site", "city": "Barcelona", "zip": "08190", "country": "Spain", "geoPoint": {"lat": 41.38879, "lon": 2.15899}}, {"facility": "Novartis Investigative Site", "city": "Madrid", "zip": "28034", "country": "Spain", "geoPoint": {"lat": 40.4165, "lon": -3.70256}}, {"facility": "Novartis Investigative Site", "city": "Adana", "zip": "01330", "country": "Turkey", "geoPoint": {"lat": 37.00167, "lon": 35.32889}}, {"facility": "Novartis Investigative Site", "city": "Antalya", "zip": "07059", "country": "Turkey", "geoPoint": {"lat": 36.90812, "lon": 30.69556}}, {"facility": "Novartis Investigative Site", "city": "Istanbul", "zip": "34093", "country": "Turkey", "geoPoint": {"lat": 41.01384, "lon": 28.94966}}, {"facility": "Novartis Investigative Site", "city": "Izmir", "zip": "35340", "country": "Turkey", "geoPoint": {"lat": 38.41273, "lon": 27.13838}}, {"facility": "Novartis Investigative Site", "city": "Kocaeli", "zip": "41380", "country": "Turkey", "geoPoint": {"lat": 39.62497, "lon": 27.51145}}, {"facility": "Novartis Investigative Site", "city": "Sihhiye/Ankara", "zip": "06100", "country": "Turkey"}, {"facility": "Novartis Investigative Site", "city": "Yenisehir/Izmir", "zip": "35120", "country": "Turkey"}, {"facility": "Novartis Investigative Site", "city": "Blackburn", "zip": "BB2 3HH", "country": "United Kingdom", "geoPoint": {"lat": 53.75, "lon": -2.48333}}, {"facility": "Novartis Investigative Site", "city": "Blandford Forum, Dorset", "country": "United Kingdom"}, {"facility": "Novartis Investigative Site", "city": "Christchurch, Dorset", "zip": "BH 232JX", "country": "United Kingdom"}, {"facility": "Novartis Investigative Site", "city": "Newcastle", "zip": "NE4 5PL", "country": "United Kingdom", "geoPoint": {"lat": 54.97328, "lon": -1.61396}}, {"facility": "Novartis Investigative Site", "city": "Oxford", "zip": "OX3 9DU", "country": "United Kingdom", "geoPoint": {"lat": 51.75222, "lon": -1.25596}}, {"facility": "Novartis Investigative Site", "city": "Peterborough", "zip": "PE3 6DA", "country": "United Kingdom", "geoPoint": {"lat": 52.57364, "lon": -0.24777}}, {"facility": "Novartis Investigative Site", "city": "Southampton", "zip": "SO30 3JB", "country": "United Kingdom", "geoPoint": {"lat": 50.90395, "lon": -1.40428}}, {"facility": "Novartis Investigative Site", "city": "Vale of Glamorgan", "zip": "CF64 2XX", "country": "United Kingdom"}]}}, "resultsSection": {"participantFlowModule": {"groups": [{"id": "FG000", "title": "Rivastigmine Capsule", "description": "Rivastigmine capsules starting at a total dose of 3 mg/day (1.5 mg twice daily orally) titrated up in 3 mg/day increments every 4 weeks to a final dose of 12 mg/day (6 mg twice daily orally0. The 12 mg/day dose or the highest dose tolerated was maintained until week 76."}, {"id": "FG001", "title": "Rivastigmine Patch", "description": "Rivastigmine patch once a day in the morning, worn for 24 hours, starting at 5 cm\\^2 (delivering 4.6 mg rivastigmine over a 24 hour period) for 4 weeks then titrated up to 10 cm\\^2 daily (delivering 9.5 mg rivastigmine over a 24 hour period). The 10 cm\\^2 patch or the highest well tolerated dose was maintained until week 76."}], "periods": [{"title": "Overall Study", "milestones": [{"type": "STARTED", "achievements": [{"groupId": "FG000", "numSubjects": "295"}, {"groupId": "FG001", "numSubjects": "288"}]}, {"type": "Safety Set: Received Study Drug", "achievements": [{"groupId": "FG000", "comment": "One randomized participant did not receive study drug and was not included in the Safety set.", "numSubjects": "294"}, {"groupId": "FG001", "numSubjects": "288"}]}, {"type": "COMPLETED", "achievements": [{"groupId": "FG000", "numSubjects": "184"}, {"groupId": "FG001", "numSubjects": "175"}]}, {"type": "NOT COMPLETED", "achievements": [{"groupId": "FG000", "numSubjects": "111"}, {"groupId": "FG001", "numSubjects": "113"}]}], "dropWithdraws": [{"type": "Adverse Event", "reasons": [{"groupId": "FG000", "numSubjects": "70"}, {"groupId": "FG001", "numSubjects": "60"}]}, {"type": "Unsatisfactory therapeutic effect", "reasons": [{"groupId": "FG000", "numSubjects": "4"}, {"groupId": "FG001", "numSubjects": "12"}]}, {"type": "Withdrawal by Subject", "reasons": [{"groupId": "FG000", "numSubjects": "18"}, {"groupId": "FG001", "numSubjects": "24"}]}, {"type": "Lost to Follow-up", "reasons": [{"groupId": "FG000", "numSubjects": "4"}, {"groupId": "FG001", "numSubjects": "1"}]}, {"type": "Administrative problems", "reasons": [{"groupId": "FG000", "numSubjects": "2"}, {"groupId": "FG001", "numSubjects": "4"}]}, {"type": "Death", "reasons": [{"groupId": "FG000", "numSubjects": "11"}, {"groupId": "FG001", "numSubjects": "11"}]}, {"type": "Protocol deviation", "reasons": [{"groupId": "FG000", "numSubjects": "2"}, {"groupId": "FG001", "numSubjects": "1"}]}]}]}, "baselineCharacteristicsModule": {"groups": [{"id": "BG000", "title": "Rivastigmine Capsule", "description": "Rivastigmine capsules starting at a total dose of 3 mg/day (1.5 mg twice daily orally) titrated up in 3 mg/day increments every 4 weeks to a final dose of 12 mg/day (6 mg twice daily orally0. The 12 mg/day dose or the highest dose tolerated was maintained until week 76."}, {"id": "BG001", "title": "Rivastigmine Patch", "description": "Rivastigmine patch once a day in the morning, worn for 24 hours, starting at 5 cm\\^2 (delivering 4.6 mg rivastigmine over a 24 hour period) for 4 weeks then titrated up to 10 cm\\^2 daily (delivering 9.5 mg rivastigmine over a 24 hour period). The 10 cm\\^2 patch or the highest well tolerated dose was maintained until week 76."}, {"id": "BG002", "title": "Total", "description": "Total of all reporting groups"}], "denoms": [{"units": "Participants", "counts": [{"groupId": "BG000", "value": "295"}, {"groupId": "BG001", "value": "288"}, {"groupId": "BG002", "value": "583"}]}], "measures": [{"title": "Age Continuous", "paramType": "MEAN", "dispersionType": "STANDARD_DEVIATION", "unitOfMeasure": "years", "classes": [{"categories": [{"measurements": [{"groupId": "BG000", "value": "72.35", "spread": "6.295"}, {"groupId": "BG001", "value": "72.26", "spread": "6.352"}, {"groupId": "BG002", "value": "72.31", "spread": "6.318"}]}]}]}, {"title": "Sex: Female, Male", "paramType": "COUNT_OF_PARTICIPANTS", "unitOfMeasure": "Participants", "classes": [{"categories": [{"title": "Female", "measurements": [{"groupId": "BG000", "value": "88"}, {"groupId": "BG001", "value": "97"}, {"groupId": "BG002", "value": "185"}]}, {"title": "Male", "measurements": [{"groupId": "BG000", "value": "207"}, {"groupId": "BG001", "value": "191"}, {"groupId": "BG002", "value": "398"}]}]}]}]}, "outcomeMeasuresModule": {"outcomeMeasures": [{"type": "PRIMARY", "title": "Percentage of Participants With Adverse Events (AEs) Due, or Potentially Due, to Worsening of Parkinson Disease (PD) Motor Symptoms (Tremor, Muscle Rigidity, Bradykinesia, Fall)", "description": "The AEs were summarized by presenting the number and percentage of patients having any of the 4 AEs or discontinued due to any of the 4 predefined AEs (tremor, muscle rigidity, bradykinesia, and fall)in each treatment group. The 95% CIs associated with the rates were also presented.", "populationDescription": "Safety Population consisted of all participants who received at least 1 dose of study drug and had 1 post-baseline safety measurement. Participants with observation at 76 weeks were included in this analysis.", "reportingStatus": "POSTED", "paramType": "NUMBER", "dispersionType": "95% Confidence Interval", "unitOfMeasure": "Percentage of participants", "timeFrame": "76 Weeks", "groups": [{"id": "OG000", "title": "Rivastigmine Capsule", "description": "Rivastigmine capsules starting at a total dose of 3 mg/day (1.5 mg twice daily orally) titrated up in 3 mg/day increments every 4 weeks to a final dose of 12 mg/day (6 mg twice daily orally0. The 12 mg/day dose or the highest dose tolerated was maintained until week 76."}, {"id": "OG001", "title": "Rivastigmine Patch", "description": "Rivastigmine patch once a day in the morning, worn for 24 hours, starting at 5 cm\\^2 (delivering 4.6 mg rivastigmine over a 24 hour period) for 4 weeks then titrated up to 10 cm\\^2 daily (delivering 9.5 mg rivastigmine over a 24 hour period). The 10 cm\\^2 patch or the highest well tolerated dose was maintained until week 76."}], "denoms": [{"units": "Participants", "counts": [{"groupId": "OG000", "value": "294"}, {"groupId": "OG001", "value": "288"}]}], "classes": [{"title": "Tremor", "categories": [{"measurements": [{"groupId": "OG000", "value": "24.5", "lowerLimit": "19.7", "upperLimit": "29.8"}, {"groupId": "OG001", "value": "9.7", "lowerLimit": "6.6", "upperLimit": "13.7"}]}]}, {"title": "Muscle Rigidity", "categories": [{"measurements": [{"groupId": "OG000", "value": "4.1", "lowerLimit": "2.1", "upperLimit": "7.0"}, {"groupId": "OG001", "value": "5.2", "lowerLimit": "2.9", "upperLimit": "8.4"}]}]}, {"title": "Bradykinesia", "categories": [{"measurements": [{"groupId": "OG000", "value": "5.1", "lowerLimit": "2.9", "upperLimit": "8.3"}, {"groupId": "OG001", "value": "6.3", "lowerLimit": "3.7", "upperLimit": "9.7"}]}]}, {"title": "Fall", "categories": [{"measurements": [{"groupId": "OG000", "value": "17.0", "lowerLimit": "12.9", "upperLimit": "21.8"}, {"groupId": "OG001", "value": "20.1", "lowerLimit": "15.7", "upperLimit": "25.2"}]}]}]}, {"type": "PRIMARY", "title": "Percentage of Participants With Study Drug Discontinuations Due to Predefined AEs That Are Due, or Potentially Due, to Worsening of PD Motor Symptoms (Tremor, Muscle Rigidity, Bradykinesia, Fall)", "description": "The discontinuations due to these AEs were summarized by presenting the number and percentage of patients having any of the 4 AEs or discontinued due to any of the 4 predefined AEs (tremor, muscle rigidity, bradykinesia, and fall) in each treatment group. The 95% CIs associated with these rates were also presented.", "populationDescription": "Safety Population consisted of all participants who received at least 1 dose of study drug and had 1 post-baseline safety measurement. Participants with observation at 76 weeks were included in this analysis.", "reportingStatus": "POSTED", "paramType": "NUMBER", "dispersionType": "95% Confidence Interval", "unitOfMeasure": "Percentage of participants", "timeFrame": "76 Weeks", "groups": [{"id": "OG000", "title": "Rivastigmine Capsule", "description": "Rivastigmine capsules starting at a total dose of 3 mg/day (1.5 mg twice daily orally) titrated up in 3 mg/day increments every 4 weeks to a final dose of 12 mg/day (6 mg twice daily orally0. The 12 mg/day dose or the highest dose tolerated was maintained until week 76."}, {"id": "OG001", "title": "Rivastigmine Patch", "description": "Rivastigmine patch once a day in the morning, worn for 24 hours, starting at 5 cm\\^2 (delivering 4.6 mg rivastigmine over a 24 hour period) for 4 weeks then titrated up to 10 cm\\^2 daily (delivering 9.5 mg rivastigmine over a 24 hour period). The 10 cm\\^2 patch or the highest well tolerated dose was maintained until week 76."}], "denoms": [{"units": "Participants", "counts": [{"groupId": "OG000", "value": "294"}, {"groupId": "OG001", "value": "288"}]}], "classes": [{"title": "Tremor", "categories": [{"measurements": [{"groupId": "OG000", "value": "2.4", "lowerLimit": "1.0", "upperLimit": "4.8"}, {"groupId": "OG001", "value": "0.7", "lowerLimit": "0.1", "upperLimit": "2.5"}]}]}, {"title": "Muscle Rigidity", "categories": [{"measurements": [{"groupId": "OG000", "value": "0.3", "lowerLimit": "0.0", "upperLimit": "1.9"}, {"groupId": "OG001", "value": "0.3", "lowerLimit": "0.0", "upperLimit": "1.9"}]}]}, {"title": "Bradykinesia", "categories": [{"measurements": [{"groupId": "OG000", "value": "1.0", "lowerLimit": "0.2", "upperLimit": "3.0"}, {"groupId": "OG001", "value": "0.0", "lowerLimit": "0.0", "upperLimit": "0.0"}]}]}, {"title": "Fall", "categories": [{"measurements": [{"groupId": "OG000", "value": "1.0", "lowerLimit": "0.2", "upperLimit": "3.0"}, {"groupId": "OG001", "value": "1.4", "lowerLimit": "0.4", "upperLimit": "3.5"}]}]}]}, {"type": "SECONDARY", "title": "Change in Unified Parkinson Disease Rating Scale (UPDRS) Part III Motor Examination Scores at Weeks 8, 16, 24, 52 and 76 (or Early Discontinuation) Compared to Baseline", "description": "Unified Parkinson Disease Rating Scale (UPDRS) is a 6 part Parkinson's disease specific rating scale that estimates clinical function taking into consideration both disability (functional deficits) and impairment (objective clinical signs). Part III records the motor examination in Items 18-31 rated on a scale of 0 to 4 with (0 being absent/ normal and 4 being the worse) for a total possible score of 0 to 56.", "populationDescription": "Safety population consisted of all participants who received at least 1 dose of study drug and had 1 post-baseline safety measurement. \"n\" in each of the categories is the number of participants at each time point with non-missing baseline and post-baseline measurements.", "reportingStatus": "POSTED", "paramType": "MEAN", "dispersionType": "Standard Deviation", "unitOfMeasure": "Score on a scale", "timeFrame": "From Baseline to Weeks 8, 16, 24, 52 and 76", "groups": [{"id": "OG000", "title": "Rivastigmine Capsule", "description": "Rivastigmine capsules starting at a total dose of 3 mg/day (1.5 mg twice daily orally) titrated up in 3 mg/day increments every 4 weeks to a final dose of 12 mg/day (6 mg twice daily orally0. The 12 mg/day dose or the highest dose tolerated was maintained until week 76."}, {"id": "OG001", "title": "Rivastigmine Patch", "description": "Rivastigmine patch once a day in the morning, worn for 24 hours, starting at 5 cm\\^2 (delivering 4.6 mg rivastigmine over a 24 hour period) for 4 weeks then titrated up to 10 cm\\^2 daily (delivering 9.5 mg rivastigmine over a 24 hour period). The 10 cm\\^2 patch or the highest well tolerated dose was maintained until week 76."}], "denoms": [{"units": "Participants", "counts": [{"groupId": "OG000", "value": "294"}, {"groupId": "OG001", "value": "288"}]}], "classes": [{"title": "Week 8 (n=276,277)", "categories": [{"measurements": [{"groupId": "OG000", "value": "-0.4", "spread": "6.99"}, {"groupId": "OG001", "value": "-0.9", "spread": "7.05"}]}]}, {"title": "Week 16 (n=254,252)", "categories": [{"measurements": [{"groupId": "OG000", "value": "0.5", "spread": "7.72"}, {"groupId": "OG001", "value": "-1.7", "spread": "7.44"}]}]}, {"title": "Week 24 (n=229,237)", "categories": [{"measurements": [{"groupId": "OG000", "value": "0.1", "spread": "8.19"}, {"groupId": "OG001", "value": "-1.4", "spread": "7.90"}]}]}, {"title": "Week 52 (n=203,206)", "categories": [{"measurements": [{"groupId": "OG000", "value": "0.7", "spread": "8.66"}, {"groupId": "OG001", "value": "1.6", "spread": "9.57"}]}]}, {"title": "Week 76 (n=183,175)", "categories": [{"measurements": [{"groupId": "OG000", "value": "2.1", "spread": "9.98"}, {"groupId": "OG001", "value": "2.1", "spread": "9.65"}]}]}]}, {"type": "SECONDARY", "title": "Change in Mattis Dementia Rating Scale (Mattis DRS-2) Scores at Weeks 16, 24, 52 and 76 Compared to Baseline", "description": "Mattis DRS-2 is a measure of cognitive status. The total score is the sum of 5 subscale scores: Attention \\[0-37\\], Initiation/Perservation \\[0-37\\] (performing alternating movements), Construction \\[0-6\\] (copying designs), Conceptualization \\[0-39\\] (similarities) and Memory \\[0-25\\] (sentence recall, design recognition)for a total possible score of 0-144. Higher score is reflective of better cognitive function, lower scores associated with more pronounced cognitive deficit. The change from baseline was calculated such that a positive number indicates an improvement.", "populationDescription": "Intent-to-treat population which included all patients who received at least 1 dose of study drug and had at least 1 pre- and post-baseline assessment for 1 of the efficacy variables. Last observation carried forward. (LOCF)", "reportingStatus": "POSTED", "paramType": "MEAN", "dispersionType": "Standard Deviation", "unitOfMeasure": "Score on a scale", "timeFrame": "From Baseline to Weeks 16, 24, 52 and 76", "groups": [{"id": "OG000", "title": "Rivastigmine Capsule", "description": "Rivastigmine capsules starting at a total dose of 3 mg/day (1.5 mg twice daily orally) titrated up in 3 mg/day increments every 4 weeks to a final dose of 12 mg/day (6 mg twice daily orally0. The 12 mg/day dose or the highest dose tolerated was maintained until week 76."}, {"id": "OG001", "title": "Rivastigmine Patch", "description": "Rivastigmine patch once a day in the morning, worn for 24 hours, starting at 5 cm\\^2 (delivering 4.6 mg rivastigmine over a 24 hour period) for 4 weeks then titrated up to 10 cm\\^2 daily (delivering 9.5 mg rivastigmine over a 24 hour period). The 10 cm\\^2 patch or the highest well tolerated dose was maintained until week 76."}], "denoms": [{"units": "Participants", "counts": [{"groupId": "OG000", "value": "273"}, {"groupId": "OG001", "value": "273"}]}], "classes": [{"title": "Week 16", "categories": [{"measurements": [{"groupId": "OG000", "value": "5.4", "spread": "11.98"}, {"groupId": "OG001", "value": "3.4", "spread": "11.53"}]}]}, {"title": "Week 24", "categories": [{"measurements": [{"groupId": "OG000", "value": "6.5", "spread": "12.98"}, {"groupId": "OG001", "value": "4.4", "spread": "12.85"}]}]}, {"title": "Week 52", "categories": [{"measurements": [{"groupId": "OG000", "value": "4.6", "spread": "13.62"}, {"groupId": "OG001", "value": "1.3", "spread": "15.07"}]}]}, {"title": "Week 76", "categories": [{"measurements": [{"groupId": "OG000", "value": "3.9", "spread": "16.82"}, {"groupId": "OG001", "value": "-1.4", "spread": "17.43"}]}]}]}, {"type": "SECONDARY", "title": "Change in Ten Point Clock Test (TPCT) Scores at Weeks 16, 24, 52 and 76 (or Early Discontinuation) Compared to Baseline", "description": "The Ten Point Clock Test measures executive functioning and visuospatial skills. Participants are asked to put numbers on the face of a clock and then make the clock read 10 minutes after 11. Points are awarded on a scale of 0 to 10 for spacing of specific numbers and the positions of the hands. The change from baseline was calculated such that a positive number indicates improvement.", "populationDescription": "Intent-to-treat population which included all patients who received at least 1 dose of study drug and had at least 1 pre- and post-baseline assessment for 1 of the efficacy variables. Last observation carried forward. (LOCF)", "reportingStatus": "POSTED", "paramType": "MEAN", "dispersionType": "Standard Deviation", "unitOfMeasure": "Score on a scale", "timeFrame": "From Baseline to Weeks 16, 24, 52 and 76", "groups": [{"id": "OG000", "title": "Rivastigmine Capsule", "description": "Rivastigmine capsules starting at a total dose of 3 mg/day (1.5 mg twice daily orally) titrated up in 3 mg/day increments every 4 weeks to a final dose of 12 mg/day (6 mg twice daily orally0. The 12 mg/day dose or the highest dose tolerated was maintained until week 76."}, {"id": "OG001", "title": "Rivastigmine Patch", "description": "Rivastigmine patch once a day in the morning, worn for 24 hours, starting at 5 cm\\^2 (delivering 4.6 mg rivastigmine over a 24 hour period) for 4 weeks then titrated up to 10 cm\\^2 daily (delivering 9.5 mg rivastigmine over a 24 hour period). The 10 cm\\^2 patch or the highest well tolerated dose was maintained until week 76."}], "denoms": [{"units": "Participants", "counts": [{"groupId": "OG000", "value": "273"}, {"groupId": "OG001", "value": "273"}]}], "classes": [{"title": "Week 16", "categories": [{"measurements": [{"groupId": "OG000", "value": "0.5", "spread": "2.75"}, {"groupId": "OG001", "value": "0.4", "spread": "3.02"}]}]}, {"title": "Week 24", "categories": [{"measurements": [{"groupId": "OG000", "value": "0.6", "spread": "3.18"}, {"groupId": "OG001", "value": "0.3", "spread": "3.40"}]}]}, {"title": "Week 52", "categories": [{"measurements": [{"groupId": "OG000", "value": "0.3", "spread": "2.97"}, {"groupId": "OG001", "value": "-0.1", "spread": "3.33"}]}]}, {"title": "Week 76", "categories": [{"measurements": [{"groupId": "OG000", "value": "0.0", "spread": "3.2"}, {"groupId": "OG001", "value": "-0.3", "spread": "3.57"}]}]}]}, {"type": "SECONDARY", "title": "Change in Neuropsychiatric Inventory-10 (NPI-10) Scores at Weeks 16, 24, 52 and 76 (or Early Discontinuation) Compared to Baseline", "description": "The parameter for analysis was the change from baseline of total score of 10 items on the NPI scale (NPI-10). The total score is a sum of the 10 domains, where the score for a domain is defined as the product of frequency (range: 1-4) and severity (range: 1-3). Each domain has a maximum score of 12 and all domains were equally weighted for total score(thus the range for the total score is 0 to 120 with 0 being completely healthy to 120 which is the worse score patient can get). The change from baseline was calculated such that a negative number indicates an improvement (symptom reduction).", "populationDescription": "Intent-to-treat population which included all patients who received at least 1 dose of study drug and had at least 1 pre- and post-baseline assessment for 1 of the efficacy variables. Last observation carried forward. (LOCF)", "reportingStatus": "POSTED", "paramType": "MEAN", "dispersionType": "Standard Deviation", "unitOfMeasure": "Score", "timeFrame": "At Week 16, 24, 52 and 76 (or early discontinuation)", "groups": [{"id": "OG000", "title": "Rivastigmine Capsule", "description": "Rivastigmine capsules starting at a total dose of 3 mg/day (1.5 mg twice daily orally) titrated up in 3 mg/day increments every 4 weeks to a final dose of 12 mg/day (6 mg twice daily orally0. The 12 mg/day dose or the highest dose tolerated was maintained until week 76."}, {"id": "OG001", "title": "Rivastigmine Patch", "description": "Rivastigmine patch once a day in the morning, worn for 24 hours, starting at 5 cm\\^2 (delivering 4.6 mg rivastigmine over a 24 hour period) for 4 weeks then titrated up to 10 cm\\^2 daily (delivering 9.5 mg rivastigmine over a 24 hour period). The 10 cm\\^2 patch or the highest well tolerated dose was maintained until week 76."}], "denoms": [{"units": "Participants", "counts": [{"groupId": "OG000", "value": "294"}, {"groupId": "OG001", "value": "288"}]}], "classes": [{"title": "Week 16", "categories": [{"measurements": [{"groupId": "OG000", "value": "-3.3", "spread": "9.75"}, {"groupId": "OG001", "value": "-0.5", "spread": "10.89"}]}]}, {"title": "Week 24", "categories": [{"measurements": [{"groupId": "OG000", "value": "-2.6", "spread": "10.31"}, {"groupId": "OG001", "value": "-1.0", "spread": "10.27"}]}]}, {"title": "Week 52", "categories": [{"measurements": [{"groupId": "OG000", "value": "-1.7", "spread": "11.40"}, {"groupId": "OG001", "value": "-0.3", "spread": "11.26"}]}]}, {"title": "Week 76", "categories": [{"measurements": [{"groupId": "OG000", "value": "-1.6", "spread": "11.22"}, {"groupId": "OG001", "value": "0.7", "spread": "12.62"}]}]}]}, {"type": "SECONDARY", "title": "Change in Alzheimer's Disease Cooperative Study-Activities Of Daily Living (ADCS-ADL) Scores at Weeks 16, 24, 52 and 76 (or Early Discontinuation) Compared to Baseline", "description": "The 23 item caregiver-based ADL scale of the dementia Alzheimer's disease Cooperative Study-Activities of Daily Living (ADCS-ADL) was used for analysis. This is a caregiver rated questionnaire of 23 items, with possible scores over a range of 0-78, where 78 denote full functioning with no impairment. The total score was derived by adding up the item scores of the 23 items.\n\nThe change from baseline was calculated such that a positive change indicates an improvement.", "populationDescription": "Intent-to-treat population which included all patients who received at least 1 dose of study drug and had at least 1 pre- and post-baseline assessment for 1 of the efficacy variables. Last observation carried forward. (LOCF).", "reportingStatus": "POSTED", "paramType": "MEAN", "dispersionType": "Standard Deviation", "unitOfMeasure": "Score", "timeFrame": "From Baseline to Week 16, 24, 52 and 76 (or early discontinuation)", "groups": [{"id": "OG000", "title": "Rivastigmine Capsule", "description": "Rivastigmine capsules starting at a total dose of 3 mg/day (1.5 mg twice daily orally) titrated up in 3 mg/day increments every 4 weeks to a final dose of 12 mg/day (6 mg twice daily orally0. The 12 mg/day dose or the highest dose tolerated was maintained until week 76."}, {"id": "OG001", "title": "Rivastigmine Patch", "description": "Rivastigmine patch once a day in the morning, worn for 24 hours, starting at 5 cm\\^2 (delivering 4.6 mg rivastigmine over a 24 hour period) for 4 weeks then titrated up to 10 cm\\^2 daily (delivering 9.5 mg rivastigmine over a 24 hour period). The 10 cm\\^2 patch or the highest well tolerated dose was maintained until week 76."}], "denoms": [{"units": "Participants", "counts": [{"groupId": "OG000", "value": "294"}, {"groupId": "OG001", "value": "288"}]}], "classes": [{"title": "Week 16 (n=273, 270)", "categories": [{"measurements": [{"groupId": "OG000", "value": "-0.4", "spread": "9.60"}, {"groupId": "OG001", "value": "-1.3", "spread": "10.38"}]}]}, {"title": "Week 24 (n=273,270)", "categories": [{"measurements": [{"groupId": "OG000", "value": "-0.6", "spread": "10.12"}, {"groupId": "OG001", "value": "-1.5", "spread": "10.91"}]}]}, {"title": "Week 52 (n=273,270)", "categories": [{"measurements": [{"groupId": "OG000", "value": "-2.2", "spread": "11.13"}, {"groupId": "OG001", "value": "-5.4", "spread": "13.57"}]}]}, {"title": "Week 76 (n=273, 270)", "categories": [{"measurements": [{"groupId": "OG000", "value": "-4.4", "spread": "13.13"}, {"groupId": "OG001", "value": "-7.8", "spread": "15.62"}]}]}]}, {"type": "SECONDARY", "title": "UPDRS Part V Stage (Modified Hoehn and Yahr Staging)at Baseline, Week 8,16,24,52 and 76 (or Early Discontinuation)", "description": "Unified Parkinson Disease Rating Scale (UPDRS) is a 6 part Parkinson's disease specific rating scale that estimates clinical function taking into consideration both disability (functional deficits) and impairment (objective clinical signs). UPDRS Part V is assessed by the modified Hoehn and Yahr Staging Scale. The scale ranges from 0 (no signs of disease) to 5 (wheelchair bound or bedridden unless aided).", "populationDescription": "The Safety population consisted of all patients who have received at least one dose of study drug and have had at least 1 safety measurement after baseline. n=indicates patients with observation during different timepoints.", "reportingStatus": "POSTED", "paramType": "MEAN", "dispersionType": "Standard Deviation", "unitOfMeasure": "Score", "timeFrame": "From Baseline to Week 8, 16, 24, 52 and 76 (or early discontinuation)", "groups": [{"id": "OG000", "title": "Rivastigmine Capsule", "description": "Rivastigmine capsules starting at a total dose of 3 mg/day (1.5 mg twice daily orally) titrated up in 3 mg/day increments every 4 weeks to a final dose of 12 mg/day (6 mg twice daily orally0. The 12 mg/day dose or the highest dose tolerated was maintained until week 76."}, {"id": "OG001", "title": "Rivastigmine Patch", "description": "Rivastigmine patch once a day in the morning, worn for 24 hours, starting at 5 cm\\^2 (delivering 4.6 mg rivastigmine over a 24 hour period) for 4 weeks then titrated up to 10 cm\\^2 daily (delivering 9.5 mg rivastigmine over a 24 hour period). The 10 cm\\^2 patch or the highest well tolerated dose was maintained until week 76."}], "denoms": [{"units": "Participants", "counts": [{"groupId": "OG000", "value": "294"}, {"groupId": "OG001", "value": "288"}]}], "classes": [{"title": "Baseline (n = 294,288)", "categories": [{"measurements": [{"groupId": "OG000", "value": "2.7", "spread": "0.65"}, {"groupId": "OG001", "value": "2.7", "spread": "0.70"}]}]}, {"title": "Week 8 (n=17,18)", "categories": [{"measurements": [{"groupId": "OG000", "value": "2.6", "spread": "0.70"}, {"groupId": "OG001", "value": "2.7", "spread": "1.05"}]}]}, {"title": "Week 16 (n=254,252)", "categories": [{"measurements": [{"groupId": "OG000", "value": "2.8", "spread": "0.68"}, {"groupId": "OG001", "value": "2.7", "spread": "0.67"}]}]}, {"title": "Week 24 (229, 236)", "categories": [{"measurements": [{"groupId": "OG000", "value": "2.7", "spread": "0.75"}, {"groupId": "OG001", "value": "2.7", "spread": "0.67"}]}]}, {"title": "Week 52 (n=202,208)", "categories": [{"measurements": [{"groupId": "OG000", "value": "2.8", "spread": "0.73"}, {"groupId": "OG001", "value": "2.8", "spread": "0.69"}]}]}, {"title": "Week 76 (n=184, 175)", "categories": [{"measurements": [{"groupId": "OG000", "value": "2.8", "spread": "0.74"}, {"groupId": "OG001", "value": "2.8", "spread": "0.79"}]}]}]}]}, "adverseEventsModule": {"frequencyThreshold": "5", "eventGroups": [{"id": "EG000", "title": "Exelon Capsule", "description": "Exelon Capsule", "seriousNumAffected": 87, "seriousNumAtRisk": 294, "otherNumAffected": 239, "otherNumAtRisk": 294}, {"id": "EG001", "title": "Exelon Patch", "description": "Exelon Patch", "seriousNumAffected": 83, "seriousNumAtRisk": 288, "otherNumAffected": 215, "otherNumAtRisk": 288}], "seriousEvents": [{"term": "Acute myocardial infarction", "organSystem": "Cardiac disorders", "sourceVocabulary": "MedDRA 13.1", "assessmentType": "SYSTEMATIC_ASSESSMENT", "stats": [{"groupId": "EG000", "numAffected": 0, "numAtRisk": 294}, {"groupId": "EG001", "numAffected": 1, "numAtRisk": 288}]}, {"term": "Angina pectoris", "organSystem": "Cardiac disorders", "sourceVocabulary": "MedDRA 13.1", "assessmentType": "SYSTEMATIC_ASSESSMENT", "stats": [{"groupId": "EG000", "numAffected": 1, "numAtRisk": 294}, {"groupId": "EG001", "numAffected": 2, "numAtRisk": 288}]}, {"term": "Arteriosclerosis coronary artery", "organSystem": "Cardiac disorders", "sourceVocabulary": "MedDRA 13.1", "assessmentType": "SYSTEMATIC_ASSESSMENT", "stats": [{"groupId": "EG000", "numAffected": 1, "numAtRisk": 294}, {"groupId": "EG001", "numAffected": 0, "numAtRisk": 288}]}, {"term": "Atrial fibrillation", "organSystem": "Cardiac disorders", "sourceVocabulary": "MedDRA 13.1", "assessmentType": "SYSTEMATIC_ASSESSMENT", "stats": [{"groupId": "EG000", "numAffected": 3, "numAtRisk": 294}, {"groupId": "EG001", "numAffected": 0, "numAtRisk": 288}]}, {"term": "Atrial flutter", "organSystem": "Cardiac disorders", "sourceVocabulary": "MedDRA 13.1", "assessmentType": "SYSTEMATIC_ASSESSMENT", "stats": [{"groupId": "EG000", "numAffected": 1, "numAtRisk": 294}, {"groupId": "EG001", "numAffected": 0, "numAtRisk": 288}]}, {"term": "Atrioventricular block second degree", "organSystem": "Cardiac disorders", "sourceVocabulary": "MedDRA 13.1", "assessmentType": "SYSTEMATIC_ASSESSMENT", "stats": [{"groupId": "EG000", "numAffected": 0, "numAtRisk": 294}, {"groupId": "EG001", "numAffected": 1, "numAtRisk": 288}]}, {"term": "Bradycardia", "organSystem": "Cardiac disorders", "sourceVocabulary": "MedDRA 13.1", "assessmentType": "SYSTEMATIC_ASSESSMENT", "stats": [{"groupId": "EG000", "numAffected": 1, "numAtRisk": 294}, {"groupId": "EG001", "numAffected": 0, "numAtRisk": 288}]}, {"term": "Cardiac arrest", "organSystem": "Cardiac disorders", "sourceVocabulary": "MedDRA 13.1", "assessmentType": "SYSTEMATIC_ASSESSMENT", "stats": [{"groupId": "EG000", "numAffected": 1, "numAtRisk": 294}, {"groupId": "EG001", "numAffected": 0, "numAtRisk": 288}]}, {"term": "Cardiac failure", "organSystem": "Cardiac disorders", "sourceVocabulary": "MedDRA 13.1", "assessmentType": "SYSTEMATIC_ASSESSMENT", "stats": [{"groupId": "EG000", "numAffected": 1, "numAtRisk": 294}, {"groupId": "EG001", "numAffected": 2, "numAtRisk": 288}]}, {"term": "Cardiac failure acute", "organSystem": "Cardiac disorders", "sourceVocabulary": "MedDRA 13.1", "assessmentType": "SYSTEMATIC_ASSESSMENT", "stats": [{"groupId": "EG000", "numAffected": 0, "numAtRisk": 294}, {"groupId": "EG001", "numAffected": 1, "numAtRisk": 288}]}, {"term": "Cardiac valve sclerosis", "organSystem": "Cardiac disorders", "sourceVocabulary": "MedDRA 13.1", "assessmentType": "SYSTEMATIC_ASSESSMENT", "stats": [{"groupId": "EG000", "numAffected": 1, "numAtRisk": 294}, {"groupId": "EG001", "numAffected": 0, "numAtRisk": 288}]}, {"term": "Cardio-respiratory arrest", "organSystem": "Cardiac disorders", "sourceVocabulary": "MedDRA 13.1", "assessmentType": "SYSTEMATIC_ASSESSMENT", "stats": [{"groupId": "EG000", "numAffected": 1, "numAtRisk": 294}, {"groupId": "EG001", "numAffected": 1, "numAtRisk": 288}]}, {"term": "Coronary artery disease", "organSystem": "Cardiac disorders", "sourceVocabulary": "MedDRA 13.1", "assessmentType": "SYSTEMATIC_ASSESSMENT", "stats": [{"groupId": "EG000", "numAffected": 1, "numAtRisk": 294}, {"groupId": "EG001", "numAffected": 1, "numAtRisk": 288}]}, {"term": "Myocardial infarction", "organSystem": "Cardiac disorders", "sourceVocabulary": "MedDRA 13.1", "assessmentType": "SYSTEMATIC_ASSESSMENT", "stats": [{"groupId": "EG000", "numAffected": 2, "numAtRisk": 294}, {"groupId": "EG001", "numAffected": 2, "numAtRisk": 288}]}, {"term": "Sinus arrhythmia", "organSystem": "Cardiac disorders", "sourceVocabulary": "MedDRA 13.1", "assessmentType": "SYSTEMATIC_ASSESSMENT", "stats": [{"groupId": "EG000", "numAffected": 1, "numAtRisk": 294}, {"groupId": "EG001", "numAffected": 0, "numAtRisk": 288}]}, {"term": "Abdominal distension", "organSystem": "Gastrointestinal disorders", "sourceVocabulary": "MedDRA 13.1", "assessmentType": "SYSTEMATIC_ASSESSMENT", "stats": [{"groupId": "EG000", "numAffected": 1, "numAtRisk": 294}, {"groupId": "EG001", "numAffected": 0, "numAtRisk": 288}]}, {"term": "Abdominal hernia", "organSystem": "Gastrointestinal disorders", "sourceVocabulary": "MedDRA 13.1", "assessmentType": "SYSTEMATIC_ASSESSMENT", "stats": [{"groupId": "EG000", "numAffected": 1, "numAtRisk": 294}, {"groupId": "EG001", "numAffected": 0, "numAtRisk": 288}]}, {"term": "Abdominal pain", "organSystem": "Gastrointestinal disorders", "sourceVocabulary": "MedDRA 13.1", "assessmentType": "SYSTEMATIC_ASSESSMENT", "stats": [{"groupId": "EG000", "numAffected": 1, "numAtRisk": 294}, {"groupId": "EG001", "numAffected": 0, "numAtRisk": 288}]}, {"term": "Abdominal pain upper", "organSystem": "Gastrointestinal disorders", "sourceVocabulary": "MedDRA 13.1", "assessmentType": "SYSTEMATIC_ASSESSMENT", "stats": [{"groupId": "EG000", "numAffected": 1, "numAtRisk": 294}, {"groupId": "EG001", "numAffected": 0, "numAtRisk": 288}]}, {"term": "Constipation", "organSystem": "Gastrointestinal disorders", "sourceVocabulary": "MedDRA 13.1", "assessmentType": "SYSTEMATIC_ASSESSMENT", "stats": [{"groupId": "EG000", "numAffected": 0, "numAtRisk": 294}, {"groupId": "EG001", "numAffected": 1, "numAtRisk": 288}]}, {"term": "Diarrhoea", "organSystem": "Gastrointestinal disorders", "sourceVocabulary": "MedDRA 13.1", "assessmentType": "SYSTEMATIC_ASSESSMENT", "stats": [{"groupId": "EG000", "numAffected": 1, "numAtRisk": 294}, {"groupId": "EG001", "numAffected": 3, "numAtRisk": 288}]}, {"term": "Duodenal ulcer haemorrhage", "organSystem": "Gastrointestinal disorders", "sourceVocabulary": "MedDRA 13.1", "assessmentType": "SYSTEMATIC_ASSESSMENT", "stats": [{"groupId": "EG000", "numAffected": 1, "numAtRisk": 294}, {"groupId": "EG001", "numAffected": 0, "numAtRisk": 288}]}, {"term": "Gastric ulcer haemorrhage", "organSystem": "Gastrointestinal disorders", "sourceVocabulary": "MedDRA 13.1", "assessmentType": "SYSTEMATIC_ASSESSMENT", "stats": [{"groupId": "EG000", "numAffected": 0, "numAtRisk": 294}, {"groupId": "EG001", "numAffected": 1, "numAtRisk": 288}]}, {"term": "Haemorrhoidal haemorrhage", "organSystem": "Gastrointestinal disorders", "sourceVocabulary": "MedDRA 13.1", "assessmentType": "SYSTEMATIC_ASSESSMENT", "stats": [{"groupId": "EG000", "numAffected": 0, "numAtRisk": 294}, {"groupId": "EG001", "numAffected": 1, "numAtRisk": 288}]}, {"term": "Haemorrhoids", "organSystem": "Gastrointestinal disorders", "sourceVocabulary": "MedDRA 13.1", "assessmentType": "SYSTEMATIC_ASSESSMENT", "stats": [{"groupId": "EG000", "numAffected": 0, "numAtRisk": 294}, {"groupId": "EG001", "numAffected": 1, "numAtRisk": 288}]}, {"term": "Ileus", "organSystem": "Gastrointestinal disorders", "sourceVocabulary": "MedDRA 13.1", "assessmentType": "SYSTEMATIC_ASSESSMENT", "stats": [{"groupId": "EG000", "numAffected": 1, "numAtRisk": 294}, {"groupId": "EG001", "numAffected": 1, "numAtRisk": 288}]}, {"term": "Inguinal hernia", "organSystem": "Gastrointestinal disorders", "sourceVocabulary": "MedDRA 13.1", "assessmentType": "SYSTEMATIC_ASSESSMENT", "stats": [{"groupId": "EG000", "numAffected": 1, "numAtRisk": 294}, {"groupId": "EG001", "numAffected": 1, "numAtRisk": 288}]}, {"term": "Inguinal hernia strangulated", "organSystem": "Gastrointestinal disorders", "sourceVocabulary": "MedDRA 13.1", "assessmentType": "SYSTEMATIC_ASSESSMENT", "stats": [{"groupId": "EG000", "numAffected": 1, "numAtRisk": 294}, {"groupId": "EG001", "numAffected": 0, "numAtRisk": 288}]}, {"term": "Intestinal obstruction", "organSystem": "Gastrointestinal disorders", "sourceVocabulary": "MedDRA 13.1", "assessmentType": "SYSTEMATIC_ASSESSMENT", "stats": [{"groupId": "EG000", "numAffected": 1, "numAtRisk": 294}, {"groupId": "EG001", "numAffected": 1, "numAtRisk": 288}]}, {"term": "Melaena", "organSystem": "Gastrointestinal disorders", "sourceVocabulary": "MedDRA 13.1", "assessmentType": "SYSTEMATIC_ASSESSMENT", "stats": [{"groupId": "EG000", "numAffected": 0, "numAtRisk": 294}, {"groupId": "EG001", "numAffected": 1, "numAtRisk": 288}]}, {"term": "Mesenteric occlusion", "organSystem": "Gastrointestinal disorders", "sourceVocabulary": "MedDRA 13.1", "assessmentType": "SYSTEMATIC_ASSESSMENT", "stats": [{"groupId": "EG000", "numAffected": 1, "numAtRisk": 294}, {"groupId": "EG001", "numAffected": 1, "numAtRisk": 288}]}, {"term": "Nausea", "organSystem": "Gastrointestinal disorders", "sourceVocabulary": "MedDRA 13.1", "assessmentType": "SYSTEMATIC_ASSESSMENT", "stats": [{"groupId": "EG000", "numAffected": 2, "numAtRisk": 294}, {"groupId": "EG001", "numAffected": 1, "numAtRisk": 288}]}, {"term": "Pancreatitis", "organSystem": "Gastrointestinal disorders", "sourceVocabulary": "MedDRA 13.1", "assessmentType": "SYSTEMATIC_ASSESSMENT", "stats": [{"groupId": "EG000", "numAffected": 1, "numAtRisk": 294}, {"groupId": "EG001", "numAffected": 0, "numAtRisk": 288}]}, {"term": "Pancreatitis acute", "organSystem": "Gastrointestinal disorders", "sourceVocabulary": "MedDRA 13.1", "assessmentType": "SYSTEMATIC_ASSESSMENT", "stats": [{"groupId": "EG000", "numAffected": 1, "numAtRisk": 294}, {"groupId": "EG001", "numAffected": 0, "numAtRisk": 288}]}, {"term": "Periodontitis", "organSystem": "Gastrointestinal disorders", "sourceVocabulary": "MedDRA 13.1", "assessmentType": "SYSTEMATIC_ASSESSMENT", "stats": [{"groupId": "EG000", "numAffected": 0, "numAtRisk": 294}, {"groupId": "EG001", "numAffected": 1, "numAtRisk": 288}]}, {"term": "Rectal haemorrhage", "organSystem": "Gastrointestinal disorders", "sourceVocabulary": "MedDRA 13.1", "assessmentType": "SYSTEMATIC_ASSESSMENT", "stats": [{"groupId": "EG000", "numAffected": 0, "numAtRisk": 294}, {"groupId": "EG001", "numAffected": 1, "numAtRisk": 288}]}, {"term": "Salivary hypersecretion", "organSystem": "Gastrointestinal disorders", "sourceVocabulary": "MedDRA 13.1", "assessmentType": "SYSTEMATIC_ASSESSMENT", "stats": [{"groupId": "EG000", "numAffected": 1, "numAtRisk": 294}, {"groupId": "EG001", "numAffected": 0, "numAtRisk": 288}]}, {"term": "Small intestinal obstruction", "organSystem": "Gastrointestinal disorders", "sourceVocabulary": "MedDRA 13.1", "assessmentType": "SYSTEMATIC_ASSESSMENT", "stats": [{"groupId": "EG000", "numAffected": 2, "numAtRisk": 294}, {"groupId": "EG001", "numAffected": 0, "numAtRisk": 288}]}, {"term": "Umbilical hernia", "organSystem": "Gastrointestinal disorders", "sourceVocabulary": "MedDRA 13.1", "assessmentType": "SYSTEMATIC_ASSESSMENT", "stats": [{"groupId": "EG000", "numAffected": 1, "numAtRisk": 294}, {"groupId": "EG001", "numAffected": 0, "numAtRisk": 288}]}, {"term": "Vomiting", "organSystem": "Gastrointestinal disorders", "sourceVocabulary": "MedDRA 13.1", "assessmentType": "SYSTEMATIC_ASSESSMENT", "stats": [{"groupId": "EG000", "numAffected": 0, "numAtRisk": 294}, {"groupId": "EG001", "numAffected": 1, "numAtRisk": 288}]}, {"term": "Asthenia", "organSystem": "General disorders", "sourceVocabulary": "MedDRA 13.1", "assessmentType": "SYSTEMATIC_ASSESSMENT", "stats": [{"groupId": "EG000", "numAffected": 1, "numAtRisk": 294}, {"groupId": "EG001", "numAffected": 0, "numAtRisk": 288}]}, {"term": "Complication of device insertion", "organSystem": "General disorders", "sourceVocabulary": "MedDRA 13.1", "assessmentType": "SYSTEMATIC_ASSESSMENT", "stats": [{"groupId": "EG000", "numAffected": 0, "numAtRisk": 294}, {"groupId": "EG001", "numAffected": 1, "numAtRisk": 288}]}, {"term": "Device failure", "organSystem": "General disorders", "sourceVocabulary": "MedDRA 13.1", "assessmentType": "SYSTEMATIC_ASSESSMENT", "stats": [{"groupId": "EG000", "numAffected": 1, "numAtRisk": 294}, {"groupId": "EG001", "numAffected": 0, "numAtRisk": 288}]}, {"term": "Fatigue", "organSystem": "General disorders", "sourceVocabulary": "MedDRA 13.1", "assessmentType": "SYSTEMATIC_ASSESSMENT", "stats": [{"groupId": "EG000", "numAffected": 2, "numAtRisk": 294}, {"groupId": "EG001", "numAffected": 0, "numAtRisk": 288}]}, {"term": "Gait disturbance", "organSystem": "General disorders", "sourceVocabulary": "MedDRA 13.1", "assessmentType": "SYSTEMATIC_ASSESSMENT", "stats": [{"groupId": "EG000", "numAffected": 0, "numAtRisk": 294}, {"groupId": "EG001", "numAffected": 1, "numAtRisk": 288}]}, {"term": "General physical health deterioration", "organSystem": "General disorders", "sourceVocabulary": "MedDRA 13.1", "assessmentType": "SYSTEMATIC_ASSESSMENT", "stats": [{"groupId": "EG000", "numAffected": 1, "numAtRisk": 294}, {"groupId": "EG001", "numAffected": 0, "numAtRisk": 288}]}, {"term": "Non-cardiac chest pain", "organSystem": "General disorders", "sourceVocabulary": "MedDRA 13.1", "assessmentType": "SYSTEMATIC_ASSESSMENT", "stats": [{"groupId": "EG000", "numAffected": 2, "numAtRisk": 294}, {"groupId": "EG001", "numAffected": 0, "numAtRisk": 288}]}, {"term": "Pyrexia", "organSystem": "General disorders", "sourceVocabulary": "MedDRA 13.1", "assessmentType": "SYSTEMATIC_ASSESSMENT", "stats": [{"groupId": "EG000", "numAffected": 2, "numAtRisk": 294}, {"groupId": "EG001", "numAffected": 3, "numAtRisk": 288}]}, {"term": "Cholelithiasis", "organSystem": "Hepatobiliary disorders", "sourceVocabulary": "MedDRA 13.1", "assessmentType": "SYSTEMATIC_ASSESSMENT", "stats": [{"groupId": "EG000", "numAffected": 2, "numAtRisk": 294}, {"groupId": "EG001", "numAffected": 1, "numAtRisk": 288}]}, {"term": "Bronchitis", "organSystem": "Infections and infestations", "sourceVocabulary": "MedDRA 13.1", "assessmentType": "SYSTEMATIC_ASSESSMENT", "stats": [{"groupId": "EG000", "numAffected": 1, "numAtRisk": 294}, {"groupId": "EG001", "numAffected": 0, "numAtRisk": 288}]}, {"term": "Bronchopneumonia", "organSystem": "Infections and infestations", "sourceVocabulary": "MedDRA 13.1", "assessmentType": "SYSTEMATIC_ASSESSMENT", "stats": [{"groupId": "EG000", "numAffected": 1, "numAtRisk": 294}, {"groupId": "EG001", "numAffected": 1, "numAtRisk": 288}]}, {"term": "Cellulitis", "organSystem": "Infections and infestations", "sourceVocabulary": "MedDRA 13.1", "assessmentType": "SYSTEMATIC_ASSESSMENT", "stats": [{"groupId": "EG000", "numAffected": 0, "numAtRisk": 294}, {"groupId": "EG001", "numAffected": 1, "numAtRisk": 288}]}, {"term": "Cystitis klebsiella", "organSystem": "Infections and infestations", "sourceVocabulary": "MedDRA 13.1", "assessmentType": "SYSTEMATIC_ASSESSMENT", "stats": [{"groupId": "EG000", "numAffected": 1, "numAtRisk": 294}, {"groupId": "EG001", "numAffected": 0, "numAtRisk": 288}]}, {"term": "Gastroenteritis viral", "organSystem": "Infections and infestations", "sourceVocabulary": "MedDRA 13.1", "assessmentType": "SYSTEMATIC_ASSESSMENT", "stats": [{"groupId": "EG000", "numAffected": 0, "numAtRisk": 294}, {"groupId": "EG001", "numAffected": 1, "numAtRisk": 288}]}, {"term": "Gastrointestinal infection", "organSystem": "Infections and infestations", "sourceVocabulary": "MedDRA 13.1", "assessmentType": "SYSTEMATIC_ASSESSMENT", "stats": [{"groupId": "EG000", "numAffected": 2, "numAtRisk": 294}, {"groupId": "EG001", "numAffected": 0, "numAtRisk": 288}]}, {"term": "Helicobacter infection", "organSystem": "Infections and infestations", "sourceVocabulary": "MedDRA 13.1", "assessmentType": "SYSTEMATIC_ASSESSMENT", "stats": [{"groupId": "EG000", "numAffected": 2, "numAtRisk": 294}, {"groupId": "EG001", "numAffected": 0, "numAtRisk": 288}]}, {"term": "Lung infection", "organSystem": "Infections and infestations", "sourceVocabulary": "MedDRA 13.1", "assessmentType": "SYSTEMATIC_ASSESSMENT", "stats": [{"groupId": "EG000", "numAffected": 1, "numAtRisk": 294}, {"groupId": "EG001", "numAffected": 0, "numAtRisk": 288}]}, {"term": "Pneumonia", "organSystem": "Infections and infestations", "sourceVocabulary": "MedDRA 13.1", "assessmentType": "SYSTEMATIC_ASSESSMENT", "stats": [{"groupId": "EG000", "numAffected": 9, "numAtRisk": 294}, {"groupId": "EG001", "numAffected": 7, "numAtRisk": 288}]}, {"term": "Pneumonia fungal", "organSystem": "Infections and infestations", "sourceVocabulary": "MedDRA 13.1", "assessmentType": "SYSTEMATIC_ASSESSMENT", "stats": [{"groupId": "EG000", "numAffected": 1, "numAtRisk": 294}, {"groupId": "EG001", "numAffected": 0, "numAtRisk": 288}]}, {"term": "Post procedural sepsis", "organSystem": "Infections and infestations", "sourceVocabulary": "MedDRA 13.1", "assessmentType": "SYSTEMATIC_ASSESSMENT", "stats": [{"groupId": "EG000", "numAffected": 0, "numAtRisk": 294}, {"groupId": "EG001", "numAffected": 1, "numAtRisk": 288}]}, {"term": "Rash pustular", "organSystem": "Infections and infestations", "sourceVocabulary": "MedDRA 13.1", "assessmentType": "SYSTEMATIC_ASSESSMENT", "stats": [{"groupId": "EG000", "numAffected": 1, "numAtRisk": 294}, {"groupId": "EG001", "numAffected": 0, "numAtRisk": 288}]}, {"term": "Respiratory tract infection", "organSystem": "Infections and infestations", "sourceVocabulary": "MedDRA 13.1", "assessmentType": "SYSTEMATIC_ASSESSMENT", "stats": [{"groupId": "EG000", "numAffected": 2, "numAtRisk": 294}, {"groupId": "EG001", "numAffected": 0, "numAtRisk": 288}]}, {"term": "Sepsis", "organSystem": "Infections and infestations", "sourceVocabulary": "MedDRA 13.1", "assessmentType": "SYSTEMATIC_ASSESSMENT", "stats": [{"groupId": "EG000", "numAffected": 0, "numAtRisk": 294}, {"groupId": "EG001", "numAffected": 1, "numAtRisk": 288}]}, {"term": "Tracheobronchitis", "organSystem": "Infections and infestations", "sourceVocabulary": "MedDRA 13.1", "assessmentType": "SYSTEMATIC_ASSESSMENT", "stats": [{"groupId": "EG000", "numAffected": 0, "numAtRisk": 294}, {"groupId": "EG001", "numAffected": 1, "numAtRisk": 288}]}, {"term": "Urinary tract infection", "organSystem": "Infections and infestations", "sourceVocabulary": "MedDRA 13.1", "assessmentType": "SYSTEMATIC_ASSESSMENT", "stats": [{"groupId": "EG000", "numAffected": 2, "numAtRisk": 294}, {"groupId": "EG001", "numAffected": 4, "numAtRisk": 288}]}, {"term": "Accidental overdose", "organSystem": "Injury, poisoning and procedural complications", "sourceVocabulary": "MedDRA 13.1", "assessmentType": "SYSTEMATIC_ASSESSMENT", "stats": [{"groupId": "EG000", "numAffected": 0, "numAtRisk": 294}, {"groupId": "EG001", "numAffected": 1, "numAtRisk": 288}]}, {"term": "Brain herniation", "organSystem": "Injury, poisoning and procedural complications", "sourceVocabulary": "MedDRA 13.1", "assessmentType": "SYSTEMATIC_ASSESSMENT", "stats": [{"groupId": "EG000", "numAffected": 1, "numAtRisk": 294}, {"groupId": "EG001", "numAffected": 0, "numAtRisk": 288}]}, {"term": "Concussion", "organSystem": "Injury, poisoning and procedural complications", "sourceVocabulary": "MedDRA 13.1", "assessmentType": "SYSTEMATIC_ASSESSMENT", "stats": [{"groupId": "EG000", "numAffected": 1, "numAtRisk": 294}, {"groupId": "EG001", "numAffected": 0, "numAtRisk": 288}]}, {"term": "Contusion", "organSystem": "Injury, poisoning and procedural complications", "sourceVocabulary": "MedDRA 13.1", "assessmentType": "SYSTEMATIC_ASSESSMENT", "stats": [{"groupId": "EG000", "numAffected": 2, "numAtRisk": 294}, {"groupId": "EG001", "numAffected": 0, "numAtRisk": 288}]}, {"term": "Fall", "organSystem": "Injury, poisoning and procedural complications", "sourceVocabulary": "MedDRA 13.1", "assessmentType": "SYSTEMATIC_ASSESSMENT", "stats": [{"groupId": "EG000", "numAffected": 2, "numAtRisk": 294}, {"groupId": "EG001", "numAffected": 9, "numAtRisk": 288}]}, {"term": "Femoral neck fracture", "organSystem": "Injury, poisoning and procedural complications", "sourceVocabulary": "MedDRA 13.1", "assessmentType": "SYSTEMATIC_ASSESSMENT", "stats": [{"groupId": "EG000", "numAffected": 2, "numAtRisk": 294}, {"groupId": "EG001", "numAffected": 1, "numAtRisk": 288}]}, {"term": "Femur fracture", "organSystem": "Injury, poisoning and procedural complications", "sourceVocabulary": "MedDRA 13.1", "assessmentType": "SYSTEMATIC_ASSESSMENT", "stats": [{"groupId": "EG000", "numAffected": 6, "numAtRisk": 294}, {"groupId": "EG001", "numAffected": 3, "numAtRisk": 288}]}, {"term": "Hand fracture", "organSystem": "Injury, poisoning and procedural complications", "sourceVocabulary": "MedDRA 13.1", "assessmentType": "SYSTEMATIC_ASSESSMENT", "stats": [{"groupId": "EG000", "numAffected": 1, "numAtRisk": 294}, {"groupId": "EG001", "numAffected": 0, "numAtRisk": 288}]}, {"term": "Head injury", "organSystem": "Injury, poisoning and procedural complications", "sourceVocabulary": "MedDRA 13.1", "assessmentType": "SYSTEMATIC_ASSESSMENT", "stats": [{"groupId": "EG000", "numAffected": 2, "numAtRisk": 294}, {"groupId": "EG001", "numAffected": 0, "numAtRisk": 288}]}, {"term": "Hip fracture", "organSystem": "Injury, poisoning and procedural complications", "sourceVocabulary": "MedDRA 13.1", "assessmentType": "SYSTEMATIC_ASSESSMENT", "stats": [{"groupId": "EG000", "numAffected": 3, "numAtRisk": 294}, {"groupId": "EG001", "numAffected": 2, "numAtRisk": 288}]}, {"term": "Humerus fracture", "organSystem": "Injury, poisoning and procedural complications", "sourceVocabulary": "MedDRA 13.1", "assessmentType": "SYSTEMATIC_ASSESSMENT", "stats": [{"groupId": "EG000", "numAffected": 0, "numAtRisk": 294}, {"groupId": "EG001", "numAffected": 2, "numAtRisk": 288}]}, {"term": "Lower limb fracture", "organSystem": "Injury, poisoning and procedural complications", "sourceVocabulary": "MedDRA 13.1", "assessmentType": "SYSTEMATIC_ASSESSMENT", "stats": [{"groupId": "EG000", "numAffected": 1, "numAtRisk": 294}, {"groupId": "EG001", "numAffected": 2, "numAtRisk": 288}]}, {"term": "Nerve root injury", "organSystem": "Injury, poisoning and procedural complications", "sourceVocabulary": "MedDRA 13.1", "assessmentType": "SYSTEMATIC_ASSESSMENT", "stats": [{"groupId": "EG000", "numAffected": 0, "numAtRisk": 294}, {"groupId": "EG001", "numAffected": 1, "numAtRisk": 288}]}, {"term": "Pelvic fracture", "organSystem": "Injury, poisoning and procedural complications", "sourceVocabulary": "MedDRA 13.1", "assessmentType": "SYSTEMATIC_ASSESSMENT", "stats": [{"groupId": "EG000", "numAffected": 0, "numAtRisk": 294}, {"groupId": "EG001", "numAffected": 1, "numAtRisk": 288}]}, {"term": "Post-traumatic pain", "organSystem": "Injury, poisoning and procedural complications", "sourceVocabulary": "MedDRA 13.1", "assessmentType": "SYSTEMATIC_ASSESSMENT", "stats": [{"groupId": "EG000", "numAffected": 1, "numAtRisk": 294}, {"groupId": "EG001", "numAffected": 0, "numAtRisk": 288}]}, {"term": "Rib fracture", "organSystem": "Injury, poisoning and procedural complications", "sourceVocabulary": "MedDRA 13.1", "assessmentType": "SYSTEMATIC_ASSESSMENT", "stats": [{"groupId": "EG000", "numAffected": 1, "numAtRisk": 294}, {"groupId": "EG001", "numAffected": 2, "numAtRisk": 288}]}, {"term": "Scapula fracture", "organSystem": "Injury, poisoning and procedural complications", "sourceVocabulary": "MedDRA 13.1", "assessmentType": "SYSTEMATIC_ASSESSMENT", "stats": [{"groupId": "EG000", "numAffected": 1, "numAtRisk": 294}, {"groupId": "EG001", "numAffected": 0, "numAtRisk": 288}]}, {"term": "Skin laceration", "organSystem": "Injury, poisoning and procedural complications", "sourceVocabulary": "MedDRA 13.1", "assessmentType": "SYSTEMATIC_ASSESSMENT", "stats": [{"groupId": "EG000", "numAffected": 1, "numAtRisk": 294}, {"groupId": "EG001", "numAffected": 0, "numAtRisk": 288}]}, {"term": "Spinal compression fracture", "organSystem": "Injury, poisoning and procedural complications", "sourceVocabulary": "MedDRA 13.1", "assessmentType": "SYSTEMATIC_ASSESSMENT", "stats": [{"groupId": "EG000", "numAffected": 1, "numAtRisk": 294}, {"groupId": "EG001", "numAffected": 0, "numAtRisk": 288}]}, {"term": "Spinal fracture", "organSystem": "Injury, poisoning and procedural complications", "sourceVocabulary": "MedDRA 13.1", "assessmentType": "SYSTEMATIC_ASSESSMENT", "stats": [{"groupId": "EG000", "numAffected": 1, "numAtRisk": 294}, {"groupId": "EG001", "numAffected": 0, "numAtRisk": 288}]}, {"term": "Upper limb fracture", "organSystem": "Injury, poisoning and procedural complications", "sourceVocabulary": "MedDRA 13.1", "assessmentType": "SYSTEMATIC_ASSESSMENT", "stats": [{"groupId": "EG000", "numAffected": 1, "numAtRisk": 294}, {"groupId": "EG001", "numAffected": 0, "numAtRisk": 288}]}, {"term": "Wrist fracture", "organSystem": "Injury, poisoning and procedural complications", "sourceVocabulary": "MedDRA 13.1", "assessmentType": "SYSTEMATIC_ASSESSMENT", "stats": [{"groupId": "EG000", "numAffected": 1, "numAtRisk": 294}, {"groupId": "EG001", "numAffected": 0, "numAtRisk": 288}]}, {"term": "Weight decreased", "organSystem": "Investigations", "sourceVocabulary": "MedDRA 13.1", "assessmentType": "SYSTEMATIC_ASSESSMENT", "stats": [{"groupId": "EG000", "numAffected": 0, "numAtRisk": 294}, {"groupId": "EG001", "numAffected": 1, "numAtRisk": 288}]}, {"term": "Decreased appetite", "organSystem": "Metabolism and nutrition disorders", "sourceVocabulary": "MedDRA 13.1", "assessmentType": "SYSTEMATIC_ASSESSMENT", "stats": [{"groupId": "EG000", "numAffected": 0, "numAtRisk": 294}, {"groupId": "EG001", "numAffected": 1, "numAtRisk": 288}]}, {"term": "Dehydration", "organSystem": "Metabolism and nutrition disorders", "sourceVocabulary": "MedDRA 13.1", "assessmentType": "SYSTEMATIC_ASSESSMENT", "stats": [{"groupId": "EG000", "numAffected": 3, "numAtRisk": 294}, {"groupId": "EG001", "numAffected": 4, "numAtRisk": 288}]}, {"term": "Hypokalaemia", "organSystem": "Metabolism and nutrition disorders", "sourceVocabulary": "MedDRA 13.1", "assessmentType": "SYSTEMATIC_ASSESSMENT", "stats": [{"groupId": "EG000", "numAffected": 1, "numAtRisk": 294}, {"groupId": "EG001", "numAffected": 0, "numAtRisk": 288}]}, {"term": "Weight loss poor", "organSystem": "Metabolism and nutrition disorders", "sourceVocabulary": "MedDRA 13.1", "assessmentType": "SYSTEMATIC_ASSESSMENT", "stats": [{"groupId": "EG000", "numAffected": 0, "numAtRisk": 294}, {"groupId": "EG001", "numAffected": 1, "numAtRisk": 288}]}, {"term": "Arthralgia", "organSystem": "Musculoskeletal and connective tissue disorders", "sourceVocabulary": "MedDRA 13.1", "assessmentType": "SYSTEMATIC_ASSESSMENT", "stats": [{"groupId": "EG000", "numAffected": 0, "numAtRisk": 294}, {"groupId": "EG001", "numAffected": 1, "numAtRisk": 288}]}, {"term": "Back pain", "organSystem": "Musculoskeletal and connective tissue disorders", "sourceVocabulary": "MedDRA 13.1", "assessmentType": "SYSTEMATIC_ASSESSMENT", "stats": [{"groupId": "EG000", "numAffected": 2, "numAtRisk": 294}, {"groupId": "EG001", "numAffected": 0, "numAtRisk": 288}]}, {"term": "Bursitis", "organSystem": "Musculoskeletal and connective tissue disorders", "sourceVocabulary": "MedDRA 13.1", "assessmentType": "SYSTEMATIC_ASSESSMENT", "stats": [{"groupId": "EG000", "numAffected": 1, "numAtRisk": 294}, {"groupId": "EG001", "numAffected": 0, "numAtRisk": 288}]}, {"term": "Mobility decreased", "organSystem": "Musculoskeletal and connective tissue disorders", "sourceVocabulary": "MedDRA 13.1", "assessmentType": "SYSTEMATIC_ASSESSMENT", "stats": [{"groupId": "EG000", "numAffected": 0, "numAtRisk": 294}, {"groupId": "EG001", "numAffected": 1, "numAtRisk": 288}]}, {"term": "Musculoskeletal discomfort", "organSystem": "Musculoskeletal and connective tissue disorders", "sourceVocabulary": "MedDRA 13.1", "assessmentType": "SYSTEMATIC_ASSESSMENT", "stats": [{"groupId": "EG000", "numAffected": 0, "numAtRisk": 294}, {"groupId": "EG001", "numAffected": 1, "numAtRisk": 288}]}, {"term": "Pathological fracture", "organSystem": "Musculoskeletal and connective tissue disorders", "sourceVocabulary": "MedDRA 13.1", "assessmentType": "SYSTEMATIC_ASSESSMENT", "stats": [{"groupId": "EG000", "numAffected": 1, "numAtRisk": 294}, {"groupId": "EG001", "numAffected": 0, "numAtRisk": 288}]}, {"term": "Spinal osteoarthritis", "organSystem": "Musculoskeletal and connective tissue disorders", "sourceVocabulary": "MedDRA 13.1", "assessmentType": "SYSTEMATIC_ASSESSMENT", "stats": [{"groupId": "EG000", "numAffected": 0, "numAtRisk": 294}, {"groupId": "EG001", "numAffected": 1, "numAtRisk": 288}]}, {"term": "Synovitis", "organSystem": "Musculoskeletal and connective tissue disorders", "sourceVocabulary": "MedDRA 13.1", "assessmentType": "SYSTEMATIC_ASSESSMENT", "stats": [{"groupId": "EG000", "numAffected": 1, "numAtRisk": 294}, {"groupId": "EG001", "numAffected": 0, "numAtRisk": 288}]}, {"term": "Bladder cancer", "organSystem": "Neoplasms benign, malignant and unspecified (incl cysts and polyps)", "sourceVocabulary": "MedDRA 13.1", "assessmentType": "SYSTEMATIC_ASSESSMENT", "stats": [{"groupId": "EG000", "numAffected": 1, "numAtRisk": 294}, {"groupId": "EG001", "numAffected": 0, "numAtRisk": 288}]}, {"term": "Breast cancer", "organSystem": "Neoplasms benign, malignant and unspecified (incl cysts and polyps)", "sourceVocabulary": "MedDRA 13.1", "assessmentType": "SYSTEMATIC_ASSESSMENT", "stats": [{"groupId": "EG000", "numAffected": 0, "numAtRisk": 294}, {"groupId": "EG001", "numAffected": 1, "numAtRisk": 288}]}, {"term": "Malignant melanoma", "organSystem": "Neoplasms benign, malignant and unspecified (incl cysts and polyps)", "sourceVocabulary": "MedDRA 13.1", "assessmentType": "SYSTEMATIC_ASSESSMENT", "stats": [{"groupId": "EG000", "numAffected": 1, "numAtRisk": 294}, {"groupId": "EG001", "numAffected": 0, "numAtRisk": 288}]}, {"term": "Meningioma benign", "organSystem": "Neoplasms benign, malignant and unspecified (incl cysts and polyps)", "sourceVocabulary": "MedDRA 13.1", "assessmentType": "SYSTEMATIC_ASSESSMENT", "stats": [{"groupId": "EG000", "numAffected": 0, "numAtRisk": 294}, {"groupId": "EG001", "numAffected": 1, "numAtRisk": 288}]}, {"term": "Prostate cancer", "organSystem": "Neoplasms benign, malignant and unspecified (incl cysts and polyps)", "sourceVocabulary": "MedDRA 13.1", "assessmentType": "SYSTEMATIC_ASSESSMENT", "stats": [{"groupId": "EG000", "numAffected": 1, "numAtRisk": 294}, {"groupId": "EG001", "numAffected": 1, "numAtRisk": 288}]}, {"term": "Rectosigmoid cancer", "organSystem": "Neoplasms benign, malignant and unspecified (incl cysts and polyps)", "sourceVocabulary": "MedDRA 13.1", "assessmentType": "SYSTEMATIC_ASSESSMENT", "stats": [{"groupId": "EG000", "numAffected": 0, "numAtRisk": 294}, {"groupId": "EG001", "numAffected": 1, "numAtRisk": 288}]}, {"term": "Waldenstrom's macroglobulinaemia", "organSystem": "Neoplasms benign, malignant and unspecified (incl cysts and polyps)", "sourceVocabulary": "MedDRA 13.1", "assessmentType": "SYSTEMATIC_ASSESSMENT", "stats": [{"groupId": "EG000", "numAffected": 0, "numAtRisk": 294}, {"groupId": "EG001", "numAffected": 1, "numAtRisk": 288}]}, {"term": "Akinesia", "organSystem": "Nervous system disorders", "sourceVocabulary": "MedDRA 13.1", "assessmentType": "SYSTEMATIC_ASSESSMENT", "stats": [{"groupId": "EG000", "numAffected": 2, "numAtRisk": 294}, {"groupId": "EG001", "numAffected": 3, "numAtRisk": 288}]}, {"term": "Aphasia", "organSystem": "Nervous system disorders", "sourceVocabulary": "MedDRA 13.1", "assessmentType": "SYSTEMATIC_ASSESSMENT", "stats": [{"groupId": "EG000", "numAffected": 0, "numAtRisk": 294}, {"groupId": "EG001", "numAffected": 1, "numAtRisk": 288}]}, {"term": "Balance disorder", "organSystem": "Nervous system disorders", "sourceVocabulary": "MedDRA 13.1", "assessmentType": "SYSTEMATIC_ASSESSMENT", "stats": [{"groupId": "EG000", "numAffected": 1, "numAtRisk": 294}, {"groupId": "EG001", "numAffected": 0, "numAtRisk": 288}]}, {"term": "Basilar artery thrombosis", "organSystem": "Nervous system disorders", "sourceVocabulary": "MedDRA 13.1", "assessmentType": "SYSTEMATIC_ASSESSMENT", "stats": [{"groupId": "EG000", "numAffected": 0, "numAtRisk": 294}, {"groupId": "EG001", "numAffected": 1, "numAtRisk": 288}]}, {"term": "Bradykinesia", "organSystem": "Nervous system disorders", "sourceVocabulary": "MedDRA 13.1", "assessmentType": "SYSTEMATIC_ASSESSMENT", "stats": [{"groupId": "EG000", "numAffected": 2, "numAtRisk": 294}, {"groupId": "EG001", "numAffected": 3, "numAtRisk": 288}]}, {"term": "Cerebral infarction", "organSystem": "Nervous system disorders", "sourceVocabulary": "MedDRA 13.1", "assessmentType": "SYSTEMATIC_ASSESSMENT", "stats": [{"groupId": "EG000", "numAffected": 0, "numAtRisk": 294}, {"groupId": "EG001", "numAffected": 2, "numAtRisk": 288}]}, {"term": "Cerebrovascular accident", "organSystem": "Nervous system disorders", "sourceVocabulary": "MedDRA 13.1", "assessmentType": "SYSTEMATIC_ASSESSMENT", "stats": [{"groupId": "EG000", "numAffected": 1, "numAtRisk": 294}, {"groupId": "EG001", "numAffected": 0, "numAtRisk": 288}]}, {"term": "Cognitive disorder", "organSystem": "Nervous system disorders", "sourceVocabulary": "MedDRA 13.1", "assessmentType": "SYSTEMATIC_ASSESSMENT", "stats": [{"groupId": "EG000", "numAffected": 1, "numAtRisk": 294}, {"groupId": "EG001", "numAffected": 0, "numAtRisk": 288}]}, {"term": "Cogwheel rigidity", "organSystem": "Nervous system disorders", "sourceVocabulary": "MedDRA 13.1", "assessmentType": "SYSTEMATIC_ASSESSMENT", "stats": [{"groupId": "EG000", "numAffected": 4, "numAtRisk": 294}, {"groupId": "EG001", "numAffected": 2, "numAtRisk": 288}]}, {"term": "Coma", "organSystem": "Nervous system disorders", "sourceVocabulary": "MedDRA 13.1", "assessmentType": "SYSTEMATIC_ASSESSMENT", "stats": [{"groupId": "EG000", "numAffected": 0, "numAtRisk": 294}, {"groupId": "EG001", "numAffected": 1, "numAtRisk": 288}]}, {"term": "Convulsion", "organSystem": "Nervous system disorders", "sourceVocabulary": "MedDRA 13.1", "assessmentType": "SYSTEMATIC_ASSESSMENT", "stats": [{"groupId": "EG000", "numAffected": 0, "numAtRisk": 294}, {"groupId": "EG001", "numAffected": 1, "numAtRisk": 288}]}, {"term": "Dementia", "organSystem": "Nervous system disorders", "sourceVocabulary": "MedDRA 13.1", "assessmentType": "SYSTEMATIC_ASSESSMENT", "stats": [{"groupId": "EG000", "numAffected": 1, "numAtRisk": 294}, {"groupId": "EG001", "numAffected": 0, "numAtRisk": 288}]}, {"term": "Depressed level of consciousness", "organSystem": "Nervous system disorders", "sourceVocabulary": "MedDRA 13.1", "assessmentType": "SYSTEMATIC_ASSESSMENT", "stats": [{"groupId": "EG000", "numAffected": 1, "numAtRisk": 294}, {"groupId": "EG001", "numAffected": 0, "numAtRisk": 288}]}, {"term": "Dizziness", "organSystem": "Nervous system disorders", "sourceVocabulary": "MedDRA 13.1", "assessmentType": "SYSTEMATIC_ASSESSMENT", "stats": [{"groupId": "EG000", "numAffected": 1, "numAtRisk": 294}, {"groupId": "EG001", "numAffected": 3, "numAtRisk": 288}]}, {"term": "Dysarthria", "organSystem": "Nervous system disorders", "sourceVocabulary": "MedDRA 13.1", "assessmentType": "SYSTEMATIC_ASSESSMENT", "stats": [{"groupId": "EG000", "numAffected": 0, "numAtRisk": 294}, {"groupId": "EG001", "numAffected": 1, "numAtRisk": 288}]}, {"term": "Dyskinesia", "organSystem": "Nervous system disorders", "sourceVocabulary": "MedDRA 13.1", "assessmentType": "SYSTEMATIC_ASSESSMENT", "stats": [{"groupId": "EG000", "numAffected": 0, "numAtRisk": 294}, {"groupId": "EG001", "numAffected": 3, "numAtRisk": 288}]}, {"term": "Epilepsy", "organSystem": "Nervous system disorders", "sourceVocabulary": "MedDRA 13.1", "assessmentType": "SYSTEMATIC_ASSESSMENT", "stats": [{"groupId": "EG000", "numAffected": 0, "numAtRisk": 294}, {"groupId": "EG001", "numAffected": 2, "numAtRisk": 288}]}, {"term": "Freezing phenomenon", "organSystem": "Nervous system disorders", "sourceVocabulary": "MedDRA 13.1", "assessmentType": "SYSTEMATIC_ASSESSMENT", "stats": [{"groupId": "EG000", "numAffected": 2, "numAtRisk": 294}, {"groupId": "EG001", "numAffected": 1, "numAtRisk": 288}]}, {"term": "Hypokinesia", "organSystem": "Nervous system disorders", "sourceVocabulary": "MedDRA 13.1", "assessmentType": "SYSTEMATIC_ASSESSMENT", "stats": [{"groupId": "EG000", "numAffected": 0, "numAtRisk": 294}, {"groupId": "EG001", "numAffected": 1, "numAtRisk": 288}]}, {"term": "Lacunar infarction", "organSystem": "Nervous system disorders", "sourceVocabulary": "MedDRA 13.1", "assessmentType": "SYSTEMATIC_ASSESSMENT", "stats": [{"groupId": "EG000", "numAffected": 0, "numAtRisk": 294}, {"groupId": "EG001", "numAffected": 1, "numAtRisk": 288}]}, {"term": "Loss of consciousness", "organSystem": "Nervous system disorders", "sourceVocabulary": "MedDRA 13.1", "assessmentType": "SYSTEMATIC_ASSESSMENT", "stats": [{"groupId": "EG000", "numAffected": 1, "numAtRisk": 294}, {"groupId": "EG001", "numAffected": 2, "numAtRisk": 288}]}, {"term": "Monoparesis", "organSystem": "Nervous system disorders", "sourceVocabulary": "MedDRA 13.1", "assessmentType": "SYSTEMATIC_ASSESSMENT", "stats": [{"groupId": "EG000", "numAffected": 0, "numAtRisk": 294}, {"groupId": "EG001", "numAffected": 1, "numAtRisk": 288}]}, {"term": "On and off phenomenon", "organSystem": "Nervous system disorders", "sourceVocabulary": "MedDRA 13.1", "assessmentType": "SYSTEMATIC_ASSESSMENT", "stats": [{"groupId": "EG000", "numAffected": 3, "numAtRisk": 294}, {"groupId": "EG001", "numAffected": 0, "numAtRisk": 288}]}, {"term": "Parkinson's disease", "organSystem": "Nervous system disorders", "sourceVocabulary": "MedDRA 13.1", "assessmentType": "SYSTEMATIC_ASSESSMENT", "stats": [{"groupId": "EG000", "numAffected": 0, "numAtRisk": 294}, {"groupId": "EG001", "numAffected": 1, "numAtRisk": 288}]}, {"term": "Parkinsonian gait", "organSystem": "Nervous system disorders", "sourceVocabulary": "MedDRA 13.1", "assessmentType": "SYSTEMATIC_ASSESSMENT", "stats": [{"groupId": "EG000", "numAffected": 3, "numAtRisk": 294}, {"groupId": "EG001", "numAffected": 2, "numAtRisk": 288}]}, {"term": "Parkinsonian rest tremor", "organSystem": "Nervous system disorders", "sourceVocabulary": "MedDRA 13.1", "assessmentType": "SYSTEMATIC_ASSESSMENT", "stats": [{"groupId": "EG000", "numAffected": 3, "numAtRisk": 294}, {"groupId": "EG001", "numAffected": 2, "numAtRisk": 288}]}, {"term": "Psychomotor hyperactivity", "organSystem": "Nervous system disorders", "sourceVocabulary": "MedDRA 13.1", "assessmentType": "SYSTEMATIC_ASSESSMENT", "stats": [{"groupId": "EG000", "numAffected": 2, "numAtRisk": 294}, {"groupId": "EG001", "numAffected": 0, "numAtRisk": 288}]}, {"term": "Psychomotor skills impaired", "organSystem": "Nervous system disorders", "sourceVocabulary": "MedDRA 13.1", "assessmentType": "SYSTEMATIC_ASSESSMENT", "stats": [{"groupId": "EG000", "numAffected": 1, "numAtRisk": 294}, {"groupId": "EG001", "numAffected": 0, "numAtRisk": 288}]}, {"term": "Quadriplegia", "organSystem": "Nervous system disorders", "sourceVocabulary": "MedDRA 13.1", "assessmentType": "SYSTEMATIC_ASSESSMENT", "stats": [{"groupId": "EG000", "numAffected": 1, "numAtRisk": 294}, {"groupId": "EG001", "numAffected": 0, "numAtRisk": 288}]}, {"term": "Somnolence", "organSystem": "Nervous system disorders", "sourceVocabulary": "MedDRA 13.1", "assessmentType": "SYSTEMATIC_ASSESSMENT", "stats": [{"groupId": "EG000", "numAffected": 1, "numAtRisk": 294}, {"groupId": "EG001", "numAffected": 1, "numAtRisk": 288}]}, {"term": "Syncope", "organSystem": "Nervous system disorders", "sourceVocabulary": "MedDRA 13.1", "assessmentType": "SYSTEMATIC_ASSESSMENT", "stats": [{"groupId": "EG000", "numAffected": 5, "numAtRisk": 294}, {"groupId": "EG001", "numAffected": 1, "numAtRisk": 288}]}, {"term": "Transient ischaemic attack", "organSystem": "Nervous system disorders", "sourceVocabulary": "MedDRA 13.1", "assessmentType": "SYSTEMATIC_ASSESSMENT", "stats": [{"groupId": "EG000", "numAffected": 1, "numAtRisk": 294}, {"groupId": "EG001", "numAffected": 4, "numAtRisk": 288}]}, {"term": "Agitation", "organSystem": "Psychiatric disorders", "sourceVocabulary": "MedDRA 13.1", "assessmentType": "SYSTEMATIC_ASSESSMENT", "stats": [{"groupId": "EG000", "numAffected": 0, "numAtRisk": 294}, {"groupId": "EG001", "numAffected": 2, "numAtRisk": 288}]}, {"term": "Anxiety", "organSystem": "Psychiatric disorders", "sourceVocabulary": "MedDRA 13.1", "assessmentType": "SYSTEMATIC_ASSESSMENT", "stats": [{"groupId": "EG000", "numAffected": 1, "numAtRisk": 294}, {"groupId": "EG001", "numAffected": 1, "numAtRisk": 288}]}, {"term": "Confusional state", "organSystem": "Psychiatric disorders", "sourceVocabulary": "MedDRA 13.1", "assessmentType": "SYSTEMATIC_ASSESSMENT", "stats": [{"groupId": "EG000", "numAffected": 3, "numAtRisk": 294}, {"groupId": "EG001", "numAffected": 6, "numAtRisk": 288}]}, {"term": "Delirium", "organSystem": "Psychiatric disorders", "sourceVocabulary": "MedDRA 13.1", "assessmentType": "SYSTEMATIC_ASSESSMENT", "stats": [{"groupId": "EG000", "numAffected": 0, "numAtRisk": 294}, {"groupId": "EG001", "numAffected": 2, "numAtRisk": 288}]}, {"term": "Delusion", "organSystem": "Psychiatric disorders", "sourceVocabulary": "MedDRA 13.1", "assessmentType": "SYSTEMATIC_ASSESSMENT", "stats": [{"groupId": "EG000", "numAffected": 1, "numAtRisk": 294}, {"groupId": "EG001", "numAffected": 1, "numAtRisk": 288}]}, {"term": "Depression", "organSystem": "Psychiatric disorders", "sourceVocabulary": "MedDRA 13.1", "assessmentType": "SYSTEMATIC_ASSESSMENT", "stats": [{"groupId": "EG000", "numAffected": 0, "numAtRisk": 294}, {"groupId": "EG001", "numAffected": 1, "numAtRisk": 288}]}, {"term": "Hallucination", "organSystem": "Psychiatric disorders", "sourceVocabulary": "MedDRA 13.1", "assessmentType": "SYSTEMATIC_ASSESSMENT", "stats": [{"groupId": "EG000", "numAffected": 1, "numAtRisk": 294}, {"groupId": "EG001", "numAffected": 4, "numAtRisk": 288}]}, {"term": "Hallucination, visual", "organSystem": "Psychiatric disorders", "sourceVocabulary": "MedDRA 13.1", "assessmentType": "SYSTEMATIC_ASSESSMENT", "stats": [{"groupId": "EG000", "numAffected": 3, "numAtRisk": 294}, {"groupId": "EG001", "numAffected": 3, "numAtRisk": 288}]}, {"term": "Insomnia", "organSystem": "Psychiatric disorders", "sourceVocabulary": "MedDRA 13.1", "assessmentType": "SYSTEMATIC_ASSESSMENT", "stats": [{"groupId": "EG000", "numAffected": 0, "numAtRisk": 294}, {"groupId": "EG001", "numAffected": 2, "numAtRisk": 288}]}, {"term": "Mental status changes", "organSystem": "Psychiatric disorders", "sourceVocabulary": "MedDRA 13.1", "assessmentType": "SYSTEMATIC_ASSESSMENT", "stats": [{"groupId": "EG000", "numAffected": 1, "numAtRisk": 294}, {"groupId": "EG001", "numAffected": 0, "numAtRisk": 288}]}, {"term": "Psychotic disorder", "organSystem": "Psychiatric disorders", "sourceVocabulary": "MedDRA 13.1", "assessmentType": "SYSTEMATIC_ASSESSMENT", "stats": [{"groupId": "EG000", "numAffected": 0, "numAtRisk": 294}, {"groupId": "EG001", "numAffected": 1, "numAtRisk": 288}]}, {"term": "Psychotic disorder due to a general medical condition", "organSystem": "Psychiatric disorders", "sourceVocabulary": "MedDRA 13.1", "assessmentType": "SYSTEMATIC_ASSESSMENT", "stats": [{"groupId": "EG000", "numAffected": 0, "numAtRisk": 294}, {"groupId": "EG001", "numAffected": 1, "numAtRisk": 288}]}, {"term": "Bladder trabeculation", "organSystem": "Renal and urinary disorders", "sourceVocabulary": "MedDRA 13.1", "assessmentType": "SYSTEMATIC_ASSESSMENT", "stats": [{"groupId": "EG000", "numAffected": 0, "numAtRisk": 294}, {"groupId": "EG001", "numAffected": 1, "numAtRisk": 288}]}, {"term": "Calculus bladder", "organSystem": "Renal and urinary disorders", "sourceVocabulary": "MedDRA 13.1", "assessmentType": "SYSTEMATIC_ASSESSMENT", "stats": [{"groupId": "EG000", "numAffected": 1, "numAtRisk": 294}, {"groupId": "EG001", "numAffected": 0, "numAtRisk": 288}]}, {"term": "Haematuria", "organSystem": "Renal and urinary disorders", "sourceVocabulary": "MedDRA 13.1", "assessmentType": "SYSTEMATIC_ASSESSMENT", "stats": [{"groupId": "EG000", "numAffected": 1, "numAtRisk": 294}, {"groupId": "EG001", "numAffected": 0, "numAtRisk": 288}]}, {"term": "Micturition urgency", "organSystem": "Renal and urinary disorders", "sourceVocabulary": "MedDRA 13.1", "assessmentType": "SYSTEMATIC_ASSESSMENT", "stats": [{"groupId": "EG000", "numAffected": 0, "numAtRisk": 294}, {"groupId": "EG001", "numAffected": 1, "numAtRisk": 288}]}, {"term": "Renal failure", "organSystem": "Renal and urinary disorders", "sourceVocabulary": "MedDRA 13.1", "assessmentType": "SYSTEMATIC_ASSESSMENT", "stats": [{"groupId": "EG000", "numAffected": 1, "numAtRisk": 294}, {"groupId": "EG001", "numAffected": 1, "numAtRisk": 288}]}, {"term": "Urinary bladder polyp", "organSystem": "Renal and urinary disorders", "sourceVocabulary": "MedDRA 13.1", "assessmentType": "SYSTEMATIC_ASSESSMENT", "stats": [{"groupId": "EG000", "numAffected": 1, "numAtRisk": 294}, {"groupId": "EG001", "numAffected": 0, "numAtRisk": 288}]}, {"term": "Urinary incontinence", "organSystem": "Renal and urinary disorders", "sourceVocabulary": "MedDRA 13.1", "assessmentType": "SYSTEMATIC_ASSESSMENT", "stats": [{"groupId": "EG000", "numAffected": 0, "numAtRisk": 294}, {"groupId": "EG001", "numAffected": 1, "numAtRisk": 288}]}, {"term": "Urinary retention", "organSystem": "Renal and urinary disorders", "sourceVocabulary": "MedDRA 13.1", "assessmentType": "SYSTEMATIC_ASSESSMENT", "stats": [{"groupId": "EG000", "numAffected": 2, "numAtRisk": 294}, {"groupId": "EG001", "numAffected": 0, "numAtRisk": 288}]}, {"term": "Urinary tract obstruction", "organSystem": "Renal and urinary disorders", "sourceVocabulary": "MedDRA 13.1", "assessmentType": "SYSTEMATIC_ASSESSMENT", "stats": [{"groupId": "EG000", "numAffected": 1, "numAtRisk": 294}, {"groupId": "EG001", "numAffected": 0, "numAtRisk": 288}]}, {"term": "Benign prostatic hyperplasia", "organSystem": "Reproductive system and breast disorders", "sourceVocabulary": "MedDRA 13.1", "assessmentType": "SYSTEMATIC_ASSESSMENT", "stats": [{"groupId": "EG000", "numAffected": 1, "numAtRisk": 294}, {"groupId": "EG001", "numAffected": 0, "numAtRisk": 288}]}, {"term": "Prostatic obstruction", "organSystem": "Reproductive system and breast disorders", "sourceVocabulary": "MedDRA 13.1", "assessmentType": "SYSTEMATIC_ASSESSMENT", "stats": [{"groupId": "EG000", "numAffected": 0, "numAtRisk": 294}, {"groupId": "EG001", "numAffected": 1, "numAtRisk": 288}]}, {"term": "Acute pulmonary oedema", "organSystem": "Respiratory, thoracic and mediastinal disorders", "sourceVocabulary": "MedDRA 13.1", "assessmentType": "SYSTEMATIC_ASSESSMENT", "stats": [{"groupId": "EG000", "numAffected": 1, "numAtRisk": 294}, {"groupId": "EG001", "numAffected": 0, "numAtRisk": 288}]}, {"term": "Brain hypoxia", "organSystem": "Respiratory, thoracic and mediastinal disorders", "sourceVocabulary": "MedDRA 13.1", "assessmentType": "SYSTEMATIC_ASSESSMENT", "stats": [{"groupId": "EG000", "numAffected": 1, "numAtRisk": 294}, {"groupId": "EG001", "numAffected": 1, "numAtRisk": 288}]}, {"term": "Dyspnoea", "organSystem": "Respiratory, thoracic and mediastinal disorders", "sourceVocabulary": "MedDRA 13.1", "assessmentType": "SYSTEMATIC_ASSESSMENT", "stats": [{"groupId": "EG000", "numAffected": 3, "numAtRisk": 294}, {"groupId": "EG001", "numAffected": 1, "numAtRisk": 288}]}, {"term": "Lung disorder", "organSystem": "Respiratory, thoracic and mediastinal disorders", "sourceVocabulary": "MedDRA 13.1", "assessmentType": "SYSTEMATIC_ASSESSMENT", "stats": [{"groupId": "EG000", "numAffected": 0, "numAtRisk": 294}, {"groupId": "EG001", "numAffected": 1, "numAtRisk": 288}]}, {"term": "Pleural effusion", "organSystem": "Respiratory, thoracic and mediastinal disorders", "sourceVocabulary": "MedDRA 13.1", "assessmentType": "SYSTEMATIC_ASSESSMENT", "stats": [{"groupId": "EG000", "numAffected": 1, "numAtRisk": 294}, {"groupId": "EG001", "numAffected": 0, "numAtRisk": 288}]}, {"term": "Pneumonia aspiration", "organSystem": "Respiratory, thoracic and mediastinal disorders", "sourceVocabulary": "MedDRA 13.1", "assessmentType": "SYSTEMATIC_ASSESSMENT", "stats": [{"groupId": "EG000", "numAffected": 0, "numAtRisk": 294}, {"groupId": "EG001", "numAffected": 1, "numAtRisk": 288}]}, {"term": "Productive cough", "organSystem": "Respiratory, thoracic and mediastinal disorders", "sourceVocabulary": "MedDRA 13.1", "assessmentType": "SYSTEMATIC_ASSESSMENT", "stats": [{"groupId": "EG000", "numAffected": 0, "numAtRisk": 294}, {"groupId": "EG001", "numAffected": 1, "numAtRisk": 288}]}, {"term": "Pulmonary embolism", "organSystem": "Respiratory, thoracic and mediastinal disorders", "sourceVocabulary": "MedDRA 13.1", "assessmentType": "SYSTEMATIC_ASSESSMENT", "stats": [{"groupId": "EG000", "numAffected": 4, "numAtRisk": 294}, {"groupId": "EG001", "numAffected": 1, "numAtRisk": 288}]}, {"term": "Pulmonary oedema", "organSystem": "Respiratory, thoracic and mediastinal disorders", "sourceVocabulary": "MedDRA 13.1", "assessmentType": "SYSTEMATIC_ASSESSMENT", "stats": [{"groupId": "EG000", "numAffected": 1, "numAtRisk": 294}, {"groupId": "EG001", "numAffected": 0, "numAtRisk": 288}]}, {"term": "Respiratory arrest", "organSystem": "Respiratory, thoracic and mediastinal disorders", "sourceVocabulary": "MedDRA 13.1", "assessmentType": "SYSTEMATIC_ASSESSMENT", "stats": [{"groupId": "EG000", "numAffected": 1, "numAtRisk": 294}, {"groupId": "EG001", "numAffected": 0, "numAtRisk": 288}]}, {"term": "Skin ulcer", "organSystem": "Skin and subcutaneous tissue disorders", "sourceVocabulary": "MedDRA 13.1", "assessmentType": "SYSTEMATIC_ASSESSMENT", "stats": [{"groupId": "EG000", "numAffected": 0, "numAtRisk": 294}, {"groupId": "EG001", "numAffected": 1, "numAtRisk": 288}]}, {"term": "Urticaria", "organSystem": "Skin and subcutaneous tissue disorders", "sourceVocabulary": "MedDRA 13.1", "assessmentType": "SYSTEMATIC_ASSESSMENT", "stats": [{"groupId": "EG000", "numAffected": 1, "numAtRisk": 294}, {"groupId": "EG001", "numAffected": 0, "numAtRisk": 288}]}, {"term": "Haematoma", "organSystem": "Vascular disorders", "sourceVocabulary": "MedDRA 13.1", "assessmentType": "SYSTEMATIC_ASSESSMENT", "stats": [{"groupId": "EG000", "numAffected": 0, "numAtRisk": 294}, {"groupId": "EG001", "numAffected": 1, "numAtRisk": 288}]}, {"term": "Hypertension", "organSystem": "Vascular disorders", "sourceVocabulary": "MedDRA 13.1", "assessmentType": "SYSTEMATIC_ASSESSMENT", "stats": [{"groupId": "EG000", "numAffected": 0, "numAtRisk": 294}, {"groupId": "EG001", "numAffected": 2, "numAtRisk": 288}]}, {"term": "Hypertensive crisis", "organSystem": "Vascular disorders", "sourceVocabulary": "MedDRA 13.1", "assessmentType": "SYSTEMATIC_ASSESSMENT", "stats": [{"groupId": "EG000", "numAffected": 1, "numAtRisk": 294}, {"groupId": "EG001", "numAffected": 1, "numAtRisk": 288}]}, {"term": "Hypotension", "organSystem": "Vascular disorders", "sourceVocabulary": "MedDRA 13.1", "assessmentType": "SYSTEMATIC_ASSESSMENT", "stats": [{"groupId": "EG000", "numAffected": 3, "numAtRisk": 294}, {"groupId": "EG001", "numAffected": 0, "numAtRisk": 288}]}, {"term": "Orthostatic hypotension", "organSystem": "Vascular disorders", "sourceVocabulary": "MedDRA 13.1", "assessmentType": "SYSTEMATIC_ASSESSMENT", "stats": [{"groupId": "EG000", "numAffected": 1, "numAtRisk": 294}, {"groupId": "EG001", "numAffected": 0, "numAtRisk": 288}]}, {"term": "Peripheral arterial occlusive disease", "organSystem": "Vascular disorders", "sourceVocabulary": "MedDRA 13.1", "assessmentType": "SYSTEMATIC_ASSESSMENT", "stats": [{"groupId": "EG000", "numAffected": 0, "numAtRisk": 294}, {"groupId": "EG001", "numAffected": 1, "numAtRisk": 288}]}, {"term": "Phlebitis", "organSystem": "Vascular disorders", "sourceVocabulary": "MedDRA 13.1", "assessmentType": "SYSTEMATIC_ASSESSMENT", "stats": [{"groupId": "EG000", "numAffected": 1, "numAtRisk": 294}, {"groupId": "EG001", "numAffected": 0, "numAtRisk": 288}]}], "otherEvents": [{"term": "Constipation", "organSystem": "Gastrointestinal disorders", "sourceVocabulary": "MedDRA 13.1", "assessmentType": "SYSTEMATIC_ASSESSMENT", "stats": [{"groupId": "EG000", "numAffected": 21, "numAtRisk": 294}, {"groupId": "EG001", "numAffected": 21, "numAtRisk": 288}]}, {"term": "Diarrhoea", "organSystem": "Gastrointestinal disorders", "sourceVocabulary": "MedDRA 13.1", "assessmentType": "SYSTEMATIC_ASSESSMENT", "stats": [{"groupId": "EG000", "numAffected": 27, "numAtRisk": 294}, {"groupId": "EG001", "numAffected": 14, "numAtRisk": 288}]}, {"term": "Nausea", "organSystem": "Gastrointestinal disorders", "sourceVocabulary": "MedDRA 13.1", "assessmentType": "SYSTEMATIC_ASSESSMENT", "stats": [{"groupId": "EG000", "numAffected": 117, "numAtRisk": 294}, {"groupId": "EG001", "numAffected": 23, "numAtRisk": 288}]}, {"term": "Vomiting", "organSystem": "Gastrointestinal disorders", "sourceVocabulary": "MedDRA 13.1", "assessmentType": "SYSTEMATIC_ASSESSMENT", "stats": [{"groupId": "EG000", "numAffected": 45, "numAtRisk": 294}, {"groupId": "EG001", "numAffected": 7, "numAtRisk": 288}]}, {"term": "Application site erythema", "organSystem": "General disorders", "sourceVocabulary": "MedDRA 13.1", "assessmentType": "SYSTEMATIC_ASSESSMENT", "stats": [{"groupId": "EG000", "numAffected": 0, "numAtRisk": 294}, {"groupId": "EG001", "numAffected": 40, "numAtRisk": 288}]}, {"term": "Fatigue", "organSystem": "General disorders", "sourceVocabulary": "MedDRA 13.1", "assessmentType": "SYSTEMATIC_ASSESSMENT", "stats": [{"groupId": "EG000", "numAffected": 19, "numAtRisk": 294}, {"groupId": "EG001", "numAffected": 13, "numAtRisk": 288}]}, {"term": "Urinary tract infection", "organSystem": "Infections and infestations", "sourceVocabulary": "MedDRA 13.1", "assessmentType": "SYSTEMATIC_ASSESSMENT", "stats": [{"groupId": "EG000", "numAffected": 17, "numAtRisk": 294}, {"groupId": "EG001", "numAffected": 21, "numAtRisk": 288}]}, {"term": "Fall", "organSystem": "Injury, poisoning and procedural complications", "sourceVocabulary": "MedDRA 13.1", "assessmentType": "SYSTEMATIC_ASSESSMENT", "stats": [{"groupId": "EG000", "numAffected": 48, "numAtRisk": 294}, {"groupId": "EG001", "numAffected": 49, "numAtRisk": 288}]}, {"term": "Weight decreased", "organSystem": "Investigations", "sourceVocabulary": "MedDRA 13.1", "assessmentType": "SYSTEMATIC_ASSESSMENT", "stats": [{"groupId": "EG000", "numAffected": 19, "numAtRisk": 294}, {"groupId": "EG001", "numAffected": 18, "numAtRisk": 288}]}, {"term": "Decreased appetite", "organSystem": "Metabolism and nutrition disorders", "sourceVocabulary": "MedDRA 13.1", "assessmentType": "SYSTEMATIC_ASSESSMENT", "stats": [{"groupId": "EG000", "numAffected": 18, "numAtRisk": 294}, {"groupId": "EG001", "numAffected": 12, "numAtRisk": 288}]}, {"term": "Back pain", "organSystem": "Musculoskeletal and connective tissue disorders", "sourceVocabulary": "MedDRA 13.1", "assessmentType": "SYSTEMATIC_ASSESSMENT", "stats": [{"groupId": "EG000", "numAffected": 13, "numAtRisk": 294}, {"groupId": "EG001", "numAffected": 16, "numAtRisk": 288}]}, {"term": "Bradykinesia", "organSystem": "Nervous system disorders", "sourceVocabulary": "MedDRA 13.1", "assessmentType": "SYSTEMATIC_ASSESSMENT", "stats": [{"groupId": "EG000", "numAffected": 13, "numAtRisk": 294}, {"groupId": "EG001", "numAffected": 15, "numAtRisk": 288}]}, {"term": "Dizziness", "organSystem": "Nervous system disorders", "sourceVocabulary": "MedDRA 13.1", "assessmentType": "SYSTEMATIC_ASSESSMENT", "stats": [{"groupId": "EG000", "numAffected": 26, "numAtRisk": 294}, {"groupId": "EG001", "numAffected": 21, "numAtRisk": 288}]}, {"term": "Headache", "organSystem": "Nervous system disorders", "sourceVocabulary": "MedDRA 13.1", "assessmentType": "SYSTEMATIC_ASSESSMENT", "stats": [{"groupId": "EG000", "numAffected": 15, "numAtRisk": 294}, {"groupId": "EG001", "numAffected": 12, "numAtRisk": 288}]}, {"term": "On and off phenomenon", "organSystem": "Nervous system disorders", "sourceVocabulary": "MedDRA 13.1", "assessmentType": "SYSTEMATIC_ASSESSMENT", "stats": [{"groupId": "EG000", "numAffected": 12, "numAtRisk": 294}, {"groupId": "EG001", "numAffected": 16, "numAtRisk": 288}]}, {"term": "Parkinsonian gait", "organSystem": "Nervous system disorders", "sourceVocabulary": "MedDRA 13.1", "assessmentType": "SYSTEMATIC_ASSESSMENT", "stats": [{"groupId": "EG000", "numAffected": 15, "numAtRisk": 294}, {"groupId": "EG001", "numAffected": 12, "numAtRisk": 288}]}, {"term": "Parkinsonian rest tremor", "organSystem": "Nervous system disorders", "sourceVocabulary": "MedDRA 13.1", "assessmentType": "SYSTEMATIC_ASSESSMENT", "stats": [{"groupId": "EG000", "numAffected": 69, "numAtRisk": 294}, {"groupId": "EG001", "numAffected": 26, "numAtRisk": 288}]}, {"term": "Somnolence", "organSystem": "Nervous system disorders", "sourceVocabulary": "MedDRA 13.1", "assessmentType": "SYSTEMATIC_ASSESSMENT", "stats": [{"groupId": "EG000", "numAffected": 23, "numAtRisk": 294}, {"groupId": "EG001", "numAffected": 18, "numAtRisk": 288}]}, {"term": "Anxiety", "organSystem": "Psychiatric disorders", "sourceVocabulary": "MedDRA 13.1", "assessmentType": "SYSTEMATIC_ASSESSMENT", "stats": [{"groupId": "EG000", "numAffected": 17, "numAtRisk": 294}, {"groupId": "EG001", "numAffected": 22, "numAtRisk": 288}]}, {"term": "Confusional state", "organSystem": "Psychiatric disorders", "sourceVocabulary": "MedDRA 13.1", "assessmentType": "SYSTEMATIC_ASSESSMENT", "stats": [{"groupId": "EG000", "numAffected": 21, "numAtRisk": 294}, {"groupId": "EG001", "numAffected": 21, "numAtRisk": 288}]}, {"term": "Depression", "organSystem": "Psychiatric disorders", "sourceVocabulary": "MedDRA 13.1", "assessmentType": "SYSTEMATIC_ASSESSMENT", "stats": [{"groupId": "EG000", "numAffected": 6, "numAtRisk": 294}, {"groupId": "EG001", "numAffected": 22, "numAtRisk": 288}]}, {"term": "Hallucination", "organSystem": "Psychiatric disorders", "sourceVocabulary": "MedDRA 13.1", "assessmentType": "SYSTEMATIC_ASSESSMENT", "stats": [{"groupId": "EG000", "numAffected": 19, "numAtRisk": 294}, {"groupId": "EG001", "numAffected": 21, "numAtRisk": 288}]}, {"term": "Hallucination, visual", "organSystem": "Psychiatric disorders", "sourceVocabulary": "MedDRA 13.1", "assessmentType": "SYSTEMATIC_ASSESSMENT", "stats": [{"groupId": "EG000", "numAffected": 12, "numAtRisk": 294}, {"groupId": "EG001", "numAffected": 16, "numAtRisk": 288}]}, {"term": "Insomnia", "organSystem": "Psychiatric disorders", "sourceVocabulary": "MedDRA 13.1", "assessmentType": "SYSTEMATIC_ASSESSMENT", "stats": [{"groupId": "EG000", "numAffected": 14, "numAtRisk": 294}, {"groupId": "EG001", "numAffected": 23, "numAtRisk": 288}]}, {"term": "Hypertension", "organSystem": "Vascular disorders", "sourceVocabulary": "MedDRA 13.1", "assessmentType": "SYSTEMATIC_ASSESSMENT", "stats": [{"groupId": "EG000", "numAffected": 16, "numAtRisk": 294}, {"groupId": "EG001", "numAffected": 12, "numAtRisk": 288}]}, {"term": "Hypotension", "organSystem": "Vascular disorders", "sourceVocabulary": "MedDRA 13.1", "assessmentType": "SYSTEMATIC_ASSESSMENT", "stats": [{"groupId": "EG000", "numAffected": 22, "numAtRisk": 294}, {"groupId": "EG001", "numAffected": 10, "numAtRisk": 288}]}, {"term": "Orthostatic hypotension", "organSystem": "Vascular disorders", "sourceVocabulary": "MedDRA 13.1", "assessmentType": "SYSTEMATIC_ASSESSMENT", "stats": [{"groupId": "EG000", "numAffected": 18, "numAtRisk": 294}, {"groupId": "EG001", "numAffected": 17, "numAtRisk": 288}]}]}, "moreInfoModule": {"certainAgreement": {"piSponsorEmployee": false, "restrictionType": "OTHER", "restrictiveAgreement": true, "otherDetails": "The terms and conditions of Novartis' agreements with its investigators may vary. However, Novartis does not prohibit any investigator from publishing. Any publications from a single-site are postponed until the publication of the pooled data (i.e., data from all sites) in the clinical trial."}, "pointOfContact": {"title": "Study Director", "organization": "Novartis Pharmaceuticals", "phone": "862-778-8300"}}}, "derivedSection": {"miscInfoModule": {"versionHolder": "2024-06-24"}, "conditionBrowseModule": {"meshes": [{"id": "D000010300", "term": "Parkinson Disease"}, {"id": "D000003704", "term": "Dementia"}], "ancestors": [{"id": "D000020734", "term": "Parkinsonian Disorders"}, {"id": "D000001480", "term": "Basal Ganglia Diseases"}, {"id": "D000001927", "term": "Brain Diseases"}, {"id": "D000002493", "term": "Central Nervous System Diseases"}, {"id": "D000009422", "term": "Nervous System Diseases"}, {"id": "D000009069", "term": "Movement Disorders"}, {"id": "D000080874", "term": "Synucleinopathies"}, {"id": "D000019636", "term": "Neurodegenerative Diseases"}, {"id": "D000019965", "term": "Neurocognitive Disorders"}, {"id": "D000001523", "term": "Mental Disorders"}], "browseLeaves": [{"id": "M13213", "name": "Parkinson Disease", "asFound": "Parkinson's Disease", "relevance": "HIGH"}, {"id": "M6904", "name": "Dementia", "asFound": "Dementia", "relevance": "HIGH"}, {"id": "M22494", "name": "Parkinsonian Disorders", "relevance": "LOW"}, {"id": "M25603", "name": "Ganglion Cysts", "relevance": "LOW"}, {"id": "M16358", "name": "Synovial Cyst", "relevance": "LOW"}, {"id": "M4774", "name": "Basal Ganglia Diseases", "relevance": "LOW"}, {"id": "M5204", "name": "Brain Diseases", "relevance": "LOW"}, {"id": "M5742", "name": "Central Nervous System Diseases", "relevance": "LOW"}, {"id": "M12029", "name": "Movement Disorders", "relevance": "LOW"}, {"id": "M2217", "name": "Synucleinopathies", "relevance": "LOW"}, {"id": "M21558", "name": "Neurodegenerative Diseases", "relevance": "LOW"}, {"id": "M21836", "name": "Neurocognitive Disorders", "relevance": "LOW"}, {"id": "M4815", "name": "Mental Disorders", "relevance": "LOW"}, {"id": "M14473", "name": "Psychotic Disorders", "relevance": "LOW"}], "browseBranches": [{"abbrev": "BC10", "name": "Nervous System Diseases"}, {"abbrev": "All", "name": "All Conditions"}, {"abbrev": "BXM", "name": "Behaviors and Mental Disorders"}, {"abbrev": "BC04", "name": "Neoplasms"}, {"abbrev": "BC17", "name": "Skin and Connective Tissue Diseases"}, {"abbrev": "BC18", "name": "Nutritional and Metabolic Diseases"}]}, "interventionBrowseModule": {"meshes": [{"id": "D000068836", "term": "Rivastigmine"}], "ancestors": [{"id": "D000002800", "term": "Cholinesterase Inhibitors"}, {"id": "D000004791", "term": "Enzyme Inhibitors"}, {"id": "D000045504", "term": "Molecular Mechanisms of Pharmacological Action"}, {"id": "D000018678", "term": "Cholinergic Agents"}, {"id": "D000018377", "term": "Neurotransmitter Agents"}, {"id": "D000045505", "term": "Physiological Effects of Drugs"}, {"id": "D000018696", "term": "Neuroprotective Agents"}, {"id": "D000020011", "term": "Protective Agents"}], "browseLeaves": [{"id": "M317", "name": "Rivastigmine", "asFound": "Anorexia", "relevance": "HIGH"}, {"id": "M6040", "name": "Cholinesterase Inhibitors", "relevance": "LOW"}, {"id": "M7951", "name": "Enzyme Inhibitors", "relevance": "LOW"}, {"id": "M20758", "name": "Cholinergic Agents", "relevance": "LOW"}, {"id": "M20504", "name": "Neurotransmitter Agents", "relevance": "LOW"}, {"id": "M20773", "name": "Neuroprotective Agents", "relevance": "LOW"}, {"id": "M21869", "name": "Protective Agents", "relevance": "LOW"}], "browseBranches": [{"abbrev": "NeuroAg", "name": "Neuroprotective Agents"}, {"abbrev": "All", "name": "All Drugs and Chemicals"}]}}, "hasResults": true}