{"protocolSection": {"identificationModule": {"nctId": "NCT03098979", "orgStudyIdInfo": {"id": "17582"}, "secondaryIdInfos": [{"id": "2016-004062-26", "type": "EUDRACT_NUMBER"}], "organization": {"fullName": "Bayer", "class": "INDUSTRY"}, "briefTitle": "A Trial to Study Neladenoson Bialanate Over 20 Weeks in Patients With Chronic Heart Failure With Preserved Ejection Fraction", "officialTitle": "A Multicenter, Randomized, Placebo-controlled, Parallel Group, Double Blind, Dose-finding Phase II Trial to Study the Efficacy, Safety, Pharmacokinetics and Pharmacodynamic Effects of the Oral Partial Adenosine A1 Receptor Agonist Neladenoson Bialanate Over 20 Weeks in Patients With Chronic Heart Failure and Preserved Ejection Fraction", "acronym": "PANACHE"}, "statusModule": {"statusVerifiedDate": "2019-07", "overallStatus": "COMPLETED", "expandedAccessInfo": {"hasExpandedAccess": false}, "startDateStruct": {"date": "2017-05-10", "type": "ACTUAL"}, "primaryCompletionDateStruct": {"date": "2018-05-23", "type": "ACTUAL"}, "completionDateStruct": {"date": "2018-06-20", "type": "ACTUAL"}, "studyFirstSubmitDate": "2017-03-15", "studyFirstSubmitQcDate": "2017-03-28", "studyFirstPostDateStruct": {"date": "2017-04-04", "type": "ACTUAL"}, "resultsFirstSubmitDate": "2019-05-23", "resultsFirstSubmitQcDate": "2019-07-04", "resultsFirstPostDateStruct": {"date": "2019-07-23", "type": "ACTUAL"}, "lastUpdateSubmitDate": "2019-07-04", "lastUpdatePostDateStruct": {"date": "2019-07-23", "type": "ACTUAL"}}, "sponsorCollaboratorsModule": {"responsibleParty": {"type": "SPONSOR"}, "leadSponsor": {"name": "Bayer", "class": "INDUSTRY"}}, "oversightModule": {"oversightHasDmc": true, "isFdaRegulatedDrug": true, "isFdaRegulatedDevice": false}, "descriptionModule": {"briefSummary": "The objective of the study is to find the optimal dose of once daily oral neladenoson bialanate (BAY1067197) when given in addition to appropriate therapy for specific comorbidities."}, "conditionsModule": {"conditions": ["Heart Failure"], "keywords": ["Chronic Heart Failure", "Heart Failure with Preserved Ejection Fraction"]}, "designModule": {"studyType": "INTERVENTIONAL", "phases": ["PHASE2"], "designInfo": {"allocation": "RANDOMIZED", "interventionModel": "PARALLEL", "primaryPurpose": "TREATMENT", "maskingInfo": {"masking": "QUADRUPLE", "whoMasked": ["PARTICIPANT", "CARE_PROVIDER", "INVESTIGATOR", "OUTCOMES_ASSESSOR"]}}, "enrollmentInfo": {"count": 305, "type": "ACTUAL"}}, "armsInterventionsModule": {"armGroups": [{"label": "Neladenoson bialanate (BAY1067197) (5 mg)", "type": "EXPERIMENTAL", "description": "Chronic heart failure with preserved ejection fraction", "interventionNames": ["Drug: Neladenoson bialanate (BAY1067197)"]}, {"label": "Neladenoson bialanate (BAY1067197) (10 mg)", "type": "EXPERIMENTAL", "description": "Chronic heart failure with preserved ejection fraction", "interventionNames": ["Drug: Neladenoson bialanate (BAY1067197)"]}, {"label": "Neladenoson bialanate (BAY1067197) (20 mg)", "type": "EXPERIMENTAL", "description": "Chronic heart failure with preserved ejection fraction", "interventionNames": ["Drug: Neladenoson bialanate (BAY1067197)"]}, {"label": "Neladenoson bialanate (BAY1067197) (30 mg)", "type": "EXPERIMENTAL", "description": "Chronic heart failure with preserved ejection fraction", "interventionNames": ["Drug: Neladenoson bialanate (BAY1067197)"]}, {"label": "Neladenoson bialanate (BAY1067197) (40 mg)", "type": "EXPERIMENTAL", "description": "Chronic heart failure with preserved ejection fraction", "interventionNames": ["Drug: Neladenoson bialanate (BAY1067197)"]}, {"label": "Placebo", "type": "PLACEBO_COMPARATOR", "description": "Chronic heart failure with preserved ejection fraction", "interventionNames": ["Drug: Placebo"]}], "interventions": [{"type": "DRUG", "name": "Neladenoson bialanate (BAY1067197)", "description": "5 mg orally once daily for 20 weeks", "armGroupLabels": ["Neladenoson bialanate (BAY1067197) (5 mg)"]}, {"type": "DRUG", "name": "Neladenoson bialanate (BAY1067197)", "description": "10 mg orally once daily for 20 weeks", "armGroupLabels": ["Neladenoson bialanate (BAY1067197) (10 mg)"]}, {"type": "DRUG", "name": "Neladenoson bialanate (BAY1067197)", "description": "20 mg orally once daily for 20 weeks", "armGroupLabels": ["Neladenoson bialanate (BAY1067197) (20 mg)"]}, {"type": "DRUG", "name": "Neladenoson bialanate (BAY1067197)", "description": "30 mg orally once daily for 20 weeks", "armGroupLabels": ["Neladenoson bialanate (BAY1067197) (30 mg)"]}, {"type": "DRUG", "name": "Neladenoson bialanate (BAY1067197)", "description": "40 mg orally once daily for 20 weeks", "armGroupLabels": ["Neladenoson bialanate (BAY1067197) (40 mg)"]}, {"type": "DRUG", "name": "Placebo", "description": "Orally once daily for 20 weeks", "armGroupLabels": ["Placebo"]}]}, "outcomesModule": {"primaryOutcomes": [{"measure": "Absolute Change From Baseline in 6-minute Walking Distance (6MWD) After 20 Weeks of Treatment", "description": "The 6MWD test is designed to evaluate a subject's exercise capacity while performing an everyday activity.", "timeFrame": "Baseline, and up to 20 weeks of treatment"}], "secondaryOutcomes": [{"measure": "Change From Baseline in Average Weekly Percentage of Maximum Possible Recorded Activity Intensity", "description": "AVIVO\u2122 Mobile Patient Management System, a wearable wireless device worn by the subject, was used to monitor subjects' cardiovascular status. The patient's everyday physical activity e.g. duration, intensity, was also tracked by the AVIVO device. For Activity Intensity, the Unit of Measure is \"percentage of maximum activity\", and length of intervals is \"daily\".", "timeFrame": "Baseline, and up to 20 weeks of treatment"}, {"measure": "Measured Values (Log Transformed) and Absolute Change in NT-proBNP From Baseline to 20 Weeks", "description": "NT-proBNP = N-terminal pro-hormone b-type natriuretic peptide", "timeFrame": "Baseline, and up to 20 weeks of treatment"}, {"measure": "Measured Values (Log-transformed) and Absolute Change in High Sensitivity Troponin T (Hs-TNT) From Baseline to 20 Weeks", "description": "High sensitivity troponin T (hs-TNT) was measured", "timeFrame": "Baseline, and up to 20 weeks of treatment"}, {"measure": "Measured Values and Absolute Change in 3 Scores From Kansas City Cardiomyopathy Questionnaire (KCCQ) From Baseline to 20 Weeks: Overall Summary Score, Physical Limitation Score and Total Symptom Score", "description": "The KCCQ is the leading health-related quality-of-life measure for patients with chronic heart failure (CHF). It is a 23-item questionnaire that independently measures the impact of patient's heart failure (HF), or its treatment, on 7 distinct domains: 1) Symptom Frequency 2) Symptom Burden 3) Physical Limitation 4) Quality of Life 5) Social Limitations 6) Self-efficacy 7) Symptoms Stability.\n\nOverall summary score= mean score of (symptom frequency + symptom burden+ physical limitation + quality of life + social limitation); scores on a scale of 0 to 100, higher scores means better outcome; Physical Limitation: scores on a scale of 0 to 100, higher scores means better outcome; Total symptom score=mean score of (symptom frequency + symptom burden): scores on a scale of 0 to 100, higher scores means better outcome.\n\nPositive change means improvement and negative change means deterioration.", "timeFrame": "Baseline, and up to 20 weeks of treatment"}]}, "eligibilityModule": {"eligibilityCriteria": "Inclusion Criteria:\n\n* Men or women aged 45 years and older\n* Diagnosis of chronic heart failure, NYHA (New York Heart Association) class II-IV, LVEF (left ventricular ejection fraction) \u2265 45% and elevated NT-proBNP\n\nExclusion Criteria:\n\n* Acute decompensated heart failure within the past 4 weeks\n* Inability to exercise\n* Previous diagnosis of HFrEF (heart failure with reduced ejection fraction) (LVEF \\< 40%)", "healthyVolunteers": false, "sex": "ALL", "minimumAge": "45 Years", "stdAges": ["ADULT", "OLDER_ADULT"]}, "contactsLocationsModule": {"overallOfficials": [{"name": "Bayer Study Director", "affiliation": "Bayer", "role": "STUDY_DIRECTOR"}], "locations": [{"facility": "Northwestern University", "city": "Chicago", "state": "Illinois", "zip": "60611", "country": "United States", "geoPoint": {"lat": 41.85003, "lon": -87.65005}}, {"facility": "St. Louis Heart & Vascular, PC", "city": "Saint Louis", "state": "Missouri", "zip": "63136", "country": "United States", "geoPoint": {"lat": 38.62727, "lon": -90.19789}}, {"facility": "BryanLGH Medical Center East", "city": "Lincoln", "state": "Nebraska", "zip": "68506", "country": "United States", "geoPoint": {"lat": 40.8, "lon": -96.66696}}, {"facility": "Wake Forest Baptist Health", "city": "Winston-Salem", "state": "North Carolina", "zip": "27157-1045", "country": "United States", "geoPoint": {"lat": 36.09986, "lon": -80.24422}}, {"facility": "Universit\u00e4tsklinikum St. P\u00f6lten", "city": "St. P\u00f6lten", "state": "Nieder\u00f6sterreich", "zip": "3100", "country": "Austria", "geoPoint": {"lat": 48.2, "lon": 15.63333}}, {"facility": "Krankenhaus St. Josef Braunau", "city": "Braunau", "state": "Ober\u00f6sterreich", "zip": "5280", "country": "Austria"}, {"facility": "Krankenhaus der Elisabethinen Linz GmbH", "city": "Linz", "state": "Ober\u00f6sterreich", "zip": "4020", "country": "Austria", "geoPoint": {"lat": 48.30639, "lon": 14.28611}}, {"facility": "Medizinische Universit\u00e4t Graz", "city": "Graz", "state": "Steiermark", "zip": "8036", "country": "Austria", "geoPoint": {"lat": 47.06667, "lon": 15.45}}, {"facility": "Allgemeines Krankenhaus der Stadt Wien", "city": "Wien", "zip": "1090", "country": "Austria", "geoPoint": {"lat": 48.20849, "lon": 16.37208}}, {"facility": "Krankenhaus Hietzing", "city": "Wien", "zip": "1130", "country": "Austria", "geoPoint": {"lat": 48.20849, "lon": 16.37208}}, {"facility": "Jessa Ziekenhuis", "city": "Hasselt", "zip": "3500", "country": "Belgium", "geoPoint": {"lat": 50.93106, "lon": 5.33781}}, {"facility": "CHR de la Citadelle", "city": "Liege", "zip": "4000", "country": "Belgium", "geoPoint": {"lat": 50.63373, "lon": 5.56749}}, {"facility": "AZ Delta", "city": "Roeselare", "zip": "8800", "country": "Belgium", "geoPoint": {"lat": 50.94653, "lon": 3.12269}}, {"facility": "Spec Hosp for Active Treatm in Cardiology Sv Georgi Pernik", "city": "Pernik", "zip": "2300", "country": "Bulgaria", "geoPoint": {"lat": 42.6, "lon": 23.03333}}, {"facility": "Specialized Hospital for Actrive Treatm of Card - Pleven", "city": "Pleven", "zip": "5800", "country": "Bulgaria", "geoPoint": {"lat": 43.41667, "lon": 24.61667}}, {"facility": "Medical Center Cardiohelp", "city": "Sofia", "zip": "1142", "country": "Bulgaria", "geoPoint": {"lat": 42.69751, "lon": 23.32415}}, {"facility": "NMTH Tzar Boris III", "city": "Sofia", "zip": "1233", "country": "Bulgaria", "geoPoint": {"lat": 42.69751, "lon": 23.32415}}, {"facility": "UMHAT Tsaritsa Joanna-ISUL EAD Sofia", "city": "Sofia", "zip": "1527", "country": "Bulgaria", "geoPoint": {"lat": 42.69751, "lon": 23.32415}}, {"facility": "MCOMH Preventsia-2000", "city": "Stara Zagora", "zip": "6000", "country": "Bulgaria", "geoPoint": {"lat": 42.43278, "lon": 25.64194}}, {"facility": "St. Vincenz und Elisabeth Hospital, Kathol. Klinikum Mainz", "city": "Mainz", "state": "Rheinland-Pfalz", "zip": "55131", "country": "Germany", "geoPoint": {"lat": 49.98419, "lon": 8.2791}}, {"facility": "Klinische Forschung Dresden GmbH", "city": "Dresden", "state": "Sachsen", "zip": "01069", "country": "Germany", "geoPoint": {"lat": 51.05089, "lon": 13.73832}}, {"facility": "HELIOS Klinikum Erfurt GmbH", "city": "Erfurt", "state": "Th\u00fcringen", "zip": "99089", "country": "Germany", "geoPoint": {"lat": 50.9787, "lon": 11.03283}}, {"facility": "Charit\u00e9 Campus Virchow-Klinikum (CVK)", "city": "Berlin", "zip": "13353", "country": "Germany", "geoPoint": {"lat": 52.52437, "lon": 13.41053}}, {"facility": "KAT General Hospital of Athens", "city": "Kifisia / Athens", "state": "Attica", "zip": "14561", "country": "Greece"}, {"facility": "G. Gennimatas General State Hospital of Athens", "city": "Athens", "zip": "11527", "country": "Greece", "geoPoint": {"lat": 37.97945, "lon": 23.71622}}, {"facility": "General Hospital of Chalkida", "city": "Chalkida", "zip": "34100", "country": "Greece", "geoPoint": {"lat": 38.46354, "lon": 23.60284}}, {"facility": "Konstantopoulio General Hospital of Nea Ionia - Agia Olga", "city": "Nea Ionia / Athens", "zip": "142 33", "country": "Greece"}, {"facility": "Hippokration General Hospital of Thessaloniki", "city": "Thessaloniki", "zip": "54642", "country": "Greece", "geoPoint": {"lat": 40.64361, "lon": 22.93086}}, {"facility": "Asklipieion General Hospital of Voulas", "city": "Voula", "zip": "16673", "country": "Greece", "geoPoint": {"lat": 37.84221, "lon": 23.77651}}, {"facility": "Barzilai Medical Center", "city": "Ashkelon", "zip": "7830604", "country": "Israel", "geoPoint": {"lat": 31.66926, "lon": 34.57149}}, {"facility": "Hillel Yaffe Medical Center", "city": "Hadera", "zip": "3810101", "country": "Israel", "geoPoint": {"lat": 32.44192, "lon": 34.9039}}, {"facility": "Rambam Health Corporation", "city": "Haifa", "zip": "3109601", "country": "Israel", "geoPoint": {"lat": 32.81841, "lon": 34.9885}}, {"facility": "Shaare Zedek Medical Center", "city": "Jerusalem", "zip": "9103102", "country": "Israel", "geoPoint": {"lat": 31.76904, "lon": 35.21633}}, {"facility": "Hadassah University Hospital Mount Scopus", "city": "Jerusalem", "country": "Israel", "geoPoint": {"lat": 31.76904, "lon": 35.21633}}, {"facility": "Tel-Aviv Sourasky Medical Center", "city": "Tel Aviv", "zip": "6423906", "country": "Israel", "geoPoint": {"lat": 32.08088, "lon": 34.78057}}, {"facility": "Assaf Harofeh Medical Center", "city": "Zrifin", "zip": "6093000", "country": "Israel", "geoPoint": {"lat": 31.95857, "lon": 4.83723}}, {"facility": "AAS 3 Friuli Alto Medio Collin", "city": "Udine", "state": "Friuli-Venezia Giulia", "zip": "33038", "country": "Italy", "geoPoint": {"lat": 46.0693, "lon": 13.23715}}, {"facility": "A.O.U. Sant'Andrea", "city": "Roma", "state": "Lazio", "zip": "00189", "country": "Italy", "geoPoint": {"lat": 41.89193, "lon": 12.51133}}, {"facility": "ASST Papa Giovanni XXIII", "city": "Bergamo", "state": "Lombardia", "zip": "24127", "country": "Italy", "geoPoint": {"lat": 45.69601, "lon": 9.66721}}, {"facility": "ASST Spedali Civili di Brescia", "city": "Brescia", "state": "Lombardia", "zip": "25123", "country": "Italy", "geoPoint": {"lat": 45.53558, "lon": 10.21472}}, {"facility": "A.O. Ordine Mauriziano", "city": "Torino", "state": "Piemonte", "zip": "10128", "country": "Italy", "geoPoint": {"lat": 45.07049, "lon": 7.68682}}, {"facility": "A.O.U. di Sassari", "city": "Sassari", "state": "Sardegna", "zip": "07100", "country": "Italy", "geoPoint": {"lat": 40.72586, "lon": 8.55552}}, {"facility": "AUSL Toscana Sud-Est", "city": "Arezzo", "state": "Toscana", "zip": "52040", "country": "Italy", "geoPoint": {"lat": 43.46276, "lon": 11.88068}}, {"facility": "Chuno kosei Hospital", "city": "Seki", "state": "Gifu", "zip": "501-3802", "country": "Japan"}, {"facility": "Hyogo Prefectural Amagasaki General Medical Center", "city": "Amagasaki", "state": "Hyogo", "zip": "660-8550", "country": "Japan", "geoPoint": {"lat": 34.71667, "lon": 135.41667}}, {"facility": "National Hospital Organization Kanazawa Medical Center", "city": "Kanazawa", "state": "Ishikawa", "zip": "920-8650", "country": "Japan", "geoPoint": {"lat": 36.6, "lon": 136.61667}}, {"facility": "Shonan Fujisawa Tokushukai Hospital", "city": "Fujisawa", "state": "Kanagawa", "zip": "251-0041", "country": "Japan", "geoPoint": {"lat": 35.34926, "lon": 139.47666}}, {"facility": "R.I.A.C Naha City Hospital", "city": "Naha", "state": "Okinawa", "zip": "902-8511", "country": "Japan", "geoPoint": {"lat": 26.21667, "lon": 127.68333}}, {"facility": "Kishiwada Tokushukai Hospital", "city": "Kishiwada", "state": "Osaka", "zip": "596-8522", "country": "Japan", "geoPoint": {"lat": 34.46667, "lon": 135.36667}}, {"facility": "Takatsuki Red Cross Hospital", "city": "Takatsuki", "state": "Osaka", "zip": "569-1096", "country": "Japan", "geoPoint": {"lat": 34.84833, "lon": 135.61678}}, {"facility": "Osaka Medical College Hospital", "city": "Takatsuki", "state": "Osaka", "zip": "569-8686", "country": "Japan", "geoPoint": {"lat": 34.84833, "lon": 135.61678}}, {"facility": "Minamino Cardiovascular Hospital", "city": "Hachioji", "state": "Tokyo", "zip": "192-0918", "country": "Japan", "geoPoint": {"lat": 35.65583, "lon": 139.32389}}, {"facility": "Tokyo Women's Medical University Hospital", "city": "Shinjuku-ku", "state": "Tokyo", "zip": "162-8666", "country": "Japan", "geoPoint": {"lat": 35.2946, "lon": 139.57059}}, {"facility": "Fukui Prefectural Hospital", "city": "Fukui", "zip": "910-8526", "country": "Japan", "geoPoint": {"lat": 36.06443, "lon": 136.22257}}, {"facility": "Okayama Rosai Hospital", "city": "Okayama", "zip": "702-8055", "country": "Japan", "geoPoint": {"lat": 34.65, "lon": 133.93333}}, {"facility": "Osaka General Medical Center", "city": "Osaka", "zip": "558-8558", "country": "Japan", "geoPoint": {"lat": 34.69374, "lon": 135.50218}}, {"facility": "Tokushima Prefectural Central Hospital", "city": "Tokushima", "zip": "770-8539", "country": "Japan", "geoPoint": {"lat": 34.06667, "lon": 134.56667}}, {"facility": "Uniwersytecki Szpital Kliniczny w Bialymstoku", "city": "Bialystok", "zip": "15-276", "country": "Poland", "geoPoint": {"lat": 53.13333, "lon": 23.16433}}, {"facility": "Szpital Zachodni w Grodzisku Mazowieckim", "city": "Grodzisk Mazowiecki", "zip": "05-825", "country": "Poland", "geoPoint": {"lat": 52.10387, "lon": 20.6337}}, {"facility": "Szpital Specjalistyczny im. J. Dietla", "city": "Krakow", "zip": "31-121", "country": "Poland", "geoPoint": {"lat": 50.06143, "lon": 19.93658}}, {"facility": "Wojewodzki Specjalistyczny Szpital im. dr Wl. Bieganskiego", "city": "Lodz", "zip": "91-347", "country": "Poland", "geoPoint": {"lat": 51.75, "lon": 19.46667}}, {"facility": "109 Szpital Wojskowy z przychodnia SPZOZ", "city": "Szczecin", "zip": "70-965", "country": "Poland", "geoPoint": {"lat": 53.42894, "lon": 14.55302}}, {"facility": "Szpital Wolski im. dr Anny Gostynskiej SPZOZ", "city": "Warszawa", "zip": "02-211", "country": "Poland", "geoPoint": {"lat": 52.22977, "lon": 21.01178}}, {"facility": "IV Wojskowy Szpital Kliniczny z Poliklinika, SPZOZ", "city": "Wroclaw", "zip": "50-981", "country": "Poland", "geoPoint": {"lat": 51.1, "lon": 17.03333}}, {"facility": "CHUC - Hospitais da Universidade de Coimbra", "city": "Coimbra", "zip": "3000-075", "country": "Portugal", "geoPoint": {"lat": 40.20564, "lon": -8.41955}}, {"facility": "CHLO - Hospital S\u00e3o Francisco Xavier", "city": "Lisboa", "zip": "1449-005", "country": "Portugal", "geoPoint": {"lat": 38.71667, "lon": -9.13333}}, {"facility": "Hospital da Luz", "city": "Lisboa", "zip": "1500-650", "country": "Portugal", "geoPoint": {"lat": 38.71667, "lon": -9.13333}}, {"facility": "CHUP, EPE - Hospital de Santo Antonio", "city": "Porto", "zip": "4099-001", "country": "Portugal", "geoPoint": {"lat": 41.14961, "lon": -8.61099}}, {"facility": "Hospital Sanitas La Zarzuela", "city": "Aravaca", "state": "Madrid", "zip": "28023", "country": "Spain", "geoPoint": {"lat": 40.45772, "lon": -3.78282}}, {"facility": "Hospital Universitario \"Virgen de la Arrixaca\"", "city": "El Palmar", "state": "Murcia", "zip": "30120", "country": "Spain", "geoPoint": {"lat": 37.93939, "lon": -1.16095}}, {"facility": "Hospital del Mar", "city": "Barcelona", "zip": "08003", "country": "Spain", "geoPoint": {"lat": 41.38879, "lon": 2.15899}}, {"facility": "Hospital General Universitario Gregorio Mara\u00f1\u00f3n", "city": "Madrid", "zip": "28007", "country": "Spain", "geoPoint": {"lat": 40.4165, "lon": -3.70256}}, {"facility": "Hospital Cl\u00ednico Universitario San Carlos", "city": "Madrid", "zip": "28040", "country": "Spain", "geoPoint": {"lat": 40.4165, "lon": -3.70256}}, {"facility": "Hospital Virgen de la Victoria", "city": "M\u00e1laga", "zip": "29010", "country": "Spain", "geoPoint": {"lat": 36.72016, "lon": -4.42034}}, {"facility": "Hospital Cl\u00ednico Universitario de Valencia", "city": "Valencia", "zip": "46010", "country": "Spain", "geoPoint": {"lat": 39.46975, "lon": -0.37739}}, {"facility": "Hospital Universitari i Polit\u00e8cnic La Fe", "city": "Valencia", "zip": "46026", "country": "Spain", "geoPoint": {"lat": 39.46975, "lon": -0.37739}}]}, "referencesModule": {"references": [{"pmid": "31162568", "type": "DERIVED", "citation": "Shah SJ, Voors AA, McMurray JJV, Kitzman DW, Viethen T, Bomfim Wirtz A, Huang E, Pap AF, Solomon SD. Effect of Neladenoson Bialanate on Exercise Capacity Among Patients With Heart Failure With Preserved Ejection Fraction: A Randomized Clinical Trial. JAMA. 2019 Jun 4;321(21):2101-2112. doi: 10.1001/jama.2019.6717."}]}}, "resultsSection": {"participantFlowModule": {"preAssignmentDetails": "A total of 339 subjects entered the screening period, of whom 34 withdrew before randomization. The remaining 305 subjects were randomized and received at least one dose of study drug", "recruitmentDetails": "The study was conducted at 76 study centers in 12 countries, between 10 May 2017 (first patient first visit) and 20 June 2018 (last patient last visit)", "groups": [{"id": "FG000", "title": "Placebo", "description": "Subjects received placebo matched to neladenoson bialanate tablets orally for 20 weeks"}, {"id": "FG001", "title": "Neladenoson Bialanate 5 mg", "description": "Subjects received 5 milligrams (mg) of neladenoson bialanate tablets orally for 20 weeks"}, {"id": "FG002", "title": "Neladenoson Bialanate 10 mg", "description": "Subjects received 10 mg of neladenoson bialanate tablets orally for 20 weeks"}, {"id": "FG003", "title": "Neladenoson Bialanate 20 mg", "description": "Subjects received 20 mg of neladenoson bialanate tablets orally for 20 weeks"}, {"id": "FG004", "title": "Neladenoson Bialanate 30 mg", "description": "Subjects received 30 mg of neladenoson bialanate tablets orally for 20 weeks"}, {"id": "FG005", "title": "Neladenoson Bialanate 40 mg", "description": "Subjects received 40 mg of neladenoson bialanate tablets orally for 20 weeks"}], "periods": [{"title": "Overall Study", "milestones": [{"type": "STARTED", "achievements": [{"groupId": "FG000", "numSubjects": "76"}, {"groupId": "FG001", "numSubjects": "27"}, {"groupId": "FG002", "numSubjects": "50"}, {"groupId": "FG003", "numSubjects": "51"}, {"groupId": "FG004", "numSubjects": "50"}, {"groupId": "FG005", "numSubjects": "51"}]}, {"type": "COMPLETED", "achievements": [{"groupId": "FG000", "numSubjects": "70"}, {"groupId": "FG001", "numSubjects": "25"}, {"groupId": "FG002", "numSubjects": "46"}, {"groupId": "FG003", "numSubjects": "46"}, {"groupId": "FG004", "numSubjects": "41"}, {"groupId": "FG005", "numSubjects": "47"}]}, {"type": "NOT COMPLETED", "achievements": [{"groupId": "FG000", "numSubjects": "6"}, {"groupId": "FG001", "numSubjects": "2"}, {"groupId": "FG002", "numSubjects": "4"}, {"groupId": "FG003", "numSubjects": "5"}, {"groupId": "FG004", "numSubjects": "9"}, {"groupId": "FG005", "numSubjects": "4"}]}], "dropWithdraws": [{"type": "Adverse Event", "reasons": [{"groupId": "FG000", "numSubjects": "1"}, {"groupId": "FG001", "numSubjects": "0"}, {"groupId": "FG002", "numSubjects": "1"}, {"groupId": "FG003", "numSubjects": "4"}, {"groupId": "FG004", "numSubjects": "6"}, {"groupId": "FG005", "numSubjects": "1"}]}, {"type": "Withdrawal by Subject", "reasons": [{"groupId": "FG000", "numSubjects": "2"}, {"groupId": "FG001", "numSubjects": "1"}, {"groupId": "FG002", "numSubjects": "1"}, {"groupId": "FG003", "numSubjects": "1"}, {"groupId": "FG004", "numSubjects": "2"}, {"groupId": "FG005", "numSubjects": "1"}]}, {"type": "Death", "reasons": [{"groupId": "FG000", "numSubjects": "1"}, {"groupId": "FG001", "numSubjects": "0"}, {"groupId": "FG002", "numSubjects": "2"}, {"groupId": "FG003", "numSubjects": "0"}, {"groupId": "FG004", "numSubjects": "1"}, {"groupId": "FG005", "numSubjects": "0"}]}, {"type": "Physician Decision", "reasons": [{"groupId": "FG000", "numSubjects": "2"}, {"groupId": "FG001", "numSubjects": "1"}, {"groupId": "FG002", "numSubjects": "0"}, {"groupId": "FG003", "numSubjects": "0"}, {"groupId": "FG004", "numSubjects": "0"}, {"groupId": "FG005", "numSubjects": "0"}]}, {"type": "Non-compliance", "reasons": [{"groupId": "FG000", "numSubjects": "0"}, {"groupId": "FG001", "numSubjects": "0"}, {"groupId": "FG002", "numSubjects": "0"}, {"groupId": "FG003", "numSubjects": "0"}, {"groupId": "FG004", "numSubjects": "0"}, {"groupId": "FG005", "numSubjects": "1"}]}, {"type": "Protocol Violation", "reasons": [{"groupId": "FG000", "numSubjects": "0"}, {"groupId": "FG001", "numSubjects": "0"}, {"groupId": "FG002", "numSubjects": "0"}, {"groupId": "FG003", "numSubjects": "0"}, {"groupId": "FG004", "numSubjects": "0"}, {"groupId": "FG005", "numSubjects": "1"}]}]}]}, "baselineCharacteristicsModule": {"groups": [{"id": "BG000", "title": "Placebo", "description": "Subjects received placebo matched to neladenoson bialanate tablets orally for 20 weeks"}, {"id": "BG001", "title": "Neladenoson Bialanate 5 mg", "description": "Subjects received 5 milligrams (mg) of neladenoson bialanate tablets orally for 20 weeks"}, {"id": "BG002", "title": "Neladenoson Bialanate 10 mg", "description": "Subjects received 10 mg of neladenoson bialanate tablets orally for 20 weeks"}, {"id": "BG003", "title": "Neladenoson Bialanate 20 mg", "description": "Subjects received 20 mg of neladenoson bialanate tablets orally for 20 weeks"}, {"id": "BG004", "title": "Neladenoson Bialanate 30 mg", "description": "Subjects received 30 mg of neladenoson bialanate tablets orally for 20 weeks"}, {"id": "BG005", "title": "Neladenoson Bialanate 40 mg", "description": "Subjects received 40 mg of neladenoson bialanate tablets orally for 20 weeks"}, {"id": "BG006", "title": "Total", "description": "Total of all reporting groups"}], "denoms": [{"units": "Participants", "counts": [{"groupId": "BG000", "value": "76"}, {"groupId": "BG001", "value": "27"}, {"groupId": "BG002", "value": "50"}, {"groupId": "BG003", "value": "51"}, {"groupId": "BG004", "value": "50"}, {"groupId": "BG005", "value": "51"}, {"groupId": "BG006", "value": "305"}]}], "measures": [{"title": "Age, Continuous", "paramType": "MEAN", "dispersionType": "STANDARD_DEVIATION", "unitOfMeasure": "Years", "classes": [{"denoms": [{"units": "Participants", "counts": [{"groupId": "BG000", "value": "76"}, {"groupId": "BG001", "value": "27"}, {"groupId": "BG002", "value": "50"}, {"groupId": "BG003", "value": "51"}, {"groupId": "BG004", "value": "50"}, {"groupId": "BG005", "value": "51"}, {"groupId": "BG006", "value": "305"}]}], "categories": [{"measurements": [{"groupId": "BG000", "value": "73.1", "spread": "8.0"}, {"groupId": "BG001", "value": "74.3", "spread": "9.3"}, {"groupId": "BG002", "value": "73.5", "spread": "9.9"}, {"groupId": "BG003", "value": "71.4", "spread": "6.8"}, {"groupId": "BG004", "value": "76", "spread": "9.4"}, {"groupId": "BG005", "value": "73.7", "spread": "8.3"}, {"groupId": "BG006", "value": "73.6", "spread": "8.6"}]}]}]}, {"title": "Sex: Female, Male", "paramType": "COUNT_OF_PARTICIPANTS", "unitOfMeasure": "Participants", "classes": [{"denoms": [{"units": "Participants", "counts": [{"groupId": "BG000", "value": "76"}, {"groupId": "BG001", "value": "27"}, {"groupId": "BG002", "value": "50"}, {"groupId": "BG003", "value": "51"}, {"groupId": "BG004", "value": "50"}, {"groupId": "BG005", "value": "51"}, {"groupId": "BG006", "value": "305"}]}], "categories": [{"title": "Female", "measurements": [{"groupId": "BG000", "value": "36"}, {"groupId": "BG001", "value": "16"}, {"groupId": "BG002", "value": "26"}, {"groupId": "BG003", "value": "21"}, {"groupId": "BG004", "value": "32"}, {"groupId": "BG005", "value": "29"}, {"groupId": "BG006", "value": "160"}]}, {"title": "Male", "measurements": [{"groupId": "BG000", "value": "40"}, {"groupId": "BG001", "value": "11"}, {"groupId": "BG002", "value": "24"}, {"groupId": "BG003", "value": "30"}, {"groupId": "BG004", "value": "18"}, {"groupId": "BG005", "value": "22"}, {"groupId": "BG006", "value": "145"}]}]}]}, {"title": "Ethnicity (NIH/OMB)", "paramType": "COUNT_OF_PARTICIPANTS", "unitOfMeasure": "Participants", "classes": [{"denoms": [{"units": "Participants", "counts": [{"groupId": "BG000", "value": "76"}, {"groupId": "BG001", "value": "27"}, {"groupId": "BG002", "value": "50"}, {"groupId": "BG003", "value": "51"}, {"groupId": "BG004", "value": "50"}, {"groupId": "BG005", "value": "51"}, {"groupId": "BG006", "value": "305"}]}], "categories": [{"title": "Hispanic or Latino", "measurements": [{"groupId": "BG000", "value": "2"}, {"groupId": "BG001", "value": "0"}, {"groupId": "BG002", "value": "0"}, {"groupId": "BG003", "value": "0"}, {"groupId": "BG004", "value": "0"}, {"groupId": "BG005", "value": "0"}, {"groupId": "BG006", "value": "2"}]}, {"title": "Not Hispanic or Latino", "measurements": [{"groupId": "BG000", "value": "73"}, {"groupId": "BG001", "value": "27"}, {"groupId": "BG002", "value": "49"}, {"groupId": "BG003", "value": "51"}, {"groupId": "BG004", "value": "50"}, {"groupId": "BG005", "value": "50"}, {"groupId": "BG006", "value": "300"}]}, {"title": "Unknown or Not Reported", "measurements": [{"groupId": "BG000", "value": "1"}, {"groupId": "BG001", "value": "0"}, {"groupId": "BG002", "value": "1"}, {"groupId": "BG003", "value": "0"}, {"groupId": "BG004", "value": "0"}, {"groupId": "BG005", "value": "1"}, {"groupId": "BG006", "value": "3"}]}]}]}, {"title": "Race (NIH/OMB)", "paramType": "COUNT_OF_PARTICIPANTS", "unitOfMeasure": "Participants", "classes": [{"denoms": [{"units": "Participants", "counts": [{"groupId": "BG000", "value": "76"}, {"groupId": "BG001", "value": "27"}, {"groupId": "BG002", "value": "50"}, {"groupId": "BG003", "value": "51"}, {"groupId": "BG004", "value": "50"}, {"groupId": "BG005", "value": "51"}, {"groupId": "BG006", "value": "305"}]}], "categories": [{"title": "American Indian or Alaska Native", "measurements": [{"groupId": "BG000", "value": "0"}, {"groupId": "BG001", "value": "0"}, {"groupId": "BG002", "value": "0"}, {"groupId": "BG003", "value": "0"}, {"groupId": "BG004", "value": "0"}, {"groupId": "BG005", "value": "0"}, {"groupId": "BG006", "value": "0"}]}, {"title": "Asian", "measurements": [{"groupId": "BG000", "value": "9"}, {"groupId": "BG001", "value": "3"}, {"groupId": "BG002", "value": "6"}, {"groupId": "BG003", "value": "5"}, {"groupId": "BG004", "value": "5"}, {"groupId": "BG005", "value": "5"}, {"groupId": "BG006", "value": "33"}]}, {"title": "Native Hawaiian or Other Pacific Islander", "measurements": [{"groupId": "BG000", "value": "0"}, {"groupId": "BG001", "value": "0"}, {"groupId": "BG002", "value": "0"}, {"groupId": "BG003", "value": "0"}, {"groupId": "BG004", "value": "0"}, {"groupId": "BG005", "value": "0"}, {"groupId": "BG006", "value": "0"}]}, {"title": "Black or African American", "measurements": [{"groupId": "BG000", "value": "3"}, {"groupId": "BG001", "value": "0"}, {"groupId": "BG002", "value": "0"}, {"groupId": "BG003", "value": "1"}, {"groupId": "BG004", "value": "0"}, {"groupId": "BG005", "value": "1"}, {"groupId": "BG006", "value": "5"}]}, {"title": "White", "measurements": [{"groupId": "BG000", "value": "64"}, {"groupId": "BG001", "value": "24"}, {"groupId": "BG002", "value": "44"}, {"groupId": "BG003", "value": "45"}, {"groupId": "BG004", "value": "45"}, {"groupId": "BG005", "value": "45"}, {"groupId": "BG006", "value": "267"}]}, {"title": "More than one race", "measurements": [{"groupId": "BG000", "value": "0"}, {"groupId": "BG001", "value": "0"}, {"groupId": "BG002", "value": "0"}, {"groupId": "BG003", "value": "0"}, {"groupId": "BG004", "value": "0"}, {"groupId": "BG005", "value": "0"}, {"groupId": "BG006", "value": "0"}]}, {"title": "Unknown or Not Reported", "measurements": [{"groupId": "BG000", "value": "0"}, {"groupId": "BG001", "value": "0"}, {"groupId": "BG002", "value": "0"}, {"groupId": "BG003", "value": "0"}, {"groupId": "BG004", "value": "0"}, {"groupId": "BG005", "value": "0"}, {"groupId": "BG006", "value": "0"}]}]}]}, {"title": "LVEF", "description": "Left ventricular ejection fraction (LVEF) is defined as the fraction of blood being pumped out of the left ventricle of the heart with each contraction.", "populationDescription": "Included subjects with valid baseline value for this characteristic", "paramType": "MEAN", "dispersionType": "STANDARD_DEVIATION", "unitOfMeasure": "percentage of blood ejected", "classes": [{"denoms": [{"units": "Participants", "counts": [{"groupId": "BG000", "value": "45"}, {"groupId": "BG001", "value": "20"}, {"groupId": "BG002", "value": "32"}, {"groupId": "BG003", "value": "32"}, {"groupId": "BG004", "value": "32"}, {"groupId": "BG005", "value": "33"}, {"groupId": "BG006", "value": "194"}]}], "categories": [{"measurements": [{"groupId": "BG000", "value": "57.09", "spread": "8.68"}, {"groupId": "BG001", "value": "56.54", "spread": "9.62"}, {"groupId": "BG002", "value": "53.78", "spread": "11.6"}, {"groupId": "BG003", "value": "57.3", "spread": "10.4"}, {"groupId": "BG004", "value": "59.43", "spread": "8.72"}, {"groupId": "BG005", "value": "52.3", "spread": "12.76"}, {"groupId": "BG006", "value": "56.09", "spread": "10.5"}]}]}]}, {"title": "NT-proBNP", "description": "N-terminal pro-hormone b-type natriuretic peptide", "populationDescription": "Included subjects with valid baseline value for this characteristic", "paramType": "MEDIAN", "dispersionType": "FULL_RANGE", "unitOfMeasure": "pg/ml", "classes": [{"denoms": [{"units": "Participants", "counts": [{"groupId": "BG000", "value": "63"}, {"groupId": "BG001", "value": "23"}, {"groupId": "BG002", "value": "44"}, {"groupId": "BG003", "value": "42"}, {"groupId": "BG004", "value": "39"}, {"groupId": "BG005", "value": "44"}, {"groupId": "BG006", "value": "255"}]}], "categories": [{"measurements": [{"groupId": "BG000", "value": "882.0", "lowerLimit": "54", "upperLimit": "3034"}, {"groupId": "BG001", "value": "1013.0", "lowerLimit": "136", "upperLimit": "5709"}, {"groupId": "BG002", "value": "1000.0", "lowerLimit": "116", "upperLimit": "3547"}, {"groupId": "BG003", "value": "834.5", "lowerLimit": "173", "upperLimit": "6003"}, {"groupId": "BG004", "value": "626.0", "lowerLimit": "78", "upperLimit": "3043"}, {"groupId": "BG005", "value": "886.5", "lowerLimit": "60", "upperLimit": "8170"}, {"groupId": "BG006", "value": "869.0", "lowerLimit": "54", "upperLimit": "8170"}]}]}]}, {"title": "NYHA class", "description": "NYHA classes: I: No limitation of physical activity (PA). Ordinary PA does not cause undue fatigue, palpitation, dyspnea, or anginal pain II: Slight limitation of PA; comfortable at rest. Ordinary PA results in fatigue, palpitation, dyspnea, or anginal pain III: Marked limitation of PA; comfortable at rest. Less than ordinary PA causes fatigue, palpitation, dyspnea, or anginal pain IV: Inability to carry on any PA without discomfort. Symptoms of heart failure or the anginal syndrome may be present even at rest. If any PA is undertaken, discomfort is increased", "paramType": "COUNT_OF_PARTICIPANTS", "unitOfMeasure": "Participants", "classes": [{"denoms": [{"units": "Participants", "counts": [{"groupId": "BG000", "value": "76"}, {"groupId": "BG001", "value": "27"}, {"groupId": "BG002", "value": "50"}, {"groupId": "BG003", "value": "51"}, {"groupId": "BG004", "value": "50"}, {"groupId": "BG005", "value": "51"}, {"groupId": "BG006", "value": "305"}]}], "categories": [{"title": "II", "measurements": [{"groupId": "BG000", "value": "61"}, {"groupId": "BG001", "value": "23"}, {"groupId": "BG002", "value": "37"}, {"groupId": "BG003", "value": "41"}, {"groupId": "BG004", "value": "31"}, {"groupId": "BG005", "value": "39"}, {"groupId": "BG006", "value": "232"}]}, {"title": "III/IV", "measurements": [{"groupId": "BG000", "value": "15"}, {"groupId": "BG001", "value": "4"}, {"groupId": "BG002", "value": "13"}, {"groupId": "BG003", "value": "10"}, {"groupId": "BG004", "value": "19"}, {"groupId": "BG005", "value": "12"}, {"groupId": "BG006", "value": "73"}]}]}]}, {"title": "Medical history: diabetes", "description": "Subjects with medical history of Type 2 diabetes mellitus", "paramType": "COUNT_OF_PARTICIPANTS", "unitOfMeasure": "Participants", "classes": [{"denoms": [{"units": "Participants", "counts": [{"groupId": "BG000", "value": "76"}, {"groupId": "BG001", "value": "27"}, {"groupId": "BG002", "value": "50"}, {"groupId": "BG003", "value": "51"}, {"groupId": "BG004", "value": "50"}, {"groupId": "BG005", "value": "51"}, {"groupId": "BG006", "value": "305"}]}], "categories": [{"measurements": [{"groupId": "BG000", "value": "36"}, {"groupId": "BG001", "value": "7"}, {"groupId": "BG002", "value": "23"}, {"groupId": "BG003", "value": "20"}, {"groupId": "BG004", "value": "22"}, {"groupId": "BG005", "value": "21"}, {"groupId": "BG006", "value": "129"}]}]}]}, {"title": "Medical history: Atrial fibrillation", "description": "Subjects with medical history of Atrial fibrillation", "paramType": "COUNT_OF_PARTICIPANTS", "unitOfMeasure": "Participants", "classes": [{"denoms": [{"units": "Participants", "counts": [{"groupId": "BG000", "value": "76"}, {"groupId": "BG001", "value": "27"}, {"groupId": "BG002", "value": "50"}, {"groupId": "BG003", "value": "51"}, {"groupId": "BG004", "value": "50"}, {"groupId": "BG005", "value": "51"}, {"groupId": "BG006", "value": "305"}]}], "categories": [{"measurements": [{"groupId": "BG000", "value": "28"}, {"groupId": "BG001", "value": "10"}, {"groupId": "BG002", "value": "18"}, {"groupId": "BG003", "value": "19"}, {"groupId": "BG004", "value": "20"}, {"groupId": "BG005", "value": "21"}, {"groupId": "BG006", "value": "116"}]}]}]}, {"title": "Medical history: hypertension", "description": "Subjects with medical history of hypertension", "paramType": "COUNT_OF_PARTICIPANTS", "unitOfMeasure": "Participants", "classes": [{"denoms": [{"units": "Participants", "counts": [{"groupId": "BG000", "value": "76"}, {"groupId": "BG001", "value": "27"}, {"groupId": "BG002", "value": "50"}, {"groupId": "BG003", "value": "51"}, {"groupId": "BG004", "value": "50"}, {"groupId": "BG005", "value": "51"}, {"groupId": "BG006", "value": "305"}]}], "categories": [{"measurements": [{"groupId": "BG000", "value": "66"}, {"groupId": "BG001", "value": "25"}, {"groupId": "BG002", "value": "45"}, {"groupId": "BG003", "value": "45"}, {"groupId": "BG004", "value": "46"}, {"groupId": "BG005", "value": "42"}, {"groupId": "BG006", "value": "269"}]}]}]}, {"title": "eGFR", "description": "eGFR = estimated glomerular filtration rate", "paramType": "MEAN", "dispersionType": "STANDARD_DEVIATION", "unitOfMeasure": "mL/min/1.73 square meter", "classes": [{"denoms": [{"units": "Participants", "counts": [{"groupId": "BG000", "value": "76"}, {"groupId": "BG001", "value": "27"}, {"groupId": "BG002", "value": "50"}, {"groupId": "BG003", "value": "51"}, {"groupId": "BG004", "value": "50"}, {"groupId": "BG005", "value": "51"}, {"groupId": "BG006", "value": "305"}]}], "categories": [{"measurements": [{"groupId": "BG000", "value": "62.0", "spread": "17.9"}, {"groupId": "BG001", "value": "52.6", "spread": "17.1"}, {"groupId": "BG002", "value": "61.0", "spread": "24.2"}, {"groupId": "BG003", "value": "57.1", "spread": "17.3"}, {"groupId": "BG004", "value": "57.5", "spread": "18.2"}, {"groupId": "BG005", "value": "60.0", "spread": "17.5"}, {"groupId": "BG006", "value": "59.1", "spread": "18.9"}]}]}]}, {"title": "6MWD", "description": "6MWD = six-minute walking distance", "paramType": "MEAN", "dispersionType": "STANDARD_DEVIATION", "unitOfMeasure": "meter", "classes": [{"denoms": [{"units": "Participants", "counts": [{"groupId": "BG000", "value": "76"}, {"groupId": "BG001", "value": "27"}, {"groupId": "BG002", "value": "50"}, {"groupId": "BG003", "value": "51"}, {"groupId": "BG004", "value": "50"}, {"groupId": "BG005", "value": "51"}, {"groupId": "BG006", "value": "305"}]}], "categories": [{"measurements": [{"groupId": "BG000", "value": "322.8", "spread": "97.1"}, {"groupId": "BG001", "value": "311.6", "spread": "108.2"}, {"groupId": "BG002", "value": "295.8", "spread": "110.4"}, {"groupId": "BG003", "value": "324.5", "spread": "105"}, {"groupId": "BG004", "value": "321.1", "spread": "93.4"}, {"groupId": "BG005", "value": "347.2", "spread": "94.5"}, {"groupId": "BG006", "value": "321.5", "spread": "101"}]}]}]}]}, "outcomeMeasuresModule": {"outcomeMeasures": [{"type": "PRIMARY", "title": "Absolute Change From Baseline in 6-minute Walking Distance (6MWD) After 20 Weeks of Treatment", "description": "The 6MWD test is designed to evaluate a subject's exercise capacity while performing an everyday activity.", "populationDescription": "Per-protocol set (PPS): Included all full analysis set (FAS) population subjects without validity findings for this outcome measure, and it also included subjects who were censored due to cardiovascular (CV) death or hospitalization for heart failure (HF) that prevented assessment of efficacy at 20 weeks.", "reportingStatus": "POSTED", "paramType": "MEAN", "dispersionType": "Standard Deviation", "unitOfMeasure": "meter", "timeFrame": "Baseline, and up to 20 weeks of treatment", "groups": [{"id": "OG000", "title": "Placebo", "description": "Subjects received placebo matched to neladenoson bialanate tablets orally for 20 weeks"}, {"id": "OG001", "title": "Neladenoson Bialanate 5 mg", "description": "Subjects received 5 milligrams (mg) of neladenoson bialanate tablets orally for 20 weeks"}, {"id": "OG002", "title": "Neladenoson Bialanate 10 mg", "description": "Subjects received 10 mg of neladenoson bialanate tablets orally for 20 weeks"}, {"id": "OG003", "title": "Neladenoson Bialanate 20 mg", "description": "Subjects received 20 mg of neladenoson bialanate tablets orally for 20 weeks"}, {"id": "OG004", "title": "Neladenoson Bialanate 30 mg", "description": "Subjects received 30 mg of neladenoson bialanate tablets orally for 20 weeks"}, {"id": "OG005", "title": "Neladenoson Bialanate 40 mg", "description": "Subjects received 40 mg of neladenoson bialanate tablets orally for 20 weeks"}], "denoms": [{"units": "Participants", "counts": [{"groupId": "OG000", "value": "65"}, {"groupId": "OG001", "value": "22"}, {"groupId": "OG002", "value": "44"}, {"groupId": "OG003", "value": "41"}, {"groupId": "OG004", "value": "34"}, {"groupId": "OG005", "value": "37"}]}], "classes": [{"title": "Value at baseline", "categories": [{"measurements": [{"groupId": "OG000", "value": "329", "spread": "95"}, {"groupId": "OG001", "value": "306", "spread": "117"}, {"groupId": "OG002", "value": "300", "spread": "109"}, {"groupId": "OG003", "value": "328", "spread": "105"}, {"groupId": "OG004", "value": "321", "spread": "101"}, {"groupId": "OG005", "value": "363", "spread": "83"}]}]}, {"title": "Change from baseline to Week 20", "categories": [{"measurements": [{"groupId": "OG000", "value": "1.89", "spread": "49.5"}, {"groupId": "OG001", "value": "24.8", "spread": "72.4"}, {"groupId": "OG002", "value": "27.2", "spread": "90.0"}, {"groupId": "OG003", "value": "14.6", "spread": "54.1"}, {"groupId": "OG004", "value": "16.3", "spread": "55.4"}, {"groupId": "OG005", "value": "10.7", "spread": "60.2"}]}]}], "analyses": [{"groupIds": ["OG000", "OG001", "OG002", "OG003", "OG004", "OG005"], "nonInferiorityType": "SUPERIORITY", "pValue": "0.5183", "pValueComment": "Linear dose-response shape: The multiple comparison procedures (MCP) approach was applied to calculate the adjusted one-sided p-values of the contrast test.", "statisticalMethod": "MCP-Mod method", "statisticalComment": "Dose response relationship was assessed using the MCP-Mod method combining MCP principles with modeling techniques."}, {"groupIds": ["OG000", "OG001", "OG002", "OG003", "OG004", "OG005"], "nonInferiorityType": "SUPERIORITY", "pValue": "0.3300", "pValueComment": "Sigmoidal Emax 1 dose-response shape: The MCP approach was applied to calculate the adjusted one-sided p-values of the contrast test.", "statisticalMethod": "MCP-Mod method", "statisticalComment": "Dose response relationship was assessed using the MCP-Mod method combining MCP principles with modeling techniques"}, {"groupIds": ["OG000", "OG001", "OG002", "OG003", "OG004", "OG005"], "nonInferiorityType": "SUPERIORITY", "pValue": "0.6232", "pValueComment": "Sigmoidal Emax 2 dose-response shape: The MCP approach was applied to calculate the adjusted one-sided p-values of the contrast test.", "statisticalMethod": "MCP-Mod method", "statisticalComment": "Dose response relationship was assessed using the MCP-Mod method combining MCP principles with modeling techniques"}, {"groupIds": ["OG000", "OG001", "OG002", "OG003", "OG004", "OG005"], "nonInferiorityType": "SUPERIORITY", "pValue": "0.0918", "pValueComment": "Emax dose-response shape: The MCP approach was applied to calculate the adjusted one-sided p-values of the contrast test.", "statisticalMethod": "MCP-Mod method", "statisticalComment": "Dose response relationship was assessed using the MCP-Mod method combining MCP principles with modeling techniques"}, {"groupIds": ["OG000", "OG001", "OG002", "OG003", "OG004", "OG005"], "nonInferiorityType": "SUPERIORITY", "pValue": "0.2701", "pValueComment": "Quadratic dose-response shape: The MCP approach was applied to calculate the adjusted one-sided p-values of the contrast test.", "statisticalMethod": "MCP-Mod method", "statisticalComment": "Dose response relationship was assessed using the MCP-Mod method combining MCP principles with modeling techniques"}]}, {"type": "SECONDARY", "title": "Change From Baseline in Average Weekly Percentage of Maximum Possible Recorded Activity Intensity", "description": "AVIVO\u2122 Mobile Patient Management System, a wearable wireless device worn by the subject, was used to monitor subjects' cardiovascular status. The patient's everyday physical activity e.g. duration, intensity, was also tracked by the AVIVO device. For Activity Intensity, the Unit of Measure is \"percentage of maximum activity\", and length of intervals is \"daily\".", "populationDescription": "Per-protocol set (PPS): Included all full analysis set (FAS) population subjects without validity findings for this outcome measure", "reportingStatus": "POSTED", "paramType": "MEAN", "dispersionType": "Standard Deviation", "unitOfMeasure": "percentage of maximum activity", "timeFrame": "Baseline, and up to 20 weeks of treatment", "groups": [{"id": "OG000", "title": "Placebo", "description": "Subjects received placebo matched to neladenoson bialanate tablets orally for 20 weeks"}, {"id": "OG001", "title": "Neladenoson Bialanate 5 mg", "description": "Subjects received 5 milligrams (mg) of neladenoson bialanate tablets orally for 20 weeks"}, {"id": "OG002", "title": "Neladenoson Bialanate 10 mg", "description": "Subjects received 10 mg of neladenoson bialanate tablets orally for 20 weeks"}, {"id": "OG003", "title": "Neladenoson Bialanate 20 mg", "description": "Subjects received 20 mg of neladenoson bialanate tablets orally for 20 weeks"}, {"id": "OG004", "title": "Neladenoson Bialanate 30 mg", "description": "Subjects received 30 mg of neladenoson bialanate tablets orally for 20 weeks"}, {"id": "OG005", "title": "Neladenoson Bialanate 40 mg", "description": "Subjects received 40 mg of neladenoson bialanate tablets orally for 20 weeks"}], "denoms": [{"units": "Participants", "counts": [{"groupId": "OG000", "value": "56"}, {"groupId": "OG001", "value": "20"}, {"groupId": "OG002", "value": "39"}, {"groupId": "OG003", "value": "35"}, {"groupId": "OG004", "value": "32"}, {"groupId": "OG005", "value": "33"}]}], "classes": [{"title": "Value at visit Baseline", "denoms": [{"units": "Participants", "counts": [{"groupId": "OG000", "value": "56"}, {"groupId": "OG001", "value": "20"}, {"groupId": "OG002", "value": "39"}, {"groupId": "OG003", "value": "35"}, {"groupId": "OG004", "value": "32"}, {"groupId": "OG005", "value": "33"}]}], "categories": [{"measurements": [{"groupId": "OG000", "value": "2.83", "spread": "1.03"}, {"groupId": "OG001", "value": "2.76", "spread": "0.72"}, {"groupId": "OG002", "value": "2.83", "spread": "0.95"}, {"groupId": "OG003", "value": "2.51", "spread": "0.91"}, {"groupId": "OG004", "value": "2.61", "spread": "0.94"}, {"groupId": "OG005", "value": "2.43", "spread": "0.57"}]}]}, {"title": "Change from baseline at Week 20", "denoms": [{"units": "Participants", "counts": [{"groupId": "OG000", "value": "52"}, {"groupId": "OG001", "value": "20"}, {"groupId": "OG002", "value": "34"}, {"groupId": "OG003", "value": "33"}, {"groupId": "OG004", "value": "30"}, {"groupId": "OG005", "value": "32"}]}], "categories": [{"measurements": [{"groupId": "OG000", "value": "-0.19", "spread": "0.58"}, {"groupId": "OG001", "value": "-0.25", "spread": "0.51"}, {"groupId": "OG002", "value": "-0.12", "spread": "0.58"}, {"groupId": "OG003", "value": "-0.08", "spread": "0.67"}, {"groupId": "OG004", "value": "-0.18", "spread": "0.57"}, {"groupId": "OG005", "value": "-0.14", "spread": "0.57"}]}]}]}, {"type": "SECONDARY", "title": "Measured Values (Log Transformed) and Absolute Change in NT-proBNP From Baseline to 20 Weeks", "description": "NT-proBNP = N-terminal pro-hormone b-type natriuretic peptide", "populationDescription": "Per-protocol set (PPS): Included all full analysis set (FAS) population subjects without validity findings for this outcome measure", "reportingStatus": "POSTED", "paramType": "MEDIAN", "dispersionType": "Full Range", "unitOfMeasure": "log (pg/ml)", "timeFrame": "Baseline, and up to 20 weeks of treatment", "groups": [{"id": "OG000", "title": "Placebo", "description": "Subjects received placebo matched to neladenoson bialanate tablets orally for 20 weeks"}, {"id": "OG001", "title": "Neladenoson Bialanate 5 mg", "description": "Subjects received 5 milligrams (mg) of neladenoson bialanate tablets orally for 20 weeks"}, {"id": "OG002", "title": "Neladenoson Bialanate 10 mg", "description": "Subjects received 10 mg of neladenoson bialanate tablets orally for 20 weeks"}, {"id": "OG003", "title": "Neladenoson Bialanate 20 mg", "description": "Subjects received 20 mg of neladenoson bialanate tablets orally for 20 weeks"}, {"id": "OG004", "title": "Neladenoson Bialanate 30 mg", "description": "Subjects received 30 mg of neladenoson bialanate tablets orally for 20 weeks"}, {"id": "OG005", "title": "Neladenoson Bialanate 40 mg", "description": "Subjects received 40 mg of neladenoson bialanate tablets orally for 20 weeks"}], "denoms": [{"units": "Participants", "counts": [{"groupId": "OG000", "value": "62"}, {"groupId": "OG001", "value": "21"}, {"groupId": "OG002", "value": "44"}, {"groupId": "OG003", "value": "39"}, {"groupId": "OG004", "value": "33"}, {"groupId": "OG005", "value": "36"}]}], "classes": [{"title": "Value at baseline", "denoms": [{"units": "Participants", "counts": [{"groupId": "OG000", "value": "62"}, {"groupId": "OG001", "value": "21"}, {"groupId": "OG002", "value": "44"}, {"groupId": "OG003", "value": "39"}, {"groupId": "OG004", "value": "33"}, {"groupId": "OG005", "value": "36"}]}], "categories": [{"measurements": [{"groupId": "OG000", "value": "6.80", "lowerLimit": "4.0", "upperLimit": "8.0"}, {"groupId": "OG001", "value": "6.78", "lowerLimit": "4.9", "upperLimit": "8.1"}, {"groupId": "OG002", "value": "6.81", "lowerLimit": "4.8", "upperLimit": "8.2"}, {"groupId": "OG003", "value": "6.73", "lowerLimit": "5.2", "upperLimit": "8.7"}, {"groupId": "OG004", "value": "6.68", "lowerLimit": "4.5", "upperLimit": "8.0"}, {"groupId": "OG005", "value": "6.64", "lowerLimit": "4.1", "upperLimit": "8.8"}]}]}, {"title": "Absolute change from baseline to Week 20", "denoms": [{"units": "Participants", "counts": [{"groupId": "OG000", "value": "60"}, {"groupId": "OG001", "value": "20"}, {"groupId": "OG002", "value": "43"}, {"groupId": "OG003", "value": "38"}, {"groupId": "OG004", "value": "32"}, {"groupId": "OG005", "value": "36"}]}], "categories": [{"measurements": [{"groupId": "OG000", "value": "-0.07", "lowerLimit": "-1.3", "upperLimit": "1.6"}, {"groupId": "OG001", "value": "0.08", "lowerLimit": "-3.0", "upperLimit": "0.9"}, {"groupId": "OG002", "value": "0.13", "lowerLimit": "-1.7", "upperLimit": "1.6"}, {"groupId": "OG003", "value": "0.06", "lowerLimit": "-1.2", "upperLimit": "2.3"}, {"groupId": "OG004", "value": "0.09", "lowerLimit": "-1.3", "upperLimit": "0.9"}, {"groupId": "OG005", "value": "0.19", "lowerLimit": "-1.0", "upperLimit": "2.9"}]}]}]}, {"type": "SECONDARY", "title": "Measured Values (Log-transformed) and Absolute Change in High Sensitivity Troponin T (Hs-TNT) From Baseline to 20 Weeks", "description": "High sensitivity troponin T (hs-TNT) was measured", "populationDescription": "Per-protocol set (PPS): Included all full analysis set (FAS) population subjects without validity findings for this outcome measure", "reportingStatus": "POSTED", "paramType": "MEDIAN", "dispersionType": "Full Range", "unitOfMeasure": "log(pg/mL)", "timeFrame": "Baseline, and up to 20 weeks of treatment", "groups": [{"id": "OG000", "title": "Placebo", "description": "Subjects received placebo matched to neladenoson bialanate tablets orally for 20 weeks"}, {"id": "OG001", "title": "Neladenoson Bialanate 5 mg", "description": "Subjects received 5 milligrams (mg) of neladenoson bialanate tablets orally for 20 weeks"}, {"id": "OG002", "title": "Neladenoson Bialanate 10 mg", "description": "Subjects received 10 mg of neladenoson bialanate tablets orally for 20 weeks"}, {"id": "OG003", "title": "Neladenoson Bialanate 20 mg", "description": "Subjects received 20 mg of neladenoson bialanate tablets orally for 20 weeks"}, {"id": "OG004", "title": "Neladenoson Bialanate 30 mg", "description": "Subjects received 30 mg of neladenoson bialanate tablets orally for 20 weeks"}, {"id": "OG005", "title": "Neladenoson Bialanate 40 mg", "description": "Subjects received 40 mg of neladenoson bialanate tablets orally for 20 weeks"}], "denoms": [{"units": "Participants", "counts": [{"groupId": "OG000", "value": "63"}, {"groupId": "OG001", "value": "22"}, {"groupId": "OG002", "value": "44"}, {"groupId": "OG003", "value": "38"}, {"groupId": "OG004", "value": "33"}, {"groupId": "OG005", "value": "37"}]}], "classes": [{"title": "Value at baseline", "denoms": [{"units": "Participants", "counts": [{"groupId": "OG000", "value": "63"}, {"groupId": "OG001", "value": "22"}, {"groupId": "OG002", "value": "44"}, {"groupId": "OG003", "value": "38"}, {"groupId": "OG004", "value": "33"}, {"groupId": "OG005", "value": "37"}]}], "categories": [{"measurements": [{"groupId": "OG000", "value": "2.92", "lowerLimit": "1.9", "upperLimit": "4.4"}, {"groupId": "OG001", "value": "3.25", "lowerLimit": "1.9", "upperLimit": "4.7"}, {"groupId": "OG002", "value": "2.95", "lowerLimit": "1.9", "upperLimit": "4.7"}, {"groupId": "OG003", "value": "2.76", "lowerLimit": "1.9", "upperLimit": "4.2"}, {"groupId": "OG004", "value": "2.73", "lowerLimit": "1.9", "upperLimit": "3.9"}, {"groupId": "OG005", "value": "2.76", "lowerLimit": "1.9", "upperLimit": "4.8"}]}]}, {"title": "Absolute change from baseline to Week 20", "denoms": [{"units": "Participants", "counts": [{"groupId": "OG000", "value": "60"}, {"groupId": "OG001", "value": "22"}, {"groupId": "OG002", "value": "44"}, {"groupId": "OG003", "value": "38"}, {"groupId": "OG004", "value": "33"}, {"groupId": "OG005", "value": "36"}]}], "categories": [{"measurements": [{"groupId": "OG000", "value": "0.00", "lowerLimit": "-1.4", "upperLimit": "1.6"}, {"groupId": "OG001", "value": "0.02", "lowerLimit": "-0.9", "upperLimit": "0.9"}, {"groupId": "OG002", "value": "0.00", "lowerLimit": "-0.7", "upperLimit": "1.1"}, {"groupId": "OG003", "value": "0.12", "lowerLimit": "-0.8", "upperLimit": "1.5"}, {"groupId": "OG004", "value": "0.13", "lowerLimit": "-0.4", "upperLimit": "1.2"}, {"groupId": "OG005", "value": "0.01", "lowerLimit": "-0.8", "upperLimit": "0.9"}]}]}]}, {"type": "SECONDARY", "title": "Measured Values and Absolute Change in 3 Scores From Kansas City Cardiomyopathy Questionnaire (KCCQ) From Baseline to 20 Weeks: Overall Summary Score, Physical Limitation Score and Total Symptom Score", "description": "The KCCQ is the leading health-related quality-of-life measure for patients with chronic heart failure (CHF). It is a 23-item questionnaire that independently measures the impact of patient's heart failure (HF), or its treatment, on 7 distinct domains: 1) Symptom Frequency 2) Symptom Burden 3) Physical Limitation 4) Quality of Life 5) Social Limitations 6) Self-efficacy 7) Symptoms Stability.\n\nOverall summary score= mean score of (symptom frequency + symptom burden+ physical limitation + quality of life + social limitation); scores on a scale of 0 to 100, higher scores means better outcome; Physical Limitation: scores on a scale of 0 to 100, higher scores means better outcome; Total symptom score=mean score of (symptom frequency + symptom burden): scores on a scale of 0 to 100, higher scores means better outcome.\n\nPositive change means improvement and negative change means deterioration.", "populationDescription": "Per-protocol set (PPS): Included all full analysis set (FAS) population subjects without validity findings for this outcome measure", "reportingStatus": "POSTED", "paramType": "MEAN", "dispersionType": "Standard Deviation", "unitOfMeasure": "scores on a scale", "timeFrame": "Baseline, and up to 20 weeks of treatment", "groups": [{"id": "OG000", "title": "Placebo", "description": "Subjects received placebo matched to neladenoson bialanate tablets orally for 20 weeks"}, {"id": "OG001", "title": "Neladenoson Bialanate 5 mg", "description": "Subjects received 5 milligrams (mg) of neladenoson bialanate tablets orally for 20 weeks"}, {"id": "OG002", "title": "Neladenoson Bialanate 10 mg", "description": "Subjects received 10 mg of neladenoson bialanate tablets orally for 20 weeks"}, {"id": "OG003", "title": "Neladenoson Bialanate 20 mg", "description": "Subjects received 20 mg of neladenoson bialanate tablets orally for 20 weeks"}, {"id": "OG004", "title": "Neladenoson Bialanate 30 mg", "description": "Subjects received 30 mg of neladenoson bialanate tablets orally for 20 weeks"}, {"id": "OG005", "title": "Neladenoson Bialanate 40 mg", "description": "Subjects received 40 mg of neladenoson bialanate tablets orally for 20 weeks"}], "denoms": [{"units": "Participants", "counts": [{"groupId": "OG000", "value": "65"}, {"groupId": "OG001", "value": "22"}, {"groupId": "OG002", "value": "44"}, {"groupId": "OG003", "value": "41"}, {"groupId": "OG004", "value": "34"}, {"groupId": "OG005", "value": "37"}]}], "classes": [{"title": "Overall Summary Score Baseline", "denoms": [{"units": "Participants", "counts": [{"groupId": "OG000", "value": "65"}, {"groupId": "OG001", "value": "22"}, {"groupId": "OG002", "value": "44"}, {"groupId": "OG003", "value": "41"}, {"groupId": "OG004", "value": "34"}, {"groupId": "OG005", "value": "37"}]}], "categories": [{"measurements": [{"groupId": "OG000", "value": "69.19", "spread": "18.02"}, {"groupId": "OG001", "value": "64.75", "spread": "23.99"}, {"groupId": "OG002", "value": "66.42", "spread": "21.21"}, {"groupId": "OG003", "value": "64.57", "spread": "20.73"}, {"groupId": "OG004", "value": "63.67", "spread": "17.76"}, {"groupId": "OG005", "value": "64.65", "spread": "18.07"}]}]}, {"title": "Overall Summary Score Change from baseline", "denoms": [{"units": "Participants", "counts": [{"groupId": "OG000", "value": "65"}, {"groupId": "OG001", "value": "22"}, {"groupId": "OG002", "value": "44"}, {"groupId": "OG003", "value": "41"}, {"groupId": "OG004", "value": "33"}, {"groupId": "OG005", "value": "37"}]}], "categories": [{"measurements": [{"groupId": "OG000", "value": "3.38", "spread": "13.55"}, {"groupId": "OG001", "value": "7.04", "spread": "17.24"}, {"groupId": "OG002", "value": "-1.33", "spread": "20.61"}, {"groupId": "OG003", "value": "3.73", "spread": "13.03"}, {"groupId": "OG004", "value": "0.27", "spread": "14.83"}, {"groupId": "OG005", "value": "2.25", "spread": "14.25"}]}]}, {"title": "Physical Limitation Score Baseline", "denoms": [{"units": "Participants", "counts": [{"groupId": "OG000", "value": "65"}, {"groupId": "OG001", "value": "22"}, {"groupId": "OG002", "value": "44"}, {"groupId": "OG003", "value": "41"}, {"groupId": "OG004", "value": "34"}, {"groupId": "OG005", "value": "37"}]}], "categories": [{"measurements": [{"groupId": "OG000", "value": "69.07", "spread": "19.43"}, {"groupId": "OG001", "value": "63.18", "spread": "25.24"}, {"groupId": "OG002", "value": "68.03", "spread": "22.79"}, {"groupId": "OG003", "value": "69.35", "spread": "22.64"}, {"groupId": "OG004", "value": "64.53", "spread": "22.47"}, {"groupId": "OG005", "value": "63.12", "spread": "23.44"}]}]}, {"title": "Physical Limitation Score Change from baseline", "denoms": [{"units": "Participants", "counts": [{"groupId": "OG000", "value": "65"}, {"groupId": "OG001", "value": "22"}, {"groupId": "OG002", "value": "43"}, {"groupId": "OG003", "value": "40"}, {"groupId": "OG004", "value": "33"}, {"groupId": "OG005", "value": "37"}]}], "categories": [{"measurements": [{"groupId": "OG000", "value": "2.18", "spread": "17.54"}, {"groupId": "OG001", "value": "1.40", "spread": "17.62"}, {"groupId": "OG002", "value": "-1.34", "spread": "22.56"}, {"groupId": "OG003", "value": "0.92", "spread": "14.65"}, {"groupId": "OG004", "value": "-3.75", "spread": "22.10"}, {"groupId": "OG005", "value": "2.17", "spread": "17.32"}]}]}, {"title": "Total Symptom Score Baseline", "denoms": [{"units": "Participants", "counts": [{"groupId": "OG000", "value": "65"}, {"groupId": "OG001", "value": "22"}, {"groupId": "OG002", "value": "44"}, {"groupId": "OG003", "value": "41"}, {"groupId": "OG004", "value": "34"}, {"groupId": "OG005", "value": "37"}]}], "categories": [{"measurements": [{"groupId": "OG000", "value": "76.78", "spread": "19.64"}, {"groupId": "OG001", "value": "72.25", "spread": "21.73"}, {"groupId": "OG002", "value": "68.99", "spread": "23.13"}, {"groupId": "OG003", "value": "69.99", "spread": "20.18"}, {"groupId": "OG004", "value": "68.00", "spread": "20.09"}, {"groupId": "OG005", "value": "71.03", "spread": "18.80"}]}]}, {"title": "Total Symptom Score Change from baseline", "denoms": [{"units": "Participants", "counts": [{"groupId": "OG000", "value": "65"}, {"groupId": "OG001", "value": "22"}, {"groupId": "OG002", "value": "44"}, {"groupId": "OG003", "value": "41"}, {"groupId": "OG004", "value": "33"}, {"groupId": "OG005", "value": "37"}]}], "categories": [{"measurements": [{"groupId": "OG000", "value": "2.96", "spread": "15.85"}, {"groupId": "OG001", "value": "5.82", "spread": "17.51"}, {"groupId": "OG002", "value": "0.14", "spread": "19.08"}, {"groupId": "OG003", "value": "3.56", "spread": "14.04"}, {"groupId": "OG004", "value": "2.54", "spread": "16.79"}, {"groupId": "OG005", "value": "2.62", "spread": "16.04"}]}]}]}]}, "adverseEventsModule": {"frequencyThreshold": "5", "timeFrame": "From start of study drug administration up to 26 weeks", "eventGroups": [{"id": "EG000", "title": "Placebo", "description": "Subjects received placebo matched to neladenoson bialanate tablets orally for 20 weeks.", "deathsNumAffected": 2, "deathsNumAtRisk": 76, "seriousNumAffected": 21, "seriousNumAtRisk": 76, "otherNumAffected": 24, "otherNumAtRisk": 76}, {"id": "EG001", "title": "Neladenoson Bialanate 5mg", "description": "Subjects received 5 mg of neladenoson bialanate tablets orally for 20 weeks.", "deathsNumAffected": 0, "deathsNumAtRisk": 27, "seriousNumAffected": 9, "seriousNumAtRisk": 27, "otherNumAffected": 13, "otherNumAtRisk": 27}, {"id": "EG002", "title": "Neladenoson Bialanate 10mg", "description": "Subjects received 10 mg of neladenoson bialanate tablets orally for 20 weeks.", "deathsNumAffected": 2, "deathsNumAtRisk": 50, "seriousNumAffected": 11, "seriousNumAtRisk": 50, "otherNumAffected": 14, "otherNumAtRisk": 50}, {"id": "EG003", "title": "Neladenoson Bialanate 20mg", "description": "Subjects received 20 mg of neladenoson bialanate tablets orally for 20 weeks.", "deathsNumAffected": 1, "deathsNumAtRisk": 51, "seriousNumAffected": 11, "seriousNumAtRisk": 51, "otherNumAffected": 22, "otherNumAtRisk": 51}, {"id": "EG004", "title": "Neladenoson Bialanate 30mg", "description": "Subjects received 30 mg of neladenoson bialanate tablets orally for 20 weeks.", "deathsNumAffected": 1, "deathsNumAtRisk": 50, "seriousNumAffected": 14, "seriousNumAtRisk": 50, "otherNumAffected": 17, "otherNumAtRisk": 50}, {"id": "EG005", "title": "Neladenoson Bialanate 40mg", "description": "Subjects received 40 mg of neladenoson bialanate tablets orally for 20 weeks.", "deathsNumAffected": 1, "deathsNumAtRisk": 51, "seriousNumAffected": 16, "seriousNumAtRisk": 51, "otherNumAffected": 24, "otherNumAtRisk": 51}], "seriousEvents": [{"term": "Anaemia", "organSystem": "Blood and lymphatic system disorders", "sourceVocabulary": "MedDRA (21.0)", "assessmentType": "NON_SYSTEMATIC_ASSESSMENT", "stats": [{"groupId": "EG000", "numEvents": 0, "numAffected": 0, "numAtRisk": 76}, {"groupId": "EG001", "numEvents": 0, "numAffected": 0, "numAtRisk": 27}, {"groupId": "EG002", "numEvents": 0, "numAffected": 0, "numAtRisk": 50}, {"groupId": "EG003", "numEvents": 0, "numAffected": 0, "numAtRisk": 51}, {"groupId": "EG004", "numEvents": 1, "numAffected": 1, "numAtRisk": 50}, {"groupId": "EG005", "numEvents": 0, "numAffected": 0, "numAtRisk": 51}]}, {"term": "Acute myocardial infarction", "organSystem": "Cardiac disorders", "sourceVocabulary": "MedDRA (21.0)", "assessmentType": "NON_SYSTEMATIC_ASSESSMENT", "stats": [{"groupId": "EG000", "numEvents": 1, "numAffected": 1, "numAtRisk": 76}, {"groupId": "EG001", "numEvents": 0, "numAffected": 0, "numAtRisk": 27}, {"groupId": "EG002", "numEvents": 0, "numAffected": 0, "numAtRisk": 50}, {"groupId": "EG003", "numEvents": 1, "numAffected": 1, "numAtRisk": 51}, {"groupId": "EG004", "numEvents": 1, "numAffected": 1, "numAtRisk": 50}, {"groupId": "EG005", "numEvents": 0, "numAffected": 0, "numAtRisk": 51}]}, {"term": "Arteriosclerosis coronary artery", "organSystem": "Cardiac disorders", "sourceVocabulary": "MedDRA (21.0)", "assessmentType": "NON_SYSTEMATIC_ASSESSMENT", "stats": [{"groupId": "EG000", "numEvents": 1, "numAffected": 1, "numAtRisk": 76}, {"groupId": "EG001", "numEvents": 0, "numAffected": 0, "numAtRisk": 27}, {"groupId": "EG002", "numEvents": 0, "numAffected": 0, "numAtRisk": 50}, {"groupId": "EG003", "numEvents": 0, "numAffected": 0, "numAtRisk": 51}, {"groupId": "EG004", "numEvents": 0, "numAffected": 0, "numAtRisk": 50}, {"groupId": "EG005", "numEvents": 0, "numAffected": 0, "numAtRisk": 51}]}, {"term": "Atrial fibrillation", "organSystem": "Cardiac disorders", "sourceVocabulary": "MedDRA (21.0)", "assessmentType": "NON_SYSTEMATIC_ASSESSMENT", "stats": [{"groupId": "EG000", "numEvents": 1, "numAffected": 1, "numAtRisk": 76}, {"groupId": "EG001", "numEvents": 0, "numAffected": 0, "numAtRisk": 27}, {"groupId": "EG002", "numEvents": 0, "numAffected": 0, "numAtRisk": 50}, {"groupId": "EG003", "numEvents": 1, "numAffected": 1, "numAtRisk": 51}, {"groupId": "EG004", "numEvents": 0, "numAffected": 0, "numAtRisk": 50}, {"groupId": "EG005", "numEvents": 2, "numAffected": 2, "numAtRisk": 51}]}, {"term": "Atrial flutter", "organSystem": "Cardiac disorders", "sourceVocabulary": "MedDRA (21.0)", "assessmentType": "NON_SYSTEMATIC_ASSESSMENT", "stats": [{"groupId": "EG000", "numEvents": 1, "numAffected": 1, "numAtRisk": 76}, {"groupId": "EG001", "numEvents": 0, "numAffected": 0, "numAtRisk": 27}, {"groupId": "EG002", "numEvents": 0, "numAffected": 0, "numAtRisk": 50}, {"groupId": "EG003", "numEvents": 0, "numAffected": 0, "numAtRisk": 51}, {"groupId": "EG004", "numEvents": 1, "numAffected": 1, "numAtRisk": 50}, {"groupId": "EG005", "numEvents": 0, "numAffected": 0, "numAtRisk": 51}]}, {"term": "Bradycardia", "organSystem": "Cardiac disorders", "sourceVocabulary": "MedDRA (21.0)", "assessmentType": "NON_SYSTEMATIC_ASSESSMENT", "stats": [{"groupId": "EG000", "numEvents": 1, "numAffected": 1, "numAtRisk": 76}, {"groupId": "EG001", "numEvents": 0, "numAffected": 0, "numAtRisk": 27}, {"groupId": "EG002", "numEvents": 0, "numAffected": 0, "numAtRisk": 50}, {"groupId": "EG003", "numEvents": 0, "numAffected": 0, "numAtRisk": 51}, {"groupId": "EG004", "numEvents": 0, "numAffected": 0, "numAtRisk": 50}, {"groupId": "EG005", "numEvents": 0, "numAffected": 0, "numAtRisk": 51}]}, {"term": "Cardiac arrest", "organSystem": "Cardiac disorders", "sourceVocabulary": "MedDRA (21.0)", "assessmentType": "NON_SYSTEMATIC_ASSESSMENT", "stats": [{"groupId": "EG000", "numEvents": 1, "numAffected": 1, "numAtRisk": 76}, {"groupId": "EG001", "numEvents": 0, "numAffected": 0, "numAtRisk": 27}, {"groupId": "EG002", "numEvents": 0, "numAffected": 0, "numAtRisk": 50}, {"groupId": "EG003", "numEvents": 0, "numAffected": 0, "numAtRisk": 51}, {"groupId": "EG004", "numEvents": 0, "numAffected": 0, "numAtRisk": 50}, {"groupId": "EG005", "numEvents": 0, "numAffected": 0, "numAtRisk": 51}]}, {"term": "Cardiac failure", "organSystem": "Cardiac disorders", "sourceVocabulary": "MedDRA (21.0)", "assessmentType": "NON_SYSTEMATIC_ASSESSMENT", "stats": [{"groupId": "EG000", "numEvents": 2, "numAffected": 2, "numAtRisk": 76}, {"groupId": "EG001", "numEvents": 2, "numAffected": 2, "numAtRisk": 27}, {"groupId": "EG002", "numEvents": 3, "numAffected": 3, "numAtRisk": 50}, {"groupId": "EG003", "numEvents": 4, "numAffected": 4, "numAtRisk": 51}, {"groupId": "EG004", "numEvents": 2, "numAffected": 2, "numAtRisk": 50}, {"groupId": "EG005", "numEvents": 8, "numAffected": 7, "numAtRisk": 51}]}, {"term": "Cardiac failure acute", "organSystem": "Cardiac disorders", "sourceVocabulary": "MedDRA (21.0)", "assessmentType": "NON_SYSTEMATIC_ASSESSMENT", "stats": [{"groupId": "EG000", "numEvents": 1, "numAffected": 1, "numAtRisk": 76}, {"groupId": "EG001", "numEvents": 1, "numAffected": 1, "numAtRisk": 27}, {"groupId": "EG002", "numEvents": 0, "numAffected": 0, "numAtRisk": 50}, {"groupId": "EG003", "numEvents": 0, "numAffected": 0, "numAtRisk": 51}, {"groupId": "EG004", "numEvents": 0, "numAffected": 0, "numAtRisk": 50}, {"groupId": "EG005", "numEvents": 0, "numAffected": 0, "numAtRisk": 51}]}, {"term": "Cardiac failure chronic", "organSystem": "Cardiac disorders", "sourceVocabulary": "MedDRA (21.0)", "assessmentType": "NON_SYSTEMATIC_ASSESSMENT", "stats": [{"groupId": "EG000", "numEvents": 0, "numAffected": 0, "numAtRisk": 76}, {"groupId": "EG001", "numEvents": 0, "numAffected": 0, "numAtRisk": 27}, {"groupId": "EG002", "numEvents": 0, "numAffected": 0, "numAtRisk": 50}, {"groupId": "EG003", "numEvents": 0, "numAffected": 0, "numAtRisk": 51}, {"groupId": "EG004", "numEvents": 1, "numAffected": 1, "numAtRisk": 50}, {"groupId": "EG005", "numEvents": 0, "numAffected": 0, "numAtRisk": 51}]}, {"term": "Cardiac failure congestive", "organSystem": "Cardiac disorders", "sourceVocabulary": "MedDRA (21.0)", "assessmentType": "NON_SYSTEMATIC_ASSESSMENT", "stats": [{"groupId": "EG000", "numEvents": 7, "numAffected": 3, "numAtRisk": 76}, {"groupId": "EG001", "numEvents": 0, "numAffected": 0, "numAtRisk": 27}, {"groupId": "EG002", "numEvents": 0, "numAffected": 0, "numAtRisk": 50}, {"groupId": "EG003", "numEvents": 0, "numAffected": 0, "numAtRisk": 51}, {"groupId": "EG004", "numEvents": 0, "numAffected": 0, "numAtRisk": 50}, {"groupId": "EG005", "numEvents": 0, "numAffected": 0, "numAtRisk": 51}]}, {"term": "Coronary artery disease", "organSystem": "Cardiac disorders", "sourceVocabulary": "MedDRA (21.0)", "assessmentType": "NON_SYSTEMATIC_ASSESSMENT", "stats": [{"groupId": "EG000", "numEvents": 0, "numAffected": 0, "numAtRisk": 76}, {"groupId": "EG001", "numEvents": 0, "numAffected": 0, "numAtRisk": 27}, {"groupId": "EG002", "numEvents": 0, "numAffected": 0, "numAtRisk": 50}, {"groupId": "EG003", "numEvents": 1, "numAffected": 1, "numAtRisk": 51}, {"groupId": "EG004", "numEvents": 0, "numAffected": 0, "numAtRisk": 50}, {"groupId": "EG005", "numEvents": 0, "numAffected": 0, "numAtRisk": 51}]}, {"term": "Mitral valve incompetence", "organSystem": "Cardiac disorders", "sourceVocabulary": "MedDRA (21.0)", "assessmentType": "NON_SYSTEMATIC_ASSESSMENT", "stats": [{"groupId": "EG000", "numEvents": 1, "numAffected": 1, "numAtRisk": 76}, {"groupId": "EG001", "numEvents": 0, "numAffected": 0, "numAtRisk": 27}, {"groupId": "EG002", "numEvents": 0, "numAffected": 0, "numAtRisk": 50}, {"groupId": "EG003", "numEvents": 1, "numAffected": 1, "numAtRisk": 51}, {"groupId": "EG004", "numEvents": 0, "numAffected": 0, "numAtRisk": 50}, {"groupId": "EG005", "numEvents": 0, "numAffected": 0, "numAtRisk": 51}]}, {"term": "Sinoatrial block", "organSystem": "Cardiac disorders", "sourceVocabulary": "MedDRA (21.0)", "assessmentType": "NON_SYSTEMATIC_ASSESSMENT", "stats": [{"groupId": "EG000", "numEvents": 0, "numAffected": 0, "numAtRisk": 76}, {"groupId": "EG001", "numEvents": 0, "numAffected": 0, "numAtRisk": 27}, {"groupId": "EG002", "numEvents": 0, "numAffected": 0, "numAtRisk": 50}, {"groupId": "EG003", "numEvents": 0, "numAffected": 0, "numAtRisk": 51}, {"groupId": "EG004", "numEvents": 0, "numAffected": 0, "numAtRisk": 50}, {"groupId": "EG005", "numEvents": 1, "numAffected": 1, "numAtRisk": 51}]}, {"term": "Sinus arrest", "organSystem": "Cardiac disorders", "sourceVocabulary": "MedDRA (21.0)", "assessmentType": "NON_SYSTEMATIC_ASSESSMENT", "stats": [{"groupId": "EG000", "numEvents": 0, "numAffected": 0, "numAtRisk": 76}, {"groupId": "EG001", "numEvents": 0, "numAffected": 0, "numAtRisk": 27}, {"groupId": "EG002", "numEvents": 0, "numAffected": 0, "numAtRisk": 50}, {"groupId": "EG003", "numEvents": 1, "numAffected": 1, "numAtRisk": 51}, {"groupId": "EG004", "numEvents": 0, "numAffected": 0, "numAtRisk": 50}, {"groupId": "EG005", "numEvents": 0, "numAffected": 0, "numAtRisk": 51}]}, {"term": "Sinus bradycardia", "organSystem": "Cardiac disorders", "sourceVocabulary": "MedDRA (21.0)", "assessmentType": "NON_SYSTEMATIC_ASSESSMENT", "stats": [{"groupId": "EG000", "numEvents": 0, "numAffected": 0, "numAtRisk": 76}, {"groupId": "EG001", "numEvents": 0, "numAffected": 0, "numAtRisk": 27}, {"groupId": "EG002", "numEvents": 0, "numAffected": 0, "numAtRisk": 50}, {"groupId": "EG003", "numEvents": 0, "numAffected": 0, "numAtRisk": 51}, {"groupId": "EG004", "numEvents": 1, "numAffected": 1, "numAtRisk": 50}, {"groupId": "EG005", "numEvents": 0, "numAffected": 0, "numAtRisk": 51}]}, {"term": "Tachycardia", "organSystem": "Cardiac disorders", "sourceVocabulary": "MedDRA (21.0)", "assessmentType": "NON_SYSTEMATIC_ASSESSMENT", "stats": [{"groupId": "EG000", "numEvents": 0, "numAffected": 0, "numAtRisk": 76}, {"groupId": "EG001", "numEvents": 0, "numAffected": 0, "numAtRisk": 27}, {"groupId": "EG002", "numEvents": 0, "numAffected": 0, "numAtRisk": 50}, {"groupId": "EG003", "numEvents": 0, "numAffected": 0, "numAtRisk": 51}, {"groupId": "EG004", "numEvents": 1, "numAffected": 1, "numAtRisk": 50}, {"groupId": "EG005", "numEvents": 0, "numAffected": 0, "numAtRisk": 51}]}, {"term": "Tricuspid valve incompetence", "organSystem": "Cardiac disorders", "sourceVocabulary": "MedDRA (21.0)", "assessmentType": "NON_SYSTEMATIC_ASSESSMENT", "stats": [{"groupId": "EG000", "numEvents": 1, "numAffected": 1, "numAtRisk": 76}, {"groupId": "EG001", "numEvents": 0, "numAffected": 0, "numAtRisk": 27}, {"groupId": "EG002", "numEvents": 0, "numAffected": 0, "numAtRisk": 50}, {"groupId": "EG003", "numEvents": 1, "numAffected": 1, "numAtRisk": 51}, {"groupId": "EG004", "numEvents": 0, "numAffected": 0, "numAtRisk": 50}, {"groupId": "EG005", "numEvents": 0, "numAffected": 0, "numAtRisk": 51}]}, {"term": "Ventricular extrasystoles", "organSystem": "Cardiac disorders", "sourceVocabulary": "MedDRA (21.0)", "assessmentType": "NON_SYSTEMATIC_ASSESSMENT", "stats": [{"groupId": "EG000", "numEvents": 0, "numAffected": 0, "numAtRisk": 76}, {"groupId": "EG001", "numEvents": 0, "numAffected": 0, "numAtRisk": 27}, {"groupId": "EG002", "numEvents": 0, "numAffected": 0, "numAtRisk": 50}, {"groupId": "EG003", "numEvents": 0, "numAffected": 0, "numAtRisk": 51}, {"groupId": "EG004", "numEvents": 0, "numAffected": 0, "numAtRisk": 50}, {"groupId": "EG005", "numEvents": 1, "numAffected": 1, "numAtRisk": 51}]}, {"term": "Ventricular tachycardia", "organSystem": "Cardiac disorders", "sourceVocabulary": "MedDRA (21.0)", "assessmentType": "NON_SYSTEMATIC_ASSESSMENT", "stats": [{"groupId": "EG000", "numEvents": 2, "numAffected": 2, "numAtRisk": 76}, {"groupId": "EG001", "numEvents": 0, "numAffected": 0, "numAtRisk": 27}, {"groupId": "EG002", "numEvents": 0, "numAffected": 0, "numAtRisk": 50}, {"groupId": "EG003", "numEvents": 0, "numAffected": 0, "numAtRisk": 51}, {"groupId": "EG004", "numEvents": 0, "numAffected": 0, "numAtRisk": 50}, {"groupId": "EG005", "numEvents": 1, "numAffected": 1, "numAtRisk": 51}]}, {"term": "Acute left ventricular failure", "organSystem": "Cardiac disorders", "sourceVocabulary": "MedDRA (21.0)", "assessmentType": "NON_SYSTEMATIC_ASSESSMENT", "stats": [{"groupId": "EG000", "numEvents": 0, "numAffected": 0, "numAtRisk": 76}, {"groupId": "EG001", "numEvents": 0, "numAffected": 0, "numAtRisk": 27}, {"groupId": "EG002", "numEvents": 0, "numAffected": 0, "numAtRisk": 50}, {"groupId": "EG003", "numEvents": 1, "numAffected": 1, "numAtRisk": 51}, {"groupId": "EG004", "numEvents": 0, "numAffected": 0, "numAtRisk": 50}, {"groupId": "EG005", "numEvents": 0, "numAffected": 0, "numAtRisk": 51}]}, {"term": "Vertigo", "organSystem": "Ear and labyrinth disorders", "sourceVocabulary": "MedDRA (21.0)", "assessmentType": "NON_SYSTEMATIC_ASSESSMENT", "stats": [{"groupId": "EG000", "numEvents": 0, "numAffected": 0, "numAtRisk": 76}, {"groupId": "EG001", "numEvents": 0, "numAffected": 0, "numAtRisk": 27}, {"groupId": "EG002", "numEvents": 0, "numAffected": 0, "numAtRisk": 50}, {"groupId": "EG003", "numEvents": 1, "numAffected": 1, "numAtRisk": 51}, {"groupId": "EG004", "numEvents": 0, "numAffected": 0, "numAtRisk": 50}, {"groupId": "EG005", "numEvents": 0, "numAffected": 0, "numAtRisk": 51}]}, {"term": "Cataract", "organSystem": "Eye disorders", "sourceVocabulary": "MedDRA (21.0)", "assessmentType": "NON_SYSTEMATIC_ASSESSMENT", "stats": [{"groupId": "EG000", "numEvents": 1, "numAffected": 1, "numAtRisk": 76}, {"groupId": "EG001", "numEvents": 0, "numAffected": 0, "numAtRisk": 27}, {"groupId": "EG002", "numEvents": 0, "numAffected": 0, "numAtRisk": 50}, {"groupId": "EG003", "numEvents": 0, "numAffected": 0, "numAtRisk": 51}, {"groupId": "EG004", "numEvents": 0, "numAffected": 0, "numAtRisk": 50}, {"groupId": "EG005", "numEvents": 0, "numAffected": 0, "numAtRisk": 51}]}, {"term": "Ascites", "organSystem": "Gastrointestinal disorders", "sourceVocabulary": "MedDRA (21.0)", "assessmentType": "NON_SYSTEMATIC_ASSESSMENT", "stats": [{"groupId": "EG000", "numEvents": 1, "numAffected": 1, "numAtRisk": 76}, {"groupId": "EG001", "numEvents": 0, "numAffected": 0, "numAtRisk": 27}, {"groupId": "EG002", "numEvents": 0, "numAffected": 0, "numAtRisk": 50}, {"groupId": "EG003", "numEvents": 0, "numAffected": 0, "numAtRisk": 51}, {"groupId": "EG004", "numEvents": 0, "numAffected": 0, "numAtRisk": 50}, {"groupId": "EG005", "numEvents": 0, "numAffected": 0, "numAtRisk": 51}]}, {"term": "Gastrointestinal haemorrhage", "organSystem": "Gastrointestinal disorders", "sourceVocabulary": "MedDRA (21.0)", "assessmentType": "NON_SYSTEMATIC_ASSESSMENT", "stats": [{"groupId": "EG000", "numEvents": 0, "numAffected": 0, "numAtRisk": 76}, {"groupId": "EG001", "numEvents": 0, "numAffected": 0, "numAtRisk": 27}, {"groupId": "EG002", "numEvents": 0, "numAffected": 0, "numAtRisk": 50}, {"groupId": "EG003", "numEvents": 0, "numAffected": 0, "numAtRisk": 51}, {"groupId": "EG004", "numEvents": 1, "numAffected": 1, "numAtRisk": 50}, {"groupId": "EG005", "numEvents": 0, "numAffected": 0, "numAtRisk": 51}]}, {"term": "Intestinal obstruction", "organSystem": "Gastrointestinal disorders", "sourceVocabulary": "MedDRA (21.0)", "assessmentType": "NON_SYSTEMATIC_ASSESSMENT", "stats": [{"groupId": "EG000", "numEvents": 0, "numAffected": 0, "numAtRisk": 76}, {"groupId": "EG001", "numEvents": 0, "numAffected": 0, "numAtRisk": 27}, {"groupId": "EG002", "numEvents": 1, "numAffected": 1, "numAtRisk": 50}, {"groupId": "EG003", "numEvents": 0, "numAffected": 0, "numAtRisk": 51}, {"groupId": "EG004", "numEvents": 0, "numAffected": 0, "numAtRisk": 50}, {"groupId": "EG005", "numEvents": 0, "numAffected": 0, "numAtRisk": 51}]}, {"term": "Mallory-Weiss syndrome", "organSystem": "Gastrointestinal disorders", "sourceVocabulary": "MedDRA (21.0)", "assessmentType": "NON_SYSTEMATIC_ASSESSMENT", "stats": [{"groupId": "EG000", "numEvents": 0, "numAffected": 0, "numAtRisk": 76}, {"groupId": "EG001", "numEvents": 0, "numAffected": 0, "numAtRisk": 27}, {"groupId": "EG002", "numEvents": 0, "numAffected": 0, "numAtRisk": 50}, {"groupId": "EG003", "numEvents": 1, "numAffected": 1, "numAtRisk": 51}, {"groupId": "EG004", "numEvents": 0, "numAffected": 0, "numAtRisk": 50}, {"groupId": "EG005", "numEvents": 0, "numAffected": 0, "numAtRisk": 51}]}, {"term": "Oedema peripheral", "organSystem": "General disorders", "sourceVocabulary": "MedDRA (21.0)", "assessmentType": "NON_SYSTEMATIC_ASSESSMENT", "stats": [{"groupId": "EG000", "numEvents": 0, "numAffected": 0, "numAtRisk": 76}, {"groupId": "EG001", "numEvents": 0, "numAffected": 0, "numAtRisk": 27}, {"groupId": "EG002", "numEvents": 0, "numAffected": 0, "numAtRisk": 50}, {"groupId": "EG003", "numEvents": 1, "numAffected": 1, "numAtRisk": 51}, {"groupId": "EG004", "numEvents": 0, "numAffected": 0, "numAtRisk": 50}, {"groupId": "EG005", "numEvents": 0, "numAffected": 0, "numAtRisk": 51}]}, {"term": "Cholangitis acute", "organSystem": "Hepatobiliary disorders", "sourceVocabulary": "MedDRA (21.0)", "assessmentType": "NON_SYSTEMATIC_ASSESSMENT", "stats": [{"groupId": "EG000", "numEvents": 0, "numAffected": 0, "numAtRisk": 76}, {"groupId": "EG001", "numEvents": 1, "numAffected": 1, "numAtRisk": 27}, {"groupId": "EG002", "numEvents": 0, "numAffected": 0, "numAtRisk": 50}, {"groupId": "EG003", "numEvents": 0, "numAffected": 0, "numAtRisk": 51}, {"groupId": "EG004", "numEvents": 0, "numAffected": 0, "numAtRisk": 50}, {"groupId": "EG005", "numEvents": 0, "numAffected": 0, "numAtRisk": 51}]}, {"term": "Hepatic function abnormal", "organSystem": "Hepatobiliary disorders", "sourceVocabulary": "MedDRA (21.0)", "assessmentType": "NON_SYSTEMATIC_ASSESSMENT", "stats": [{"groupId": "EG000", "numEvents": 0, "numAffected": 0, "numAtRisk": 76}, {"groupId": "EG001", "numEvents": 0, "numAffected": 0, "numAtRisk": 27}, {"groupId": "EG002", "numEvents": 0, "numAffected": 0, "numAtRisk": 50}, {"groupId": "EG003", "numEvents": 1, "numAffected": 1, "numAtRisk": 51}, {"groupId": "EG004", "numEvents": 0, "numAffected": 0, "numAtRisk": 50}, {"groupId": "EG005", "numEvents": 0, "numAffected": 0, "numAtRisk": 51}]}, {"term": "Bronchitis", "organSystem": "Infections and infestations", "sourceVocabulary": "MedDRA (21.0)", "assessmentType": "NON_SYSTEMATIC_ASSESSMENT", "stats": [{"groupId": "EG000", "numEvents": 1, "numAffected": 1, "numAtRisk": 76}, {"groupId": "EG001", "numEvents": 0, "numAffected": 0, "numAtRisk": 27}, {"groupId": "EG002", "numEvents": 0, "numAffected": 0, "numAtRisk": 50}, {"groupId": "EG003", "numEvents": 0, "numAffected": 0, "numAtRisk": 51}, {"groupId": "EG004", "numEvents": 0, "numAffected": 0, "numAtRisk": 50}, {"groupId": "EG005", "numEvents": 0, "numAffected": 0, "numAtRisk": 51}]}, {"term": "Influenza", "organSystem": "Infections and infestations", "sourceVocabulary": "MedDRA (21.0)", "assessmentType": "NON_SYSTEMATIC_ASSESSMENT", "stats": [{"groupId": "EG000", "numEvents": 0, "numAffected": 0, "numAtRisk": 76}, {"groupId": "EG001", "numEvents": 0, "numAffected": 0, "numAtRisk": 27}, {"groupId": "EG002", "numEvents": 0, "numAffected": 0, "numAtRisk": 50}, {"groupId": "EG003", "numEvents": 0, "numAffected": 0, "numAtRisk": 51}, {"groupId": "EG004", "numEvents": 1, "numAffected": 1, "numAtRisk": 50}, {"groupId": "EG005", "numEvents": 0, "numAffected": 0, "numAtRisk": 51}]}, {"term": "Otitis media chronic", "organSystem": "Infections and infestations", "sourceVocabulary": "MedDRA (21.0)", "assessmentType": "NON_SYSTEMATIC_ASSESSMENT", "stats": [{"groupId": "EG000", "numEvents": 2, "numAffected": 1, "numAtRisk": 76}, {"groupId": "EG001", "numEvents": 0, "numAffected": 0, "numAtRisk": 27}, {"groupId": "EG002", "numEvents": 0, "numAffected": 0, "numAtRisk": 50}, {"groupId": "EG003", "numEvents": 0, "numAffected": 0, "numAtRisk": 51}, {"groupId": "EG004", "numEvents": 0, "numAffected": 0, "numAtRisk": 50}, {"groupId": "EG005", "numEvents": 0, "numAffected": 0, "numAtRisk": 51}]}, {"term": "Pneumonia", "organSystem": "Infections and infestations", "sourceVocabulary": "MedDRA (21.0)", "assessmentType": "NON_SYSTEMATIC_ASSESSMENT", "stats": [{"groupId": "EG000", "numEvents": 2, "numAffected": 2, "numAtRisk": 76}, {"groupId": "EG001", "numEvents": 1, "numAffected": 1, "numAtRisk": 27}, {"groupId": "EG002", "numEvents": 0, "numAffected": 0, "numAtRisk": 50}, {"groupId": "EG003", "numEvents": 0, "numAffected": 0, "numAtRisk": 51}, {"groupId": "EG004", "numEvents": 1, "numAffected": 1, "numAtRisk": 50}, {"groupId": "EG005", "numEvents": 1, "numAffected": 1, "numAtRisk": 51}]}, {"term": "Pneumonia pneumococcal", "organSystem": "Infections and infestations", "sourceVocabulary": "MedDRA (21.0)", "assessmentType": "NON_SYSTEMATIC_ASSESSMENT", "stats": [{"groupId": "EG000", "numEvents": 0, "numAffected": 0, "numAtRisk": 76}, {"groupId": "EG001", "numEvents": 1, "numAffected": 1, "numAtRisk": 27}, {"groupId": "EG002", "numEvents": 0, "numAffected": 0, "numAtRisk": 50}, {"groupId": "EG003", "numEvents": 0, "numAffected": 0, "numAtRisk": 51}, {"groupId": "EG004", "numEvents": 0, "numAffected": 0, "numAtRisk": 50}, {"groupId": "EG005", "numEvents": 0, "numAffected": 0, "numAtRisk": 51}]}, {"term": "Wound infection", "organSystem": "Infections and infestations", "sourceVocabulary": "MedDRA (21.0)", "assessmentType": "NON_SYSTEMATIC_ASSESSMENT", "stats": [{"groupId": "EG000", "numEvents": 1, "numAffected": 1, "numAtRisk": 76}, {"groupId": "EG001", "numEvents": 0, "numAffected": 0, "numAtRisk": 27}, {"groupId": "EG002", "numEvents": 0, "numAffected": 0, "numAtRisk": 50}, {"groupId": "EG003", "numEvents": 1, "numAffected": 1, "numAtRisk": 51}, {"groupId": "EG004", "numEvents": 0, "numAffected": 0, "numAtRisk": 50}, {"groupId": "EG005", "numEvents": 0, "numAffected": 0, "numAtRisk": 51}]}, {"term": "Pulmonary sepsis", "organSystem": "Infections and infestations", "sourceVocabulary": "MedDRA (21.0)", "assessmentType": "NON_SYSTEMATIC_ASSESSMENT", "stats": [{"groupId": "EG000", "numEvents": 0, "numAffected": 0, "numAtRisk": 76}, {"groupId": "EG001", "numEvents": 1, "numAffected": 1, "numAtRisk": 27}, {"groupId": "EG002", "numEvents": 0, "numAffected": 0, "numAtRisk": 50}, {"groupId": "EG003", "numEvents": 0, "numAffected": 0, "numAtRisk": 51}, {"groupId": "EG004", "numEvents": 0, "numAffected": 0, "numAtRisk": 50}, {"groupId": "EG005", "numEvents": 0, "numAffected": 0, "numAtRisk": 51}]}, {"term": "Pneumonia bacterial", "organSystem": "Infections and infestations", "sourceVocabulary": "MedDRA (21.0)", "assessmentType": "NON_SYSTEMATIC_ASSESSMENT", "stats": [{"groupId": "EG000", "numEvents": 0, "numAffected": 0, "numAtRisk": 76}, {"groupId": "EG001", "numEvents": 0, "numAffected": 0, "numAtRisk": 27}, {"groupId": "EG002", "numEvents": 1, "numAffected": 1, "numAtRisk": 50}, {"groupId": "EG003", "numEvents": 0, "numAffected": 0, "numAtRisk": 51}, {"groupId": "EG004", "numEvents": 0, "numAffected": 0, "numAtRisk": 50}, {"groupId": "EG005", "numEvents": 0, "numAffected": 0, "numAtRisk": 51}]}, {"term": "Respiratory tract infection", "organSystem": "Infections and infestations", "sourceVocabulary": "MedDRA (21.0)", "assessmentType": "NON_SYSTEMATIC_ASSESSMENT", "stats": [{"groupId": "EG000", "numEvents": 0, "numAffected": 0, "numAtRisk": 76}, {"groupId": "EG001", "numEvents": 0, "numAffected": 0, "numAtRisk": 27}, {"groupId": "EG002", "numEvents": 0, "numAffected": 0, "numAtRisk": 50}, {"groupId": "EG003", "numEvents": 0, "numAffected": 0, "numAtRisk": 51}, {"groupId": "EG004", "numEvents": 1, "numAffected": 1, "numAtRisk": 50}, {"groupId": "EG005", "numEvents": 0, "numAffected": 0, "numAtRisk": 51}]}, {"term": "Femur fracture", "organSystem": "Injury, poisoning and procedural complications", "sourceVocabulary": "MedDRA (21.0)", "assessmentType": "NON_SYSTEMATIC_ASSESSMENT", "stats": [{"groupId": "EG000", "numEvents": 1, "numAffected": 1, "numAtRisk": 76}, {"groupId": "EG001", "numEvents": 0, "numAffected": 0, "numAtRisk": 27}, {"groupId": "EG002", "numEvents": 0, "numAffected": 0, "numAtRisk": 50}, {"groupId": "EG003", "numEvents": 0, "numAffected": 0, "numAtRisk": 51}, {"groupId": "EG004", "numEvents": 0, "numAffected": 0, "numAtRisk": 50}, {"groupId": "EG005", "numEvents": 1, "numAffected": 1, "numAtRisk": 51}]}, {"term": "Spinal fracture", "organSystem": "Injury, poisoning and procedural complications", "sourceVocabulary": "MedDRA (21.0)", "assessmentType": "NON_SYSTEMATIC_ASSESSMENT", "stats": [{"groupId": "EG000", "numEvents": 0, "numAffected": 0, "numAtRisk": 76}, {"groupId": "EG001", "numEvents": 0, "numAffected": 0, "numAtRisk": 27}, {"groupId": "EG002", "numEvents": 0, "numAffected": 0, "numAtRisk": 50}, {"groupId": "EG003", "numEvents": 0, "numAffected": 0, "numAtRisk": 51}, {"groupId": "EG004", "numEvents": 1, "numAffected": 1, "numAtRisk": 50}, {"groupId": "EG005", "numEvents": 0, "numAffected": 0, "numAtRisk": 51}]}, {"term": "Arteriogram coronary", "organSystem": "Investigations", "sourceVocabulary": "MedDRA (21.0)", "assessmentType": "NON_SYSTEMATIC_ASSESSMENT", "stats": [{"groupId": "EG000", "numEvents": 1, "numAffected": 1, "numAtRisk": 76}, {"groupId": "EG001", "numEvents": 0, "numAffected": 0, "numAtRisk": 27}, {"groupId": "EG002", "numEvents": 0, "numAffected": 0, "numAtRisk": 50}, {"groupId": "EG003", "numEvents": 0, "numAffected": 0, "numAtRisk": 51}, {"groupId": "EG004", "numEvents": 0, "numAffected": 0, "numAtRisk": 50}, {"groupId": "EG005", "numEvents": 0, "numAffected": 0, "numAtRisk": 51}]}, {"term": "Blood glucose increased", "organSystem": "Investigations", "sourceVocabulary": "MedDRA (21.0)", "assessmentType": "NON_SYSTEMATIC_ASSESSMENT", "stats": [{"groupId": "EG000", "numEvents": 0, "numAffected": 0, "numAtRisk": 76}, {"groupId": "EG001", "numEvents": 0, "numAffected": 0, "numAtRisk": 27}, {"groupId": "EG002", "numEvents": 1, "numAffected": 1, "numAtRisk": 50}, {"groupId": "EG003", "numEvents": 0, "numAffected": 0, "numAtRisk": 51}, {"groupId": "EG004", "numEvents": 0, "numAffected": 0, "numAtRisk": 50}, {"groupId": "EG005", "numEvents": 0, "numAffected": 0, "numAtRisk": 51}]}, {"term": "Influenza A virus test positive", "organSystem": "Investigations", "sourceVocabulary": "MedDRA (21.0)", "assessmentType": "NON_SYSTEMATIC_ASSESSMENT", "stats": [{"groupId": "EG000", "numEvents": 1, "numAffected": 1, "numAtRisk": 76}, {"groupId": "EG001", "numEvents": 0, "numAffected": 0, "numAtRisk": 27}, {"groupId": "EG002", "numEvents": 0, "numAffected": 0, "numAtRisk": 50}, {"groupId": "EG003", "numEvents": 0, "numAffected": 0, "numAtRisk": 51}, {"groupId": "EG004", "numEvents": 0, "numAffected": 0, "numAtRisk": 50}, {"groupId": "EG005", "numEvents": 0, "numAffected": 0, "numAtRisk": 51}]}, {"term": "Dehydration", "organSystem": "Metabolism and nutrition disorders", "sourceVocabulary": "MedDRA (21.0)", "assessmentType": "NON_SYSTEMATIC_ASSESSMENT", "stats": [{"groupId": "EG000", "numEvents": 0, "numAffected": 0, "numAtRisk": 76}, {"groupId": "EG001", "numEvents": 0, "numAffected": 0, "numAtRisk": 27}, {"groupId": "EG002", "numEvents": 0, "numAffected": 0, "numAtRisk": 50}, {"groupId": "EG003", "numEvents": 0, "numAffected": 0, "numAtRisk": 51}, {"groupId": "EG004", "numEvents": 1, "numAffected": 1, "numAtRisk": 50}, {"groupId": "EG005", "numEvents": 0, "numAffected": 0, "numAtRisk": 51}]}, {"term": "Hyperkalaemia", "organSystem": "Metabolism and nutrition disorders", "sourceVocabulary": "MedDRA (21.0)", "assessmentType": "NON_SYSTEMATIC_ASSESSMENT", "stats": [{"groupId": "EG000", "numEvents": 0, "numAffected": 0, "numAtRisk": 76}, {"groupId": "EG001", "numEvents": 0, "numAffected": 0, "numAtRisk": 27}, {"groupId": "EG002", "numEvents": 0, "numAffected": 0, "numAtRisk": 50}, {"groupId": "EG003", "numEvents": 1, "numAffected": 1, "numAtRisk": 51}, {"groupId": "EG004", "numEvents": 0, "numAffected": 0, "numAtRisk": 50}, {"groupId": "EG005", "numEvents": 1, "numAffected": 1, "numAtRisk": 51}]}, {"term": "B-cell lymphoma", "organSystem": "Neoplasms benign, malignant and unspecified (incl cysts and polyps)", "sourceVocabulary": "MedDRA (21.0)", "assessmentType": "NON_SYSTEMATIC_ASSESSMENT", "stats": [{"groupId": "EG000", "numEvents": 2, "numAffected": 1, "numAtRisk": 76}, {"groupId": "EG001", "numEvents": 0, "numAffected": 0, "numAtRisk": 27}, {"groupId": "EG002", "numEvents": 0, "numAffected": 0, "numAtRisk": 50}, {"groupId": "EG003", "numEvents": 0, "numAffected": 0, "numAtRisk": 51}, {"groupId": "EG004", "numEvents": 0, "numAffected": 0, "numAtRisk": 50}, {"groupId": "EG005", "numEvents": 0, "numAffected": 0, "numAtRisk": 51}]}, {"term": "Colon cancer", "organSystem": "Neoplasms benign, malignant and unspecified (incl cysts and polyps)", "sourceVocabulary": "MedDRA (21.0)", "assessmentType": "NON_SYSTEMATIC_ASSESSMENT", "stats": [{"groupId": "EG000", "numEvents": 1, "numAffected": 1, "numAtRisk": 76}, {"groupId": "EG001", "numEvents": 0, "numAffected": 0, "numAtRisk": 27}, {"groupId": "EG002", "numEvents": 0, "numAffected": 0, "numAtRisk": 50}, {"groupId": "EG003", "numEvents": 0, "numAffected": 0, "numAtRisk": 51}, {"groupId": "EG004", "numEvents": 0, "numAffected": 0, "numAtRisk": 50}, {"groupId": "EG005", "numEvents": 0, "numAffected": 0, "numAtRisk": 51}]}, {"term": "Lymphoma", "organSystem": "Neoplasms benign, malignant and unspecified (incl cysts and polyps)", "sourceVocabulary": "MedDRA (21.0)", "assessmentType": "NON_SYSTEMATIC_ASSESSMENT", "stats": [{"groupId": "EG000", "numEvents": 1, "numAffected": 1, "numAtRisk": 76}, {"groupId": "EG001", "numEvents": 0, "numAffected": 0, "numAtRisk": 27}, {"groupId": "EG002", "numEvents": 0, "numAffected": 0, "numAtRisk": 50}, {"groupId": "EG003", "numEvents": 0, "numAffected": 0, "numAtRisk": 51}, {"groupId": "EG004", "numEvents": 0, "numAffected": 0, "numAtRisk": 50}, {"groupId": "EG005", "numEvents": 0, "numAffected": 0, "numAtRisk": 51}]}, {"term": "Metastases to liver", "organSystem": "Neoplasms benign, malignant and unspecified (incl cysts and polyps)", "sourceVocabulary": "MedDRA (21.0)", "assessmentType": "NON_SYSTEMATIC_ASSESSMENT", "stats": [{"groupId": "EG000", "numEvents": 0, "numAffected": 0, "numAtRisk": 76}, {"groupId": "EG001", "numEvents": 0, "numAffected": 0, "numAtRisk": 27}, {"groupId": "EG002", "numEvents": 0, "numAffected": 0, "numAtRisk": 50}, {"groupId": "EG003", "numEvents": 1, "numAffected": 1, "numAtRisk": 51}, {"groupId": "EG004", "numEvents": 0, "numAffected": 0, "numAtRisk": 50}, {"groupId": "EG005", "numEvents": 0, "numAffected": 0, "numAtRisk": 51}]}, {"term": "Pancreatic carcinoma", "organSystem": "Neoplasms benign, malignant and unspecified (incl cysts and polyps)", "sourceVocabulary": "MedDRA (21.0)", "assessmentType": "NON_SYSTEMATIC_ASSESSMENT", "stats": [{"groupId": "EG000", "numEvents": 0, "numAffected": 0, "numAtRisk": 76}, {"groupId": "EG001", "numEvents": 0, "numAffected": 0, "numAtRisk": 27}, {"groupId": "EG002", "numEvents": 0, "numAffected": 0, "numAtRisk": 50}, {"groupId": "EG003", "numEvents": 1, "numAffected": 1, "numAtRisk": 51}, {"groupId": "EG004", "numEvents": 0, "numAffected": 0, "numAtRisk": 50}, {"groupId": "EG005", "numEvents": 0, "numAffected": 0, "numAtRisk": 51}]}, {"term": "Metastatic neoplasm", "organSystem": "Neoplasms benign, malignant and unspecified (incl cysts and polyps)", "sourceVocabulary": "MedDRA (21.0)", "assessmentType": "NON_SYSTEMATIC_ASSESSMENT", "stats": [{"groupId": "EG000", "numEvents": 1, "numAffected": 1, "numAtRisk": 76}, {"groupId": "EG001", "numEvents": 0, "numAffected": 0, "numAtRisk": 27}, {"groupId": "EG002", "numEvents": 0, "numAffected": 0, "numAtRisk": 50}, {"groupId": "EG003", "numEvents": 0, "numAffected": 0, "numAtRisk": 51}, {"groupId": "EG004", "numEvents": 0, "numAffected": 0, "numAtRisk": 50}, {"groupId": "EG005", "numEvents": 0, "numAffected": 0, "numAtRisk": 51}]}, {"term": "Lung neoplasm", "organSystem": "Neoplasms benign, malignant and unspecified (incl cysts and polyps)", "sourceVocabulary": "MedDRA (21.0)", "assessmentType": "NON_SYSTEMATIC_ASSESSMENT", "stats": [{"groupId": "EG000", "numEvents": 0, "numAffected": 0, "numAtRisk": 76}, {"groupId": "EG001", "numEvents": 0, "numAffected": 0, "numAtRisk": 27}, {"groupId": "EG002", "numEvents": 0, "numAffected": 0, "numAtRisk": 50}, {"groupId": "EG003", "numEvents": 0, "numAffected": 0, "numAtRisk": 51}, {"groupId": "EG004", "numEvents": 0, "numAffected": 0, "numAtRisk": 50}, {"groupId": "EG005", "numEvents": 1, "numAffected": 1, "numAtRisk": 51}]}, {"term": "Cerebral haemorrhage", "organSystem": "Nervous system disorders", "sourceVocabulary": "MedDRA (21.0)", "assessmentType": "NON_SYSTEMATIC_ASSESSMENT", "stats": [{"groupId": "EG000", "numEvents": 0, "numAffected": 0, "numAtRisk": 76}, {"groupId": "EG001", "numEvents": 1, "numAffected": 1, "numAtRisk": 27}, {"groupId": "EG002", "numEvents": 0, "numAffected": 0, "numAtRisk": 50}, {"groupId": "EG003", "numEvents": 0, "numAffected": 0, "numAtRisk": 51}, {"groupId": "EG004", "numEvents": 0, "numAffected": 0, "numAtRisk": 50}, {"groupId": "EG005", "numEvents": 0, "numAffected": 0, "numAtRisk": 51}]}, {"term": "Haemorrhage intracranial", "organSystem": "Nervous system disorders", "sourceVocabulary": "MedDRA (21.0)", "assessmentType": "NON_SYSTEMATIC_ASSESSMENT", "stats": [{"groupId": "EG000", "numEvents": 0, "numAffected": 0, "numAtRisk": 76}, {"groupId": "EG001", "numEvents": 0, "numAffected": 0, "numAtRisk": 27}, {"groupId": "EG002", "numEvents": 1, "numAffected": 1, "numAtRisk": 50}, {"groupId": "EG003", "numEvents": 0, "numAffected": 0, "numAtRisk": 51}, {"groupId": "EG004", "numEvents": 0, "numAffected": 0, "numAtRisk": 50}, {"groupId": "EG005", "numEvents": 0, "numAffected": 0, "numAtRisk": 51}]}, {"term": "Intraventricular haemorrhage", "organSystem": "Nervous system disorders", "sourceVocabulary": "MedDRA (21.0)", "assessmentType": "NON_SYSTEMATIC_ASSESSMENT", "stats": [{"groupId": "EG000", "numEvents": 0, "numAffected": 0, "numAtRisk": 76}, {"groupId": "EG001", "numEvents": 0, "numAffected": 0, "numAtRisk": 27}, {"groupId": "EG002", "numEvents": 1, "numAffected": 1, "numAtRisk": 50}, {"groupId": "EG003", "numEvents": 0, "numAffected": 0, "numAtRisk": 51}, {"groupId": "EG004", "numEvents": 0, "numAffected": 0, "numAtRisk": 50}, {"groupId": "EG005", "numEvents": 0, "numAffected": 0, "numAtRisk": 51}]}, {"term": "Syncope", "organSystem": "Nervous system disorders", "sourceVocabulary": "MedDRA (21.0)", "assessmentType": "NON_SYSTEMATIC_ASSESSMENT", "stats": [{"groupId": "EG000", "numEvents": 0, "numAffected": 0, "numAtRisk": 76}, {"groupId": "EG001", "numEvents": 0, "numAffected": 0, "numAtRisk": 27}, {"groupId": "EG002", "numEvents": 0, "numAffected": 0, "numAtRisk": 50}, {"groupId": "EG003", "numEvents": 0, "numAffected": 0, "numAtRisk": 51}, {"groupId": "EG004", "numEvents": 2, "numAffected": 2, "numAtRisk": 50}, {"groupId": "EG005", "numEvents": 0, "numAffected": 0, "numAtRisk": 51}]}, {"term": "Ischaemic stroke", "organSystem": "Nervous system disorders", "sourceVocabulary": "MedDRA (21.0)", "assessmentType": "NON_SYSTEMATIC_ASSESSMENT", "stats": [{"groupId": "EG000", "numEvents": 0, "numAffected": 0, "numAtRisk": 76}, {"groupId": "EG001", "numEvents": 0, "numAffected": 0, "numAtRisk": 27}, {"groupId": "EG002", "numEvents": 0, "numAffected": 0, "numAtRisk": 50}, {"groupId": "EG003", "numEvents": 0, "numAffected": 0, "numAtRisk": 51}, {"groupId": "EG004", "numEvents": 1, "numAffected": 1, "numAtRisk": 50}, {"groupId": "EG005", "numEvents": 0, "numAffected": 0, "numAtRisk": 51}]}, {"term": "Basal ganglia haemorrhage", "organSystem": "Nervous system disorders", "sourceVocabulary": "MedDRA (21.0)", "assessmentType": "NON_SYSTEMATIC_ASSESSMENT", "stats": [{"groupId": "EG000", "numEvents": 0, "numAffected": 0, "numAtRisk": 76}, {"groupId": "EG001", "numEvents": 0, "numAffected": 0, "numAtRisk": 27}, {"groupId": "EG002", "numEvents": 1, "numAffected": 1, "numAtRisk": 50}, {"groupId": "EG003", "numEvents": 0, "numAffected": 0, "numAtRisk": 51}, {"groupId": "EG004", "numEvents": 0, "numAffected": 0, "numAtRisk": 50}, {"groupId": "EG005", "numEvents": 0, "numAffected": 0, "numAtRisk": 51}]}, {"term": "Renal impairment", "organSystem": "Renal and urinary disorders", "sourceVocabulary": "MedDRA (21.0)", "assessmentType": "NON_SYSTEMATIC_ASSESSMENT", "stats": [{"groupId": "EG000", "numEvents": 0, "numAffected": 0, "numAtRisk": 76}, {"groupId": "EG001", "numEvents": 0, "numAffected": 0, "numAtRisk": 27}, {"groupId": "EG002", "numEvents": 0, "numAffected": 0, "numAtRisk": 50}, {"groupId": "EG003", "numEvents": 0, "numAffected": 0, "numAtRisk": 51}, {"groupId": "EG004", "numEvents": 1, "numAffected": 1, "numAtRisk": 50}, {"groupId": "EG005", "numEvents": 0, "numAffected": 0, "numAtRisk": 51}]}, {"term": "Chronic kidney disease", "organSystem": "Renal and urinary disorders", "sourceVocabulary": "MedDRA (21.0)", "assessmentType": "NON_SYSTEMATIC_ASSESSMENT", "stats": [{"groupId": "EG000", "numEvents": 0, "numAffected": 0, "numAtRisk": 76}, {"groupId": "EG001", "numEvents": 0, "numAffected": 0, "numAtRisk": 27}, {"groupId": "EG002", "numEvents": 1, "numAffected": 1, "numAtRisk": 50}, {"groupId": "EG003", "numEvents": 1, "numAffected": 1, "numAtRisk": 51}, {"groupId": "EG004", "numEvents": 0, "numAffected": 0, "numAtRisk": 50}, {"groupId": "EG005", "numEvents": 0, "numAffected": 0, "numAtRisk": 51}]}, {"term": "Acute kidney injury", "organSystem": "Renal and urinary disorders", "sourceVocabulary": "MedDRA (21.0)", "assessmentType": "NON_SYSTEMATIC_ASSESSMENT", "stats": [{"groupId": "EG000", "numEvents": 1, "numAffected": 1, "numAtRisk": 76}, {"groupId": "EG001", "numEvents": 0, "numAffected": 0, "numAtRisk": 27}, {"groupId": "EG002", "numEvents": 0, "numAffected": 0, "numAtRisk": 50}, {"groupId": "EG003", "numEvents": 4, "numAffected": 2, "numAtRisk": 51}, {"groupId": "EG004", "numEvents": 1, "numAffected": 1, "numAtRisk": 50}, {"groupId": "EG005", "numEvents": 1, "numAffected": 1, "numAtRisk": 51}]}, {"term": "Acute respiratory failure", "organSystem": "Respiratory, thoracic and mediastinal disorders", "sourceVocabulary": "MedDRA (21.0)", "assessmentType": "NON_SYSTEMATIC_ASSESSMENT", "stats": [{"groupId": "EG000", "numEvents": 1, "numAffected": 1, "numAtRisk": 76}, {"groupId": "EG001", "numEvents": 0, "numAffected": 0, "numAtRisk": 27}, {"groupId": "EG002", "numEvents": 0, "numAffected": 0, "numAtRisk": 50}, {"groupId": "EG003", "numEvents": 1, "numAffected": 1, "numAtRisk": 51}, {"groupId": "EG004", "numEvents": 0, "numAffected": 0, "numAtRisk": 50}, {"groupId": "EG005", "numEvents": 0, "numAffected": 0, "numAtRisk": 51}]}, {"term": "Asthma", "organSystem": "Respiratory, thoracic and mediastinal disorders", "sourceVocabulary": "MedDRA (21.0)", "assessmentType": "NON_SYSTEMATIC_ASSESSMENT", "stats": [{"groupId": "EG000", "numEvents": 0, "numAffected": 0, "numAtRisk": 76}, {"groupId": "EG001", "numEvents": 0, "numAffected": 0, "numAtRisk": 27}, {"groupId": "EG002", "numEvents": 0, "numAffected": 0, "numAtRisk": 50}, {"groupId": "EG003", "numEvents": 0, "numAffected": 0, "numAtRisk": 51}, {"groupId": "EG004", "numEvents": 0, "numAffected": 0, "numAtRisk": 50}, {"groupId": "EG005", "numEvents": 2, "numAffected": 1, "numAtRisk": 51}]}, {"term": "Dyspnoea", "organSystem": "Respiratory, thoracic and mediastinal disorders", "sourceVocabulary": "MedDRA (21.0)", "assessmentType": "NON_SYSTEMATIC_ASSESSMENT", "stats": [{"groupId": "EG000", "numEvents": 0, "numAffected": 0, "numAtRisk": 76}, {"groupId": "EG001", "numEvents": 1, "numAffected": 1, "numAtRisk": 27}, {"groupId": "EG002", "numEvents": 1, "numAffected": 1, "numAtRisk": 50}, {"groupId": "EG003", "numEvents": 0, "numAffected": 0, "numAtRisk": 51}, {"groupId": "EG004", "numEvents": 0, "numAffected": 0, "numAtRisk": 50}, {"groupId": "EG005", "numEvents": 0, "numAffected": 0, "numAtRisk": 51}]}, {"term": "Epistaxis", "organSystem": "Respiratory, thoracic and mediastinal disorders", "sourceVocabulary": "MedDRA (21.0)", "assessmentType": "NON_SYSTEMATIC_ASSESSMENT", "stats": [{"groupId": "EG000", "numEvents": 0, "numAffected": 0, "numAtRisk": 76}, {"groupId": "EG001", "numEvents": 0, "numAffected": 0, "numAtRisk": 27}, {"groupId": "EG002", "numEvents": 0, "numAffected": 0, "numAtRisk": 50}, {"groupId": "EG003", "numEvents": 0, "numAffected": 0, "numAtRisk": 51}, {"groupId": "EG004", "numEvents": 1, "numAffected": 1, "numAtRisk": 50}, {"groupId": "EG005", "numEvents": 0, "numAffected": 0, "numAtRisk": 51}]}, {"term": "Pleural effusion", "organSystem": "Respiratory, thoracic and mediastinal disorders", "sourceVocabulary": "MedDRA (21.0)", "assessmentType": "NON_SYSTEMATIC_ASSESSMENT", "stats": [{"groupId": "EG000", "numEvents": 4, "numAffected": 1, "numAtRisk": 76}, {"groupId": "EG001", "numEvents": 0, "numAffected": 0, "numAtRisk": 27}, {"groupId": "EG002", "numEvents": 0, "numAffected": 0, "numAtRisk": 50}, {"groupId": "EG003", "numEvents": 0, "numAffected": 0, "numAtRisk": 51}, {"groupId": "EG004", "numEvents": 0, "numAffected": 0, "numAtRisk": 50}, {"groupId": "EG005", "numEvents": 0, "numAffected": 0, "numAtRisk": 51}]}, {"term": "Respiratory failure", "organSystem": "Respiratory, thoracic and mediastinal disorders", "sourceVocabulary": "MedDRA (21.0)", "assessmentType": "NON_SYSTEMATIC_ASSESSMENT", "stats": [{"groupId": "EG000", "numEvents": 0, "numAffected": 0, "numAtRisk": 76}, {"groupId": "EG001", "numEvents": 0, "numAffected": 0, "numAtRisk": 27}, {"groupId": "EG002", "numEvents": 0, "numAffected": 0, "numAtRisk": 50}, {"groupId": "EG003", "numEvents": 0, "numAffected": 0, "numAtRisk": 51}, {"groupId": "EG004", "numEvents": 1, "numAffected": 1, "numAtRisk": 50}, {"groupId": "EG005", "numEvents": 0, "numAffected": 0, "numAtRisk": 51}]}, {"term": "Hip arthroplasty", "organSystem": "Surgical and medical procedures", "sourceVocabulary": "MedDRA (21.0)", "assessmentType": "NON_SYSTEMATIC_ASSESSMENT", "stats": [{"groupId": "EG000", "numEvents": 0, "numAffected": 0, "numAtRisk": 76}, {"groupId": "EG001", "numEvents": 1, "numAffected": 1, "numAtRisk": 27}, {"groupId": "EG002", "numEvents": 0, "numAffected": 0, "numAtRisk": 50}, {"groupId": "EG003", "numEvents": 0, "numAffected": 0, "numAtRisk": 51}, {"groupId": "EG004", "numEvents": 0, "numAffected": 0, "numAtRisk": 50}, {"groupId": "EG005", "numEvents": 0, "numAffected": 0, "numAtRisk": 51}]}, {"term": "Inguinal hernia repair", "organSystem": "Surgical and medical procedures", "sourceVocabulary": "MedDRA (21.0)", "assessmentType": "NON_SYSTEMATIC_ASSESSMENT", "stats": [{"groupId": "EG000", "numEvents": 0, "numAffected": 0, "numAtRisk": 76}, {"groupId": "EG001", "numEvents": 0, "numAffected": 0, "numAtRisk": 27}, {"groupId": "EG002", "numEvents": 1, "numAffected": 1, "numAtRisk": 50}, {"groupId": "EG003", "numEvents": 0, "numAffected": 0, "numAtRisk": 51}, {"groupId": "EG004", "numEvents": 0, "numAffected": 0, "numAtRisk": 50}, {"groupId": "EG005", "numEvents": 0, "numAffected": 0, "numAtRisk": 51}]}, {"term": "Insertion of ambulatory peritoneal catheter", "organSystem": "Surgical and medical procedures", "sourceVocabulary": "MedDRA (21.0)", "assessmentType": "NON_SYSTEMATIC_ASSESSMENT", "stats": [{"groupId": "EG000", "numEvents": 0, "numAffected": 0, "numAtRisk": 76}, {"groupId": "EG001", "numEvents": 1, "numAffected": 1, "numAtRisk": 27}, {"groupId": "EG002", "numEvents": 0, "numAffected": 0, "numAtRisk": 50}, {"groupId": "EG003", "numEvents": 0, "numAffected": 0, "numAtRisk": 51}, {"groupId": "EG004", "numEvents": 0, "numAffected": 0, "numAtRisk": 50}, {"groupId": "EG005", "numEvents": 0, "numAffected": 0, "numAtRisk": 51}]}, {"term": "Hysterosalpingectomy", "organSystem": "Surgical and medical procedures", "sourceVocabulary": "MedDRA (21.0)", "assessmentType": "NON_SYSTEMATIC_ASSESSMENT", "stats": [{"groupId": "EG000", "numEvents": 1, "numAffected": 1, "numAtRisk": 76}, {"groupId": "EG001", "numEvents": 0, "numAffected": 0, "numAtRisk": 27}, {"groupId": "EG002", "numEvents": 0, "numAffected": 0, "numAtRisk": 50}, {"groupId": "EG003", "numEvents": 0, "numAffected": 0, "numAtRisk": 51}, {"groupId": "EG004", "numEvents": 0, "numAffected": 0, "numAtRisk": 50}, {"groupId": "EG005", "numEvents": 0, "numAffected": 0, "numAtRisk": 51}]}, {"term": "Aortic stenosis", "organSystem": "Vascular disorders", "sourceVocabulary": "MedDRA (21.0)", "assessmentType": "NON_SYSTEMATIC_ASSESSMENT", "stats": [{"groupId": "EG000", "numEvents": 1, "numAffected": 1, "numAtRisk": 76}, {"groupId": "EG001", "numEvents": 0, "numAffected": 0, "numAtRisk": 27}, {"groupId": "EG002", "numEvents": 0, "numAffected": 0, "numAtRisk": 50}, {"groupId": "EG003", "numEvents": 1, "numAffected": 1, "numAtRisk": 51}, {"groupId": "EG004", "numEvents": 0, "numAffected": 0, "numAtRisk": 50}, {"groupId": "EG005", "numEvents": 0, "numAffected": 0, "numAtRisk": 51}]}, {"term": "Hypertensive crisis", "organSystem": "Vascular disorders", "sourceVocabulary": "MedDRA (21.0)", "assessmentType": "NON_SYSTEMATIC_ASSESSMENT", "stats": [{"groupId": "EG000", "numEvents": 0, "numAffected": 0, "numAtRisk": 76}, {"groupId": "EG001", "numEvents": 0, "numAffected": 0, "numAtRisk": 27}, {"groupId": "EG002", "numEvents": 0, "numAffected": 0, "numAtRisk": 50}, {"groupId": "EG003", "numEvents": 1, "numAffected": 1, "numAtRisk": 51}, {"groupId": "EG004", "numEvents": 0, "numAffected": 0, "numAtRisk": 50}, {"groupId": "EG005", "numEvents": 0, "numAffected": 0, "numAtRisk": 51}]}, {"term": "Peripheral ischaemia", "organSystem": "Vascular disorders", "sourceVocabulary": "MedDRA (21.0)", "assessmentType": "NON_SYSTEMATIC_ASSESSMENT", "stats": [{"groupId": "EG000", "numEvents": 0, "numAffected": 0, "numAtRisk": 76}, {"groupId": "EG001", "numEvents": 1, "numAffected": 1, "numAtRisk": 27}, {"groupId": "EG002", "numEvents": 0, "numAffected": 0, "numAtRisk": 50}, {"groupId": "EG003", "numEvents": 0, "numAffected": 0, "numAtRisk": 51}, {"groupId": "EG004", "numEvents": 0, "numAffected": 0, "numAtRisk": 50}, {"groupId": "EG005", "numEvents": 0, "numAffected": 0, "numAtRisk": 51}]}, {"term": "Venous thrombosis limb", "organSystem": "Vascular disorders", "sourceVocabulary": "MedDRA (21.0)", "assessmentType": "NON_SYSTEMATIC_ASSESSMENT", "stats": [{"groupId": "EG000", "numEvents": 0, "numAffected": 0, "numAtRisk": 76}, {"groupId": "EG001", "numEvents": 0, "numAffected": 0, "numAtRisk": 27}, {"groupId": "EG002", "numEvents": 0, "numAffected": 0, "numAtRisk": 50}, {"groupId": "EG003", "numEvents": 1, "numAffected": 1, "numAtRisk": 51}, {"groupId": "EG004", "numEvents": 0, "numAffected": 0, "numAtRisk": 50}, {"groupId": "EG005", "numEvents": 0, "numAffected": 0, "numAtRisk": 51}]}, {"term": "Peripheral arterial occlusive disease", "organSystem": "Vascular disorders", "sourceVocabulary": "MedDRA (21.0)", "assessmentType": "NON_SYSTEMATIC_ASSESSMENT", "stats": [{"groupId": "EG000", "numEvents": 0, "numAffected": 0, "numAtRisk": 76}, {"groupId": "EG001", "numEvents": 0, "numAffected": 0, "numAtRisk": 27}, {"groupId": "EG002", "numEvents": 0, "numAffected": 0, "numAtRisk": 50}, {"groupId": "EG003", "numEvents": 0, "numAffected": 0, "numAtRisk": 51}, {"groupId": "EG004", "numEvents": 0, "numAffected": 0, "numAtRisk": 50}, {"groupId": "EG005", "numEvents": 1, "numAffected": 1, "numAtRisk": 51}]}, {"term": "Device dislocation", "organSystem": "Product Issues", "sourceVocabulary": "MedDRA (21.0)", "assessmentType": "NON_SYSTEMATIC_ASSESSMENT", "stats": [{"groupId": "EG000", "numEvents": 0, "numAffected": 0, "numAtRisk": 76}, {"groupId": "EG001", "numEvents": 1, "numAffected": 1, "numAtRisk": 27}, {"groupId": "EG002", "numEvents": 0, "numAffected": 0, "numAtRisk": 50}, {"groupId": "EG003", "numEvents": 0, "numAffected": 0, "numAtRisk": 51}, {"groupId": "EG004", "numEvents": 0, "numAffected": 0, "numAtRisk": 50}, {"groupId": "EG005", "numEvents": 0, "numAffected": 0, "numAtRisk": 51}]}], "otherEvents": [{"term": "Atrial fibrillation", "organSystem": "Cardiac disorders", "sourceVocabulary": "MedDRA (21.0)", "assessmentType": "NON_SYSTEMATIC_ASSESSMENT", "stats": [{"groupId": "EG000", "numEvents": 5, "numAffected": 5, "numAtRisk": 76}, {"groupId": "EG001", "numEvents": 0, "numAffected": 0, "numAtRisk": 27}, {"groupId": "EG002", "numEvents": 3, "numAffected": 3, "numAtRisk": 50}, {"groupId": "EG003", "numEvents": 1, "numAffected": 1, "numAtRisk": 51}, {"groupId": "EG004", "numEvents": 1, "numAffected": 1, "numAtRisk": 50}, {"groupId": "EG005", "numEvents": 6, "numAffected": 4, "numAtRisk": 51}]}, {"term": "Cardiac failure", "organSystem": "Cardiac disorders", "sourceVocabulary": "MedDRA (21.0)", "assessmentType": "NON_SYSTEMATIC_ASSESSMENT", "stats": [{"groupId": "EG000", "numEvents": 5, "numAffected": 5, "numAtRisk": 76}, {"groupId": "EG001", "numEvents": 3, "numAffected": 2, "numAtRisk": 27}, {"groupId": "EG002", "numEvents": 3, "numAffected": 3, "numAtRisk": 50}, {"groupId": "EG003", "numEvents": 9, "numAffected": 6, "numAtRisk": 51}, {"groupId": "EG004", "numEvents": 1, "numAffected": 1, "numAtRisk": 50}, {"groupId": "EG005", "numEvents": 3, "numAffected": 3, "numAtRisk": 51}]}, {"term": "Ventricular tachycardia", "organSystem": "Cardiac disorders", "sourceVocabulary": "MedDRA (21.0)", "assessmentType": "NON_SYSTEMATIC_ASSESSMENT", "stats": [{"groupId": "EG000", "numEvents": 5, "numAffected": 3, "numAtRisk": 76}, {"groupId": "EG001", "numEvents": 0, "numAffected": 0, "numAtRisk": 27}, {"groupId": "EG002", "numEvents": 1, "numAffected": 1, "numAtRisk": 50}, {"groupId": "EG003", "numEvents": 4, "numAffected": 4, "numAtRisk": 51}, {"groupId": "EG004", "numEvents": 0, "numAffected": 0, "numAtRisk": 50}, {"groupId": "EG005", "numEvents": 1, "numAffected": 1, "numAtRisk": 51}]}, {"term": "Constipation", "organSystem": "Gastrointestinal disorders", "sourceVocabulary": "MedDRA (21.0)", "assessmentType": "NON_SYSTEMATIC_ASSESSMENT", "stats": [{"groupId": "EG000", "numEvents": 3, "numAffected": 3, "numAtRisk": 76}, {"groupId": "EG001", "numEvents": 0, "numAffected": 0, "numAtRisk": 27}, {"groupId": "EG002", "numEvents": 2, "numAffected": 2, "numAtRisk": 50}, {"groupId": "EG003", "numEvents": 1, "numAffected": 1, "numAtRisk": 51}, {"groupId": "EG004", "numEvents": 6, "numAffected": 5, "numAtRisk": 50}, {"groupId": "EG005", "numEvents": 1, "numAffected": 1, "numAtRisk": 51}]}, {"term": "Diarrhoea", "organSystem": "Gastrointestinal disorders", "sourceVocabulary": "MedDRA (21.0)", "assessmentType": "NON_SYSTEMATIC_ASSESSMENT", "stats": [{"groupId": "EG000", "numEvents": 0, "numAffected": 0, "numAtRisk": 76}, {"groupId": "EG001", "numEvents": 0, "numAffected": 0, "numAtRisk": 27}, {"groupId": "EG002", "numEvents": 0, "numAffected": 0, "numAtRisk": 50}, {"groupId": "EG003", "numEvents": 3, "numAffected": 3, "numAtRisk": 51}, {"groupId": "EG004", "numEvents": 3, "numAffected": 3, "numAtRisk": 50}, {"groupId": "EG005", "numEvents": 2, "numAffected": 2, "numAtRisk": 51}]}, {"term": "Nausea", "organSystem": "Gastrointestinal disorders", "sourceVocabulary": "MedDRA (21.0)", "assessmentType": "NON_SYSTEMATIC_ASSESSMENT", "stats": [{"groupId": "EG000", "numEvents": 0, "numAffected": 0, "numAtRisk": 76}, {"groupId": "EG001", "numEvents": 1, "numAffected": 1, "numAtRisk": 27}, {"groupId": "EG002", "numEvents": 1, "numAffected": 1, "numAtRisk": 50}, {"groupId": "EG003", "numEvents": 1, "numAffected": 1, "numAtRisk": 51}, {"groupId": "EG004", "numEvents": 3, "numAffected": 3, "numAtRisk": 50}, {"groupId": "EG005", "numEvents": 2, "numAffected": 2, "numAtRisk": 51}]}, {"term": "Fatigue", "organSystem": "General disorders", "sourceVocabulary": "MedDRA (21.0)", "assessmentType": "NON_SYSTEMATIC_ASSESSMENT", "stats": [{"groupId": "EG000", "numEvents": 1, "numAffected": 1, "numAtRisk": 76}, {"groupId": "EG001", "numEvents": 0, "numAffected": 0, "numAtRisk": 27}, {"groupId": "EG002", "numEvents": 0, "numAffected": 0, "numAtRisk": 50}, {"groupId": "EG003", "numEvents": 2, "numAffected": 2, "numAtRisk": 51}, {"groupId": "EG004", "numEvents": 4, "numAffected": 3, "numAtRisk": 50}, {"groupId": "EG005", "numEvents": 0, "numAffected": 0, "numAtRisk": 51}]}, {"term": "Nasopharyngitis", "organSystem": "Infections and infestations", "sourceVocabulary": "MedDRA (21.0)", "assessmentType": "NON_SYSTEMATIC_ASSESSMENT", "stats": [{"groupId": "EG000", "numEvents": 6, "numAffected": 5, "numAtRisk": 76}, {"groupId": "EG001", "numEvents": 1, "numAffected": 1, "numAtRisk": 27}, {"groupId": "EG002", "numEvents": 3, "numAffected": 3, "numAtRisk": 50}, {"groupId": "EG003", "numEvents": 3, "numAffected": 3, "numAtRisk": 51}, {"groupId": "EG004", "numEvents": 3, "numAffected": 2, "numAtRisk": 50}, {"groupId": "EG005", "numEvents": 5, "numAffected": 4, "numAtRisk": 51}]}, {"term": "Blood creatinine increased", "organSystem": "Investigations", "sourceVocabulary": "MedDRA (21.0)", "assessmentType": "NON_SYSTEMATIC_ASSESSMENT", "stats": [{"groupId": "EG000", "numEvents": 1, "numAffected": 1, "numAtRisk": 76}, {"groupId": "EG001", "numEvents": 0, "numAffected": 0, "numAtRisk": 27}, {"groupId": "EG002", "numEvents": 0, "numAffected": 0, "numAtRisk": 50}, {"groupId": "EG003", "numEvents": 4, "numAffected": 4, "numAtRisk": 51}, {"groupId": "EG004", "numEvents": 2, "numAffected": 1, "numAtRisk": 50}, {"groupId": "EG005", "numEvents": 1, "numAffected": 1, "numAtRisk": 51}]}, {"term": "Hyperkalaemia", "organSystem": "Metabolism and nutrition disorders", "sourceVocabulary": "MedDRA (21.0)", "assessmentType": "NON_SYSTEMATIC_ASSESSMENT", "stats": [{"groupId": "EG000", "numEvents": 3, "numAffected": 3, "numAtRisk": 76}, {"groupId": "EG001", "numEvents": 2, "numAffected": 2, "numAtRisk": 27}, {"groupId": "EG002", "numEvents": 0, "numAffected": 0, "numAtRisk": 50}, {"groupId": "EG003", "numEvents": 0, "numAffected": 0, "numAtRisk": 51}, {"groupId": "EG004", "numEvents": 4, "numAffected": 3, "numAtRisk": 50}, {"groupId": "EG005", "numEvents": 4, "numAffected": 3, "numAtRisk": 51}]}, {"term": "Hyperuricaemia", "organSystem": "Metabolism and nutrition disorders", "sourceVocabulary": "MedDRA (21.0)", "assessmentType": "NON_SYSTEMATIC_ASSESSMENT", "stats": [{"groupId": "EG000", "numEvents": 1, "numAffected": 1, "numAtRisk": 76}, {"groupId": "EG001", "numEvents": 0, "numAffected": 0, "numAtRisk": 27}, {"groupId": "EG002", "numEvents": 1, "numAffected": 1, "numAtRisk": 50}, {"groupId": "EG003", "numEvents": 1, "numAffected": 1, "numAtRisk": 51}, {"groupId": "EG004", "numEvents": 0, "numAffected": 0, "numAtRisk": 50}, {"groupId": "EG005", "numEvents": 3, "numAffected": 3, "numAtRisk": 51}]}, {"term": "Hypokalaemia", "organSystem": "Metabolism and nutrition disorders", "sourceVocabulary": "MedDRA (21.0)", "assessmentType": "NON_SYSTEMATIC_ASSESSMENT", "stats": [{"groupId": "EG000", "numEvents": 5, "numAffected": 4, "numAtRisk": 76}, {"groupId": "EG001", "numEvents": 0, "numAffected": 0, "numAtRisk": 27}, {"groupId": "EG002", "numEvents": 0, "numAffected": 0, "numAtRisk": 50}, {"groupId": "EG003", "numEvents": 2, "numAffected": 2, "numAtRisk": 51}, {"groupId": "EG004", "numEvents": 1, "numAffected": 1, "numAtRisk": 50}, {"groupId": "EG005", "numEvents": 0, "numAffected": 0, "numAtRisk": 51}]}, {"term": "Arthralgia", "organSystem": "Musculoskeletal and connective tissue disorders", "sourceVocabulary": "MedDRA (21.0)", "assessmentType": "NON_SYSTEMATIC_ASSESSMENT", "stats": [{"groupId": "EG000", "numEvents": 2, "numAffected": 2, "numAtRisk": 76}, {"groupId": "EG001", "numEvents": 1, "numAffected": 1, "numAtRisk": 27}, {"groupId": "EG002", "numEvents": 0, "numAffected": 0, "numAtRisk": 50}, {"groupId": "EG003", "numEvents": 4, "numAffected": 4, "numAtRisk": 51}, {"groupId": "EG004", "numEvents": 3, "numAffected": 2, "numAtRisk": 50}, {"groupId": "EG005", "numEvents": 1, "numAffected": 1, "numAtRisk": 51}]}, {"term": "Dizziness", "organSystem": "Nervous system disorders", "sourceVocabulary": "MedDRA (21.0)", "assessmentType": "NON_SYSTEMATIC_ASSESSMENT", "stats": [{"groupId": "EG000", "numEvents": 2, "numAffected": 1, "numAtRisk": 76}, {"groupId": "EG001", "numEvents": 1, "numAffected": 1, "numAtRisk": 27}, {"groupId": "EG002", "numEvents": 0, "numAffected": 0, "numAtRisk": 50}, {"groupId": "EG003", "numEvents": 0, "numAffected": 0, "numAtRisk": 51}, {"groupId": "EG004", "numEvents": 3, "numAffected": 3, "numAtRisk": 50}, {"groupId": "EG005", "numEvents": 1, "numAffected": 1, "numAtRisk": 51}]}, {"term": "Renal impairment", "organSystem": "Renal and urinary disorders", "sourceVocabulary": "MedDRA (21.0)", "assessmentType": "NON_SYSTEMATIC_ASSESSMENT", "stats": [{"groupId": "EG000", "numEvents": 1, "numAffected": 1, "numAtRisk": 76}, {"groupId": "EG001", "numEvents": 1, "numAffected": 1, "numAtRisk": 27}, {"groupId": "EG002", "numEvents": 1, "numAffected": 1, "numAtRisk": 50}, {"groupId": "EG003", "numEvents": 1, "numAffected": 1, "numAtRisk": 51}, {"groupId": "EG004", "numEvents": 2, "numAffected": 1, "numAtRisk": 50}, {"groupId": "EG005", "numEvents": 5, "numAffected": 5, "numAtRisk": 51}]}, {"term": "Chronic kidney disease", "organSystem": "Renal and urinary disorders", "sourceVocabulary": "MedDRA (21.0)", "assessmentType": "NON_SYSTEMATIC_ASSESSMENT", "stats": [{"groupId": "EG000", "numEvents": 0, "numAffected": 0, "numAtRisk": 76}, {"groupId": "EG001", "numEvents": 2, "numAffected": 2, "numAtRisk": 27}, {"groupId": "EG002", "numEvents": 0, "numAffected": 0, "numAtRisk": 50}, {"groupId": "EG003", "numEvents": 1, "numAffected": 1, "numAtRisk": 51}, {"groupId": "EG004", "numEvents": 0, "numAffected": 0, "numAtRisk": 50}, {"groupId": "EG005", "numEvents": 1, "numAffected": 1, "numAtRisk": 51}]}, {"term": "Cough", "organSystem": "Respiratory, thoracic and mediastinal disorders", "sourceVocabulary": "MedDRA (21.0)", "assessmentType": "NON_SYSTEMATIC_ASSESSMENT", "stats": [{"groupId": "EG000", "numEvents": 1, "numAffected": 1, "numAtRisk": 76}, {"groupId": "EG001", "numEvents": 0, "numAffected": 0, "numAtRisk": 27}, {"groupId": "EG002", "numEvents": 1, "numAffected": 1, "numAtRisk": 50}, {"groupId": "EG003", "numEvents": 0, "numAffected": 0, "numAtRisk": 51}, {"groupId": "EG004", "numEvents": 4, "numAffected": 4, "numAtRisk": 50}, {"groupId": "EG005", "numEvents": 0, "numAffected": 0, "numAtRisk": 51}]}, {"term": "Dyspnoea", "organSystem": "Respiratory, thoracic and mediastinal disorders", "sourceVocabulary": "MedDRA (21.0)", "assessmentType": "NON_SYSTEMATIC_ASSESSMENT", "stats": [{"groupId": "EG000", "numEvents": 3, "numAffected": 3, "numAtRisk": 76}, {"groupId": "EG001", "numEvents": 2, "numAffected": 2, "numAtRisk": 27}, {"groupId": "EG002", "numEvents": 2, "numAffected": 2, "numAtRisk": 50}, {"groupId": "EG003", "numEvents": 6, "numAffected": 5, "numAtRisk": 51}, {"groupId": "EG004", "numEvents": 3, "numAffected": 3, "numAtRisk": 50}, {"groupId": "EG005", "numEvents": 3, "numAffected": 3, "numAtRisk": 51}]}, {"term": "Pruritus", "organSystem": "Skin and subcutaneous tissue disorders", "sourceVocabulary": "MedDRA (21.0)", "assessmentType": "NON_SYSTEMATIC_ASSESSMENT", "stats": [{"groupId": "EG000", "numEvents": 2, "numAffected": 2, "numAtRisk": 76}, {"groupId": "EG001", "numEvents": 1, "numAffected": 1, "numAtRisk": 27}, {"groupId": "EG002", "numEvents": 1, "numAffected": 1, "numAtRisk": 50}, {"groupId": "EG003", "numEvents": 3, "numAffected": 3, "numAtRisk": 51}, {"groupId": "EG004", "numEvents": 0, "numAffected": 0, "numAtRisk": 50}, {"groupId": "EG005", "numEvents": 0, "numAffected": 0, "numAtRisk": 51}]}, {"term": "Hypertension", "organSystem": "Vascular disorders", "sourceVocabulary": "MedDRA (21.0)", "assessmentType": "NON_SYSTEMATIC_ASSESSMENT", "stats": [{"groupId": "EG000", "numEvents": 2, "numAffected": 2, "numAtRisk": 76}, {"groupId": "EG001", "numEvents": 1, "numAffected": 1, "numAtRisk": 27}, {"groupId": "EG002", "numEvents": 0, "numAffected": 0, "numAtRisk": 50}, {"groupId": "EG003", "numEvents": 6, "numAffected": 4, "numAtRisk": 51}, {"groupId": "EG004", "numEvents": 1, "numAffected": 1, "numAtRisk": 50}, {"groupId": "EG005", "numEvents": 1, "numAffected": 1, "numAtRisk": 51}]}]}, "moreInfoModule": {"certainAgreement": {"piSponsorEmployee": false, "restrictionType": "OTHER", "restrictiveAgreement": true, "otherDetails": "Material for public dissemination will be submitted to the Sponsor for review at least thirty (30) days prior to submission for publication, public dissemination, or review by a publication committee. If Sponsor does not respond within this period Institution and/or the Principal Investigator is/are free to proceed with the intended publication or presentation without further delay"}, "pointOfContact": {"title": "Therapeutic Area Head", "organization": "Bayer", "email": "clinical-trials-contact@bayer.com", "phone": "1-888-8422937"}}}, "documentSection": {"largeDocumentModule": {"largeDocs": [{"typeAbbrev": "SAP", "hasProtocol": false, "hasSap": true, "hasIcf": false, "label": "Statistical Analysis Plan", "date": "2018-06-15", "uploadDate": "2019-05-20T02:47", "filename": "SAP_000.pdf", "size": 835099}, {"typeAbbrev": "Prot", "hasProtocol": true, "hasSap": false, "hasIcf": false, "label": "Study Protocol", "date": "2017-02-14", "uploadDate": "2019-05-20T02:47", "filename": "Prot_001.pdf", "size": 1292037}]}}, "derivedSection": {"miscInfoModule": {"versionHolder": "2024-06-24"}, "conditionBrowseModule": {"meshes": [{"id": "D000006333", "term": "Heart Failure"}], "ancestors": [{"id": "D000006331", "term": "Heart Diseases"}, {"id": "D000002318", "term": "Cardiovascular Diseases"}], "browseLeaves": [{"id": "M9421", "name": "Heart Failure", "asFound": "Heart Failure", "relevance": "HIGH"}, {"id": "M9419", "name": "Heart Diseases", "relevance": "LOW"}, {"id": "T1303", "name": "Chronic Graft Versus Host Disease", "relevance": "LOW"}], "browseBranches": [{"abbrev": "BC14", "name": "Heart and Blood Diseases"}, {"abbrev": "All", "name": "All Conditions"}, {"abbrev": "Rare", "name": "Rare Diseases"}]}, "interventionBrowseModule": {"browseLeaves": [{"id": "M3595", "name": "Adenosine", "relevance": "LOW"}], "browseBranches": [{"abbrev": "AnArAg", "name": "Anti-Arrhythmia Agents"}, {"abbrev": "VaDiAg", "name": "Vasodilator Agents"}, {"abbrev": "Analg", "name": "Analgesics"}, {"abbrev": "All", "name": "All Drugs and Chemicals"}]}}, "hasResults": true}