{"protocolSection": {"identificationModule": {"nctId": "NCT01966458", "orgStudyIdInfo": {"id": "HW004-A"}, "organization": {"fullName": "Medtronic Cardiac Rhythm and Heart Failure", "class": "INDUSTRY"}, "briefTitle": "A Clinical Trial to Evaluate the HeartWare\u2122 Ventricular Assist System (ENDURANCE SUPPLEMENTAL TRIAL)", "officialTitle": "A Prospective, Randomized, Controlled, Unblinded, Multi-Center Clinical Trial to Evaluate the HeartWare\u2122 Ventricular Assist Device System for Destination Therapy of Advanced Heart Failure", "acronym": "DT2"}, "statusModule": {"statusVerifiedDate": "2020-10", "overallStatus": "COMPLETED", "expandedAccessInfo": {"hasExpandedAccess": false}, "startDateStruct": {"date": "2013-10", "type": "ACTUAL"}, "primaryCompletionDateStruct": {"date": "2016-08", "type": "ACTUAL"}, "completionDateStruct": {"date": "2020-08", "type": "ACTUAL"}, "studyFirstSubmitDate": "2013-10-17", "studyFirstSubmitQcDate": "2013-10-18", "studyFirstPostDateStruct": {"date": "2013-10-21", "type": "ESTIMATED"}, "resultsFirstSubmitDate": "2018-02-12", "resultsFirstSubmitQcDate": "2018-03-22", "resultsFirstPostDateStruct": {"date": "2018-04-23", "type": "ACTUAL"}, "lastUpdateSubmitDate": "2020-10-01", "lastUpdatePostDateStruct": {"date": "2020-10-23", "type": "ACTUAL"}}, "sponsorCollaboratorsModule": {"responsibleParty": {"type": "SPONSOR"}, "leadSponsor": {"name": "Medtronic Cardiac Rhythm and Heart Failure", "class": "INDUSTRY"}}, "oversightModule": {"oversightHasDmc": true}, "descriptionModule": {"briefSummary": "This is a prospective, randomized, controlled, unblinded, multi-center evaluation of safety and efficacy in patients implanted with a HeartWare\u00ae HVAD who receive improved blood pressure management. Subjects have chronic Stage D or NYHA Class IIIB/IV left ventricular failure who have received and failed optimal medical therapy, and who are ineligible for cardiac transplantation.", "detailedDescription": "The study will evaluate non-inferiority of neurologic injury incidence in a new cohort of subjects receiving improved blood pressure management to a control group (i.e., any FDA-approved LVAD for destination therapy). Secondary endpoints include: a comparison of stroke/TIA incidence to a reference observed in the original IDE clinical trial (HW004) that did not specify improved blood pressure management; and non-inferiority of stroke-free success on the originally implanted device to the control group. Subjects will be randomized to HeartWare\u00ae HVAD or control LVAD in a 2:1 ratio. Each subject receiving the HeartWare\u00ae HVAD or control LVAD is followed to the primary and secondary endpoints at 12 months, with a subsequent follow-up period extending to 60 months post-implant."}, "conditionsModule": {"conditions": ["Chronic Heart Failure"]}, "designModule": {"studyType": "INTERVENTIONAL", "phases": ["NA"], "designInfo": {"allocation": "RANDOMIZED", "interventionModel": "PARALLEL", "primaryPurpose": "TREATMENT", "maskingInfo": {"masking": "NONE"}}, "enrollmentInfo": {"count": 494, "type": "ACTUAL"}}, "armsInterventionsModule": {"armGroups": [{"label": "HeartWare\u00ae VAS (HVAD)", "type": "EXPERIMENTAL", "description": "Implant of HeartWare\u00ae Ventricular Assist System", "interventionNames": ["Device: HeartWare\u00ae VAS (HVAD)"]}, {"label": "Control LVAD", "type": "ACTIVE_COMPARATOR", "description": "Implant of FDA-approved LVAD approved for destination therapy", "interventionNames": ["Device: Control LVAD"]}], "interventions": [{"type": "DEVICE", "name": "HeartWare\u00ae VAS (HVAD)", "description": "The HeartWare\u00ae VAS is an implantable centrifugal pump that was designed to provide flows up to 10 L/min in a small device that is both lightweight and simple to use.", "armGroupLabels": ["HeartWare\u00ae VAS (HVAD)"]}, {"type": "DEVICE", "name": "Control LVAD", "description": "Any FDA-approved LVAD for destination therapy.", "armGroupLabels": ["Control LVAD"]}]}, "outcomesModule": {"primaryOutcomes": [{"measure": "Number of Participants With Neurologic Injury", "description": "The primary endpoint is the percent of participants at 12 months on the originally implanted device with neurologic injury, defined as a stroke with Modified Rankin Scale (MRS) \\> 0 at 24-weeks post-stroke, or a transient ischemic attack (TIA), or a spinal cord infarction (SCI). The Modified Rankin Scale is scored from 0 to 6, where 0 indicates an absence of symptoms and 6 indicates death. A score of 4 or higher indicates moderately severe or greater disability.", "timeFrame": "Implant to 12 Months"}], "secondaryOutcomes": [{"measure": "Number of HeartWare VAS Participants With Stroke/TIA", "description": "The first secondary endpoint is the number of HeartWare VAS participants with stroke/TIA at 12 months on the originally implanted device.", "timeFrame": "Implant to 12 Months"}, {"measure": "Number of Participants With Stroke-Free Success", "description": "Success is defined as alive on the originally implanted device, electively transplanted or explanted due to subject recovery and free from disabling stroke (Modified Rankin Scale \\>=4).", "timeFrame": "Implant to 12 Months"}]}, "eligibilityModule": {"eligibilityCriteria": "Inclusion Criteria:\n\n1. Must be \u226518 years of age at consent\n2. Body Surface Area (BSA) \u2265 1.2 m2\n3. Patients with advanced heart failure symptoms (Class IIIB or IV) who are: (patient must meet one of the following)a. On optimal medical management, including dietary salt restriction and diuretics, for at least 45 out of the last 60 days and are failing to respond; or b. In Class III or Class IV heart failure for at least 14 days, and dependent on intra-aortic balloon pump (IABP) for 7 days and/or inotropes for at least 14 days\n4. Left ventricular ejection fraction \u2264 25%\n5. LVAD implant is intended as destination therapy\n6. Must be able to receive either the HeartWare\u00ae HVAD or control LVAD\n7. Patient must agree to participate in and comply with an improved blood pressure management program, including maintenance of a patient diary.\n8. Female patients of childbearing potential must agree to use adequate contraceptive precautions (defined as oral contraceptives, intrauterine devices, surgical contraceptives or a combination of condom and spermicide) for the duration of the study.\n9. The patient or legally authorized representative has signed the informed consent form\n\nExclusion Criteria:\n\n1. Body Mass Index (BMI) \\> 40\n2. Existence of any ongoing mechanical circulatory support (MCS) other than an intra-aortic balloon pump (IABP)\n3. Prior cardiac transplant.\n4. History of confirmed, untreated abdominal or thoracic aortic aneurysm \\> 5 cm.\n5. Cardiothoracic surgery within 30 days of randomization.\n6. Acute myocardial infarction within 14 days of implant as diagnosed by ST or T wave changes on the ECG, diagnostic biomarkers, ongoing pain and hemodynamic abnormalities as described (Figure 2) in the guidelines published in ACC/AHA 2007 Guidelines for the Management of Patients with Unstable Angina/Non-ST-Elevation Myocardial Infarction ;.\n7. Patients eligible for cardiac transplantation\n8. On ventilator support for \\> 72 hours within the four days immediately prior to randomization and implant.\n9. Pulmonary embolus within three weeks of randomization as documented by computed tomography (CT) scan or nuclear scan.\n10. Symptomatic cerebrovascular disease, stroke within 180 days of randomization or \\> 80% stenosis of carotid or cranial vessels.\n11. Uncorrected moderate to severe aortic insufficiency. Correction may include repair or bioprosthesis at the time of implant.\n12. Severe right ventricular failure as defined by the anticipated need for right ventricular assist device (RVAD) support or extracorporeal membrane oxygenation (ECMO) at the time of screening/randomization or right atrial pressure \\> 20 mmHg on multiple inotropes or right ventricular ejection fraction (RVEF) \\<15% with clinical signs of severe right heart failure (e.g. Lower extremity edema, ascites or pleural effusions refractory to treatment with diuretics and two inotropic drugs).\n13. Active, uncontrolled infection diagnosed by a combination of clinical symptoms and laboratory testing, including but not limited to, continued positive cultures, elevated temperature and white blood cell (WBC) count, hypotension, tachycardia, generalized malaise despite appropriate antibiotic, antiviral or antifungal treatment.\n14. Uncorrected thrombocytopenia or generalized coagulopathy (e.g., platelet count \\< 75,000, INR \\> 2.0 or PTT \\> 2.5 times control in the absence of anticoagulation therapy).\n15. Intolerance to anticoagulant or antiplatelet therapies or any other peri- or postoperative therapy that the investigator may administer based upon the patient's health status.\n16. Serum creatinine \\> 3.0 mg/dL within 72 hours of randomization or requiring dialysis or ultrafiltration.\n17. Specific liver enzymes \\[AST (SGOT) and ALT (SGPT\\] \\> 3 times upper limit of normal within 72 hours of randomization.\n18. A total bilirubin \\> 3 mg/dl within 72 hours of randomization, or biopsy proven liver cirrhosis or portal hypertension.\n19. Pulmonary vascular resistance is demonstrated to be unresponsive to pharmacological manipulation and the PVR \\> 6 Wood units.\n20. Patients with a mechanical heart valve.\n21. Etiology of heart failure is due to, or associated with, uncorrected thyroid disease, obstructive cardiomyopathy, pericardial disease, amyloidosis, active myocarditis or restrictive cardiomyopathy\n22. History of severe COPD or severe restrictive lung disease (e.g. FEV1 \\<50%)\n23. Participation in any other study involving investigational drugs or devices\n24. Severe illness, other than heart disease, which would limit survival to \\< 3 years\n25. Peripheral vascular disease with rest pain or ischemic ulcers of the extremities\n26. Pregnancy\n27. Patient unwilling or unable to comply with study requirements\n28. Technical obstacles, which pose an inordinately high surgical risk, in the judgment of the investigator", "healthyVolunteers": false, "sex": "ALL", "minimumAge": "18 Years", "stdAges": ["ADULT", "OLDER_ADULT"]}, "contactsLocationsModule": {"overallOfficials": [{"name": "Francis Pagani, MD", "affiliation": "University of Michigan Hospital", "role": "PRINCIPAL_INVESTIGATOR"}, {"name": "Joseph Rogers, MD", "affiliation": "Duke University", "role": "PRINCIPAL_INVESTIGATOR"}], "locations": [{"facility": "The University of Alabama at Birmingham", "city": "Birmingham", "state": "Alabama", "zip": "35294", "country": "United States", "geoPoint": {"lat": 33.52066, "lon": -86.80249}}, {"facility": "Mayo Clinic (Arizona)", "city": "Phoenix", "state": "Arizona", "zip": "85054", "country": "United States", "geoPoint": {"lat": 33.44838, "lon": -112.07404}}, {"facility": "The University of Southern California", "city": "Los Angeles", "state": "California", "zip": "90033", "country": "United States", "geoPoint": {"lat": 34.05223, "lon": -118.24368}}, {"facility": "Cedars Sinai Medical Center", "city": "Los Angeles", "state": "California", "zip": "90048", "country": "United States", "geoPoint": {"lat": 34.05223, "lon": -118.24368}}, {"facility": "Stanford University School of Medicine", "city": "Stanford", "state": "California", "zip": "94305", "country": "United States", "geoPoint": {"lat": 37.42411, "lon": -122.16608}}, {"facility": "Washington Hospital Center", "city": "Washington", "state": "District of Columbia", "zip": "20010", "country": "United States", "geoPoint": {"lat": 38.89511, "lon": -77.03637}}, {"facility": "University of Florida Gainesville", "city": "Gainesville", "state": "Florida", "zip": "32610", "country": "United States", "geoPoint": {"lat": 29.65163, "lon": -82.32483}}, {"facility": "University of Miami / Jackson Memorial Hospital", "city": "Miami", "state": "Florida", "zip": "33136", "country": "United States", "geoPoint": {"lat": 25.77427, "lon": -80.19366}}, {"facility": "Tampa Transplant Institute/Tampa General Hospital", "city": "Tampa", "state": "Florida", "zip": "33606", "country": "United States", "geoPoint": {"lat": 27.94752, "lon": -82.45843}}, {"facility": "The Emory Clinic Inc.", "city": "Atlanta", "state": "Georgia", "zip": "30322", "country": "United States", "geoPoint": {"lat": 33.749, "lon": -84.38798}}, {"facility": "Saint Joseph Hospital of Atlanta", "city": "Atlanta", "state": "Georgia", "zip": "30342", "country": "United States", "geoPoint": {"lat": 33.749, "lon": -84.38798}}, {"facility": "Northwestern Memorial Hospital", "city": "Chicago", "state": "Illinois", "zip": "60611", "country": "United States", "geoPoint": {"lat": 41.85003, "lon": -87.65005}}, {"facility": "University of Chicago", "city": "Chicago", "state": "Illinois", "zip": "60637", "country": "United States", "geoPoint": {"lat": 41.85003, "lon": -87.65005}}, {"facility": "Advocate Christ Medical Center", "city": "Oak Lawn", "state": "Illinois", "zip": "60453", "country": "United States", "geoPoint": {"lat": 41.71087, "lon": -87.75811}}, {"facility": "IU Health Methodist", "city": "Indianapolis", "state": "Indiana", "zip": "46202", "country": "United States", "geoPoint": {"lat": 39.76838, "lon": -86.15804}}, {"facility": "St. Vincent Health", "city": "Indianapolis", "state": "Indiana", "zip": "46260", "country": "United States", "geoPoint": {"lat": 39.76838, "lon": -86.15804}}, {"facility": "Jewish Hospital", "city": "Louisville", "state": "Kentucky", "zip": "40202", "country": "United States", "geoPoint": {"lat": 38.25424, "lon": -85.75941}}, {"facility": "John Ochsner Heart & Vascular Institute", "city": "New Orleans", "state": "Louisiana", "zip": "70115", "country": "United States", "geoPoint": {"lat": 29.95465, "lon": -90.07507}}, {"facility": "University of Maryland", "city": "Baltimore", "state": "Maryland", "zip": "21201", "country": "United States", "geoPoint": {"lat": 39.29038, "lon": -76.61219}}, {"facility": "Johns Hopkins Hospital", "city": "Baltimore", "state": "Maryland", "zip": "21287", "country": "United States", "geoPoint": {"lat": 39.29038, "lon": -76.61219}}, {"facility": "Tufts Medical Center", "city": "Boston", "state": "Massachusetts", "zip": "02111", "country": "United States", "geoPoint": {"lat": 42.35843, "lon": -71.05977}}, {"facility": "University of Michigan Hospital", "city": "Ann Arbor", "state": "Michigan", "zip": "48109", "country": "United States", "geoPoint": {"lat": 42.27756, "lon": -83.74088}}, {"facility": "Henry Ford Hospital", "city": "Detroit", "state": "Michigan", "zip": "48202", "country": "United States", "geoPoint": {"lat": 42.33143, "lon": -83.04575}}, {"facility": "Abbott Northwestern", "city": "Minneapolis", "state": "Minnesota", "zip": "55407", "country": "United States", "geoPoint": {"lat": 44.97997, "lon": -93.26384}}, {"facility": "Mayo Clinic / St. Marys Hospital", "city": "Rochester", "state": "Minnesota", "zip": "55902", "country": "United States", "geoPoint": {"lat": 44.02163, "lon": -92.4699}}, {"facility": "Washington University / Barnes Jewish Hospital", "city": "Saint Louis", "state": "Missouri", "zip": "63110", "country": "United States", "geoPoint": {"lat": 38.62727, "lon": -90.19789}}, {"facility": "Montefiore Medical Center", "city": "Bronx", "state": "New York", "zip": "10467", "country": "United States", "geoPoint": {"lat": 40.84985, "lon": -73.86641}}, {"facility": "New York Presbyterian Hospital/Columbia", "city": "New York", "state": "New York", "zip": "10032", "country": "United States", "geoPoint": {"lat": 40.71427, "lon": -74.00597}}, {"facility": "Duke University Medical Center", "city": "Durham", "state": "North Carolina", "zip": "27710", "country": "United States", "geoPoint": {"lat": 35.99403, "lon": -78.89862}}, {"facility": "Cleveland Clinic Foundatiojn", "city": "Cleveland", "state": "Ohio", "zip": "44195", "country": "United States", "geoPoint": {"lat": 41.4995, "lon": -81.69541}}, {"facility": "Ohio State University Medical Center", "city": "Columbus", "state": "Ohio", "zip": "43210", "country": "United States", "geoPoint": {"lat": 39.96118, "lon": -82.99879}}, {"facility": "Oregon Health & Science University", "city": "Portland", "state": "Oregon", "zip": "97239", "country": "United States", "geoPoint": {"lat": 45.52345, "lon": -122.67621}}, {"facility": "Milton S. Hershey Medical Center", "city": "Hershey", "state": "Pennsylvania", "zip": "17033", "country": "United States", "geoPoint": {"lat": 40.28592, "lon": -76.65025}}, {"facility": "University of Pennsylvania Hospital", "city": "Philadelphia", "state": "Pennsylvania", "zip": "19104", "country": "United States", "geoPoint": {"lat": 39.95233, "lon": -75.16379}}, {"facility": "UPMC Presbyterian", "city": "Pittsburgh", "state": "Pennsylvania", "zip": "15213", "country": "United States", "geoPoint": {"lat": 40.44062, "lon": -79.99589}}, {"facility": "Vanderbilt University Medical Center", "city": "Nashville", "state": "Tennessee", "zip": "37232-8802", "country": "United States", "geoPoint": {"lat": 36.16589, "lon": -86.78444}}, {"facility": "Baylor University Medical Center", "city": "Dallas", "state": "Texas", "zip": "75246", "country": "United States", "geoPoint": {"lat": 32.78306, "lon": -96.80667}}, {"facility": "UT Southwestern Medical Center at Dallas", "city": "Dallas", "state": "Texas", "zip": "75390", "country": "United States", "geoPoint": {"lat": 32.78306, "lon": -96.80667}}, {"facility": "Texas Heart Institute", "city": "Houston", "state": "Texas", "zip": "77030", "country": "United States", "geoPoint": {"lat": 29.76328, "lon": -95.36327}}, {"facility": "The Methodist Hospital", "city": "Houston", "state": "Texas", "zip": "77030", "country": "United States", "geoPoint": {"lat": 29.76328, "lon": -95.36327}}, {"facility": "Intermountain Medical Center", "city": "Murray", "state": "Utah", "zip": "84107", "country": "United States", "geoPoint": {"lat": 40.66689, "lon": -111.88799}}, {"facility": "University of Utah", "city": "Salt Lake City", "state": "Utah", "zip": "84132", "country": "United States", "geoPoint": {"lat": 40.76078, "lon": -111.89105}}, {"facility": "Inova Fairfax Hospital", "city": "Falls Church", "state": "Virginia", "zip": "22042", "country": "United States", "geoPoint": {"lat": 38.88233, "lon": -77.17109}}, {"facility": "Sentara Norfolk", "city": "Norfolk", "state": "Virginia", "zip": "23507", "country": "United States", "geoPoint": {"lat": 36.84681, "lon": -76.28522}}, {"facility": "University of Washington Medical Center", "city": "Seattle", "state": "Washington", "zip": "98195", "country": "United States", "geoPoint": {"lat": 47.60621, "lon": -122.33207}}, {"facility": "Northwest Cardiothoracic &Transplant Surgeons", "city": "Spokane", "state": "Washington", "zip": "99204", "country": "United States", "geoPoint": {"lat": 47.65966, "lon": -117.42908}}, {"facility": "Aurora St. Luke's Medical Center", "city": "Milwaukee", "state": "Wisconsin", "zip": "53215", "country": "United States", "geoPoint": {"lat": 43.0389, "lon": -87.90647}}]}, "referencesModule": {"references": [{"pmid": "32740343", "type": "DERIVED", "citation": "Mahr C, McGee E Jr, Cheung A, Mokadam NA, Strueber M, Slaughter MS, Danter MR, Levy WC, Cheng RK, Beckman JA, May DM, Ismyrloglou E, Tsintzos SI, Silvestry SC. Cost-Effectiveness of Thoracotomy Approach for the Implantation of a Centrifugal Left Ventricular Assist Device. ASAIO J. 2020 Aug;66(8):855-861. doi: 10.1097/MAT.0000000000001209. Erratum In: ASAIO J. 2021 Aug 1;67(8):e148."}, {"pmid": "32740129", "type": "DERIVED", "citation": "Silvestry SC, Mahr C, Slaughter MS, Levy WC, Cheng RK, May DM, Ismyrloglou E, Tsintzos SI, Tuttle E, Cook K, Birk E, Gomes A, Graham S, Cotts WG. Cost-Effectiveness of a Small Intrapericardial Centrifugal Left Ventricular Assist Device. ASAIO J. 2020 Aug;66(8):862-870. doi: 10.1097/MAT.0000000000001211. Erratum In: ASAIO J. 2021 Aug 1;67(8):e149."}, {"pmid": "30007559", "type": "DERIVED", "citation": "Milano CA, Rogers JG, Tatooles AJ, Bhat G, Slaughter MS, Birks EJ, Mokadam NA, Mahr C, Miller JS, Markham DW, Jeevanandam V, Uriel N, Aaronson KD, Vassiliades TA, Pagani FD; ENDURANCE Investigators. HVAD: The ENDURANCE Supplemental Trial. JACC Heart Fail. 2018 Sep;6(9):792-802. doi: 10.1016/j.jchf.2018.05.012. Epub 2018 Jul 11."}]}}, "resultsSection": {"participantFlowModule": {"preAssignmentDetails": "Subjects were considered enrolled upon signing informed consent. 19 enrolled subjects weren't randomized as they were considered screen failures. 10 subjects were randomized but didn't receive a device due to death (with 1 subject dying post anesthesia but prior to Left Ventricular Assist Device (LVAD) implant) or screen failure prior to implant.", "groups": [{"id": "FG000", "title": "HeartWare\u00ae Ventricular Assist System (VAS)", "description": "HeartWare\u00ae Ventricular Assist System (VAS): The HeartWare\u00ae VAS is an implantable centrifugal pump that was designed to provide flows up to 10 L/min in a small device that is both lightweight and simple to use."}, {"id": "FG001", "title": "Control Left Ventricular Assist Device (LVAD)", "description": "Control Left Ventricular Assist Device (LVAD): Any Food and Drug Administration (FDA)-approved LVAD for destination therapy."}], "periods": [{"title": "Overall Study", "milestones": [{"type": "STARTED", "achievements": [{"groupId": "FG000", "numSubjects": "308"}, {"groupId": "FG001", "numSubjects": "157"}]}, {"type": "COMPLETED", "achievements": [{"groupId": "FG000", "numSubjects": "304"}, {"groupId": "FG001", "numSubjects": "155"}]}, {"type": "NOT COMPLETED", "achievements": [{"groupId": "FG000", "numSubjects": "4"}, {"groupId": "FG001", "numSubjects": "2"}]}]}]}, "baselineCharacteristicsModule": {"groups": [{"id": "BG000", "title": "HeartWare\u00ae VAS", "description": "HeartWare\u00ae VAS: The HeartWare\u00ae VAS is an implantable centrifugal pump that was designed to provide flows up to 10 L/min in a small device that is both lightweight and simple to use."}, {"id": "BG001", "title": "Control LVAD", "description": "Control LVAD: Any FDA-approved LVAD for destination therapy."}, {"id": "BG002", "title": "Total", "description": "Total of all reporting groups"}], "denoms": [{"units": "Participants", "counts": [{"groupId": "BG000", "value": "308"}, {"groupId": "BG001", "value": "157"}, {"groupId": "BG002", "value": "465"}]}], "measures": [{"title": "Age, Continuous", "paramType": "MEAN", "dispersionType": "STANDARD_DEVIATION", "unitOfMeasure": "years", "classes": [{"categories": [{"measurements": [{"groupId": "BG000", "value": "63.3", "spread": "11.44"}, {"groupId": "BG001", "value": "64.2", "spread": "11.14"}, {"groupId": "BG002", "value": "63.6", "spread": "11.34"}]}]}]}, {"title": "Sex: Female, Male", "paramType": "COUNT_OF_PARTICIPANTS", "unitOfMeasure": "Participants", "classes": [{"categories": [{"title": "Female", "measurements": [{"groupId": "BG000", "value": "56"}, {"groupId": "BG001", "value": "32"}, {"groupId": "BG002", "value": "88"}]}, {"title": "Male", "measurements": [{"groupId": "BG000", "value": "252"}, {"groupId": "BG001", "value": "125"}, {"groupId": "BG002", "value": "377"}]}]}]}, {"title": "Ethnicity (NIH/OMB)", "paramType": "COUNT_OF_PARTICIPANTS", "unitOfMeasure": "Participants", "classes": [{"categories": [{"title": "Hispanic or Latino", "measurements": [{"groupId": "BG000", "value": "20"}, {"groupId": "BG001", "value": "3"}, {"groupId": "BG002", "value": "23"}]}, {"title": "Not Hispanic or Latino", "measurements": [{"groupId": "BG000", "value": "288"}, {"groupId": "BG001", "value": "154"}, {"groupId": "BG002", "value": "442"}]}, {"title": "Unknown or Not Reported", "measurements": [{"groupId": "BG000", "value": "0"}, {"groupId": "BG001", "value": "0"}, {"groupId": "BG002", "value": "0"}]}]}]}, {"title": "Race/Ethnicity, Customized", "paramType": "COUNT_OF_PARTICIPANTS", "unitOfMeasure": "Participants", "classes": [{"title": "Race", "categories": [{"title": "American Indian/Alaska Native", "measurements": [{"groupId": "BG000", "value": "2"}, {"groupId": "BG001", "value": "1"}, {"groupId": "BG002", "value": "3"}]}, {"title": "Asian", "measurements": [{"groupId": "BG000", "value": "1"}, {"groupId": "BG001", "value": "2"}, {"groupId": "BG002", "value": "3"}]}, {"title": "Black/African American", "measurements": [{"groupId": "BG000", "value": "72"}, {"groupId": "BG001", "value": "33"}, {"groupId": "BG002", "value": "105"}]}, {"title": "Native Hawaiian/Pacific Islander", "measurements": [{"groupId": "BG000", "value": "1"}, {"groupId": "BG001", "value": "0"}, {"groupId": "BG002", "value": "1"}]}, {"title": "White", "measurements": [{"groupId": "BG000", "value": "221"}, {"groupId": "BG001", "value": "118"}, {"groupId": "BG002", "value": "339"}]}, {"title": "Other", "measurements": [{"groupId": "BG000", "value": "11"}, {"groupId": "BG001", "value": "3"}, {"groupId": "BG002", "value": "14"}]}]}]}]}, "outcomeMeasuresModule": {"outcomeMeasures": [{"type": "PRIMARY", "title": "Number of Participants With Neurologic Injury", "description": "The primary endpoint is the percent of participants at 12 months on the originally implanted device with neurologic injury, defined as a stroke with Modified Rankin Scale (MRS) \\> 0 at 24-weeks post-stroke, or a transient ischemic attack (TIA), or a spinal cord infarction (SCI). The Modified Rankin Scale is scored from 0 to 6, where 0 indicates an absence of symptoms and 6 indicates death. A score of 4 or higher indicates moderately severe or greater disability.", "populationDescription": "Subjects were excluded if they withdrew, were lost to follow-up or have missing outcomes on original device.", "reportingStatus": "POSTED", "paramType": "COUNT_OF_PARTICIPANTS", "unitOfMeasure": "Participants", "timeFrame": "Implant to 12 Months", "groups": [{"id": "OG000", "title": "HeartWare\u00ae VAS", "description": "HeartWare\u00ae VAS: The HeartWare\u00ae VAS is an implantable centrifugal pump that was designed to provide flows up to 10 L/min in a small device that is both lightweight and simple to use."}, {"id": "OG001", "title": "Control LVAD", "description": "Control LVAD: Any FDA-approved LVAD for destination therapy."}], "denoms": [{"units": "Participants", "counts": [{"groupId": "OG000", "value": "306"}, {"groupId": "OG001", "value": "157"}]}], "classes": [{"categories": [{"measurements": [{"groupId": "OG000", "value": "45"}, {"groupId": "OG001", "value": "19"}]}]}], "analyses": [{"groupIds": ["OG000", "OG001"], "groupDescription": "The primary endpoint is a non-inferiority test comparing HeartWare\u00ae VAS to Control.", "nonInferiorityType": "NON_INFERIORITY", "nonInferiorityComment": "A non-inferiority margin of 6% was pre-specified.", "pValue": "0.1444", "statisticalMethod": "Farrington-Manning asymptotic test", "paramType": "Risk Difference (RD)", "paramValue": "2.6", "ciPctValue": "90", "ciNumSides": "TWO_SIDED", "ciLowerLimit": "-5.5", "ciUpperLimit": "10.7", "estimateComment": "Difference = HeartWare\u00ae VAS incidence rate - Control incidence rate Two-sided 90% exact binomial confident interval is used."}]}, {"type": "SECONDARY", "title": "Number of HeartWare VAS Participants With Stroke/TIA", "description": "The first secondary endpoint is the number of HeartWare VAS participants with stroke/TIA at 12 months on the originally implanted device.", "populationDescription": "Subjects were excluded if they withdrew or were lost to follow up on the original device.", "reportingStatus": "POSTED", "paramType": "COUNT_OF_PARTICIPANTS", "unitOfMeasure": "Participants", "timeFrame": "Implant to 12 Months", "groups": [{"id": "OG000", "title": "HeartWare\u00ae VAS", "description": "HeartWare\u00ae VAS: The HeartWare\u00ae VAS is an implantable centrifugal pump that was designed to provide flows up to 10 L/min in a small device that is both lightweight and simple to use."}], "denoms": [{"units": "Participants", "counts": [{"groupId": "OG000", "value": "307"}]}], "classes": [{"categories": [{"measurements": [{"groupId": "OG000", "value": "59"}]}]}], "analyses": [{"groupIds": ["OG000"], "groupDescription": "The first secondary endpoint is the percent of participants with stroke/TIA at 12 months on the originally implanted device. It will be compared to 17.7%, which is the lower bound of a pre-defined margin of superiority based on the Endurance clinical trial.", "nonInferiorityType": "SUPERIORITY", "pValue": "0.7363", "statisticalMethod": "Exact Binomial Test", "paramType": "Percent of Participants", "paramValue": "19.2", "ciPctValue": "90", "ciNumSides": "TWO_SIDED", "ciLowerLimit": "15.6", "ciUpperLimit": "23.3", "estimateComment": "Two-sided exact binomial confidence interval used"}]}, {"type": "SECONDARY", "title": "Number of Participants With Stroke-Free Success", "description": "Success is defined as alive on the originally implanted device, electively transplanted or explanted due to subject recovery and free from disabling stroke (Modified Rankin Scale \\>=4).", "populationDescription": "Subjects were excluded if they had no associated 24 week post-stroke Modified Rankin Scale value, or if the subject withdrew or was lost to follow-up on original device, and no other failure outcome occurred within 1 year post original implant.", "reportingStatus": "POSTED", "paramType": "COUNT_OF_PARTICIPANTS", "unitOfMeasure": "Participants", "timeFrame": "Implant to 12 Months", "groups": [{"id": "OG000", "title": "HeartWare\u00ae VAS", "description": "HeartWare\u00ae VAS: The HeartWare\u00ae VAS is an implantable centrifugal pump that was designed to provide flows up to 10 L/min in a small device that is both lightweight and simple to use."}, {"id": "OG001", "title": "Control LVAD", "description": "Control LVAD: Any FDA-approved LVAD for destination therapy."}], "denoms": [{"units": "Participants", "counts": [{"groupId": "OG000", "value": "301"}, {"groupId": "OG001", "value": "157"}]}], "classes": [{"categories": [{"measurements": [{"groupId": "OG000", "value": "229"}, {"groupId": "OG001", "value": "105"}]}]}], "analyses": [{"groupIds": ["OG000", "OG001"], "nonInferiorityType": "NON_INFERIORITY", "nonInferiorityComment": "The non-inferiority margin on the difference in success proportions is 15%.", "pValue": "<0.0001", "statisticalMethod": "Farrington-Manning asymptotic test", "paramType": "Difference in Percentages", "paramValue": "-9.2", "ciPctValue": "90", "ciNumSides": "TWO_SIDED", "ciLowerLimit": "-17.2", "ciUpperLimit": "-1.1", "estimateComment": "Difference = Control success rate - HeartWare\u00ae VAS success rate Two-sided 90% exact binomial confidence interval is used"}, {"groupIds": ["OG000", "OG001"], "nonInferiorityType": "SUPERIORITY", "pValue": "0.0354", "statisticalMethod": "Chi-squared"}]}]}, "adverseEventsModule": {"frequencyThreshold": "5", "timeFrame": "The adverse events are summarized from the date of implant through 12 months while on the originally implanted device. Subjects are analyzed based on the device they actually received.", "description": "The Intermacs (Interagency Registry for Mechanically Assisted Circulatory Support) adverse event definitions are geared towards subjects who have a mechanically circulatory support device.", "eventGroups": [{"id": "EG000", "title": "HeartWare\u00ae VAS", "description": "Implant of HeartWare\u00ae Ventricular Assist System\n\nHeartWare\u00ae VAS: The HeartWare\u00ae VAS is an implantable centrifugal pump that was designed to provide flows up to 10 L/min in a small device that is both lightweight and simple to use.", "deathsNumAffected": 56, "deathsNumAtRisk": 308, "seriousNumAffected": 295, "seriousNumAtRisk": 308, "otherNumAffected": 95, "otherNumAtRisk": 308}, {"id": "EG001", "title": "Control LVAD", "description": "Implant of FDA-approved LVAD approved for destination therapy\n\nControl LVAD: Any FDA-approved LVAD for destination therapy.", "deathsNumAffected": 31, "deathsNumAtRisk": 157, "seriousNumAffected": 152, "seriousNumAtRisk": 157, "otherNumAffected": 40, "otherNumAtRisk": 157}], "seriousEvents": [{"term": "Major Bleeding", "organSystem": "Blood and lymphatic system disorders", "sourceVocabulary": "Intermacs Ver. 3.0", "assessmentType": "SYSTEMATIC_ASSESSMENT", "stats": [{"groupId": "EG000", "numEvents": 297, "numAffected": 156, "numAtRisk": 308}, {"groupId": "EG001", "numEvents": 190, "numAffected": 87, "numAtRisk": 157}]}, {"term": "Cardiac Arrhythmia", "organSystem": "Cardiac disorders", "sourceVocabulary": "Intermacs Ver. 3.0", "assessmentType": "SYSTEMATIC_ASSESSMENT", "stats": [{"groupId": "EG000", "numEvents": 132, "numAffected": 95, "numAtRisk": 308}, {"groupId": "EG001", "numEvents": 49, "numAffected": 42, "numAtRisk": 157}]}, {"term": "Device Malfunction/Failure", "organSystem": "Product Issues", "sourceVocabulary": "Intermacs Ver. 3.0", "assessmentType": "SYSTEMATIC_ASSESSMENT", "stats": [{"groupId": "EG000", "numEvents": 81, "numAffected": 60, "numAtRisk": 308}, {"groupId": "EG001", "numEvents": 46, "numAffected": 38, "numAtRisk": 157}]}, {"term": "Hemolysis", "organSystem": "Blood and lymphatic system disorders", "sourceVocabulary": "Intermacs Ver. 3.0", "assessmentType": "SYSTEMATIC_ASSESSMENT", "stats": [{"groupId": "EG000", "numEvents": 4, "numAffected": 3, "numAtRisk": 308}, {"groupId": "EG001", "numEvents": 8, "numAffected": 8, "numAtRisk": 157}]}, {"term": "Hepatic Dysfunction", "organSystem": "Hepatobiliary disorders", "sourceVocabulary": "Intermacs Ver. 3.0", "assessmentType": "SYSTEMATIC_ASSESSMENT", "stats": [{"groupId": "EG000", "numEvents": 10, "numAffected": 10, "numAtRisk": 308}, {"groupId": "EG001", "numEvents": 6, "numAffected": 6, "numAtRisk": 157}]}, {"term": "Hypertension", "organSystem": "Cardiac disorders", "sourceVocabulary": "Intermacs Ver. 3.0", "assessmentType": "SYSTEMATIC_ASSESSMENT", "stats": [{"groupId": "EG000", "numEvents": 34, "numAffected": 27, "numAtRisk": 308}, {"groupId": "EG001", "numEvents": 12, "numAffected": 12, "numAtRisk": 157}]}, {"term": "Major Infection", "organSystem": "Infections and infestations", "sourceVocabulary": "Intermacs Ver. 3.0", "assessmentType": "SYSTEMATIC_ASSESSMENT", "stats": [{"groupId": "EG000", "numEvents": 259, "numAffected": 150, "numAtRisk": 308}, {"groupId": "EG001", "numEvents": 149, "numAffected": 85, "numAtRisk": 157}]}, {"term": "Myocardial Infarction", "organSystem": "Cardiac disorders", "sourceVocabulary": "Intermacs Ver. 3.0", "assessmentType": "SYSTEMATIC_ASSESSMENT", "stats": [{"groupId": "EG000", "numEvents": 0, "numAffected": 0, "numAtRisk": 308}, {"groupId": "EG001", "numEvents": 2, "numAffected": 2, "numAtRisk": 157}]}, {"term": "Neurological Dysfunction", "organSystem": "Nervous system disorders", "sourceVocabulary": "Intermacs Ver. 3.0", "assessmentType": "SYSTEMATIC_ASSESSMENT", "stats": [{"groupId": "EG000", "numEvents": 83, "numAffected": 57, "numAtRisk": 308}, {"groupId": "EG001", "numEvents": 26, "numAffected": 24, "numAtRisk": 157}]}, {"term": "Pericardial Fluid Collection", "organSystem": "Cardiac disorders", "sourceVocabulary": "Intermacs Ver. 3.0", "assessmentType": "SYSTEMATIC_ASSESSMENT", "stats": [{"groupId": "EG000", "numEvents": 18, "numAffected": 17, "numAtRisk": 308}, {"groupId": "EG001", "numEvents": 15, "numAffected": 13, "numAtRisk": 157}]}, {"term": "Psychiatric Episode", "organSystem": "Psychiatric disorders", "sourceVocabulary": "Intermacs Ver. 3.0", "assessmentType": "SYSTEMATIC_ASSESSMENT", "stats": [{"groupId": "EG000", "numEvents": 35, "numAffected": 34, "numAtRisk": 308}, {"groupId": "EG001", "numEvents": 12, "numAffected": 11, "numAtRisk": 157}]}, {"term": "Renal Dysfunction", "organSystem": "Renal and urinary disorders", "sourceVocabulary": "Intermacs Ver. 3.0", "assessmentType": "SYSTEMATIC_ASSESSMENT", "stats": [{"groupId": "EG000", "numEvents": 35, "numAffected": 32, "numAtRisk": 308}, {"groupId": "EG001", "numEvents": 25, "numAffected": 23, "numAtRisk": 157}]}, {"term": "Respiratory Failure", "organSystem": "Respiratory, thoracic and mediastinal disorders", "sourceVocabulary": "Intermacs Ver. 3.0", "assessmentType": "SYSTEMATIC_ASSESSMENT", "stats": [{"groupId": "EG000", "numEvents": 74, "numAffected": 61, "numAtRisk": 308}, {"groupId": "EG001", "numEvents": 37, "numAffected": 31, "numAtRisk": 157}]}, {"term": "Right Heart Failure", "organSystem": "Cardiac disorders", "sourceVocabulary": "Intermacs Ver. 3.0", "assessmentType": "SYSTEMATIC_ASSESSMENT", "stats": [{"groupId": "EG000", "numEvents": 101, "numAffected": 94, "numAtRisk": 308}, {"groupId": "EG001", "numEvents": 61, "numAffected": 56, "numAtRisk": 157}]}, {"term": "Arterial Non-CNS Thromboembolism", "organSystem": "Vascular disorders", "sourceVocabulary": "Intermacs Ver. 3.0", "assessmentType": "SYSTEMATIC_ASSESSMENT", "stats": [{"groupId": "EG000", "numEvents": 3, "numAffected": 3, "numAtRisk": 308}, {"groupId": "EG001", "numEvents": 0, "numAffected": 0, "numAtRisk": 157}]}, {"term": "Venous Thromboembolism", "organSystem": "Vascular disorders", "sourceVocabulary": "Intermacs Ver. 3.0", "assessmentType": "SYSTEMATIC_ASSESSMENT", "stats": [{"groupId": "EG000", "numEvents": 11, "numAffected": 11, "numAtRisk": 308}, {"groupId": "EG001", "numEvents": 5, "numAffected": 4, "numAtRisk": 157}]}, {"term": "Wound Dehiscence", "organSystem": "Skin and subcutaneous tissue disorders", "sourceVocabulary": "Intermacs Ver. 3.0", "assessmentType": "SYSTEMATIC_ASSESSMENT", "stats": [{"groupId": "EG000", "numEvents": 1, "numAffected": 1, "numAtRisk": 308}, {"groupId": "EG001", "numEvents": 1, "numAffected": 1, "numAtRisk": 157}]}, {"term": "Other Intermacs", "organSystem": "General disorders", "sourceVocabulary": "Intermacs Ver. 3.0", "assessmentType": "SYSTEMATIC_ASSESSMENT", "stats": [{"groupId": "EG000", "numEvents": 599, "numAffected": 219, "numAtRisk": 308}, {"groupId": "EG001", "numEvents": 265, "numAffected": 106, "numAtRisk": 157}]}], "otherEvents": [{"term": "Cardiac Arrhythmia", "organSystem": "Cardiac disorders", "sourceVocabulary": "Intermacs Ver. 3.0", "assessmentType": "SYSTEMATIC_ASSESSMENT", "stats": [{"groupId": "EG000", "numEvents": 19, "numAffected": 16, "numAtRisk": 308}, {"groupId": "EG001", "numEvents": 7, "numAffected": 7, "numAtRisk": 157}]}, {"term": "Device Malfunction/Failure", "organSystem": "Product Issues", "sourceVocabulary": "Intermacs Ver. 3.0", "assessmentType": "SYSTEMATIC_ASSESSMENT", "stats": [{"groupId": "EG000", "numEvents": 26, "numAffected": 18, "numAtRisk": 308}, {"groupId": "EG001", "numEvents": 1, "numAffected": 1, "numAtRisk": 157}]}, {"term": "Hypertension", "organSystem": "Cardiac disorders", "sourceVocabulary": "Intermacs Ver. 3.0", "assessmentType": "SYSTEMATIC_ASSESSMENT", "stats": [{"groupId": "EG000", "numEvents": 20, "numAffected": 16, "numAtRisk": 308}, {"groupId": "EG001", "numEvents": 9, "numAffected": 8, "numAtRisk": 157}]}, {"term": "Major Infection", "organSystem": "Infections and infestations", "sourceVocabulary": "Intermacs Ver. 3.0", "assessmentType": "SYSTEMATIC_ASSESSMENT", "stats": [{"groupId": "EG000", "numEvents": 41, "numAffected": 33, "numAtRisk": 308}, {"groupId": "EG001", "numEvents": 32, "numAffected": 24, "numAtRisk": 157}]}, {"term": "Other Intermacs", "organSystem": "General disorders", "sourceVocabulary": "Intermacs Ver. 3.0", "assessmentType": "SYSTEMATIC_ASSESSMENT", "stats": [{"groupId": "EG000", "numEvents": 30, "numAffected": 29, "numAtRisk": 308}, {"groupId": "EG001", "numEvents": 8, "numAffected": 8, "numAtRisk": 157}]}]}, "moreInfoModule": {"certainAgreement": {"piSponsorEmployee": false, "restrictionType": "OTHER", "restrictiveAgreement": true, "otherDetails": "In most cases, the contract allows the principal investigator to publish their data after the release of the multi-center publication (or one year after the conclusion of the study if no multi-center publication is submitted) following the sponsor review for (a) disclosure of confidential information, and (b) information that would impair the sponsor's ability to obtain patent protection."}, "pointOfContact": {"title": "Thomas Vassiliades", "organization": "Medtronic", "email": "thomas.a.vassiliades@medtronic.com", "phone": "+15085321942"}}}, "derivedSection": {"miscInfoModule": {"versionHolder": "2024-06-24"}, "conditionBrowseModule": {"meshes": [{"id": "D000006333", "term": "Heart Failure"}], "ancestors": [{"id": "D000006331", "term": "Heart Diseases"}, {"id": "D000002318", "term": "Cardiovascular Diseases"}], "browseLeaves": [{"id": "M9421", "name": "Heart Failure", "asFound": "Heart Failure", "relevance": "HIGH"}, {"id": "M9419", "name": "Heart Diseases", "relevance": "LOW"}, {"id": "T1303", "name": "Chronic Graft Versus Host Disease", "relevance": "LOW"}], "browseBranches": [{"abbrev": "BC14", "name": "Heart and Blood Diseases"}, {"abbrev": "All", "name": "All Conditions"}, {"abbrev": "Rare", "name": "Rare Diseases"}]}}, "hasResults": true}