{"protocolSection": {"identificationModule": {"nctId": "NCT01591044", "orgStudyIdInfo": {"id": "C-940343-004"}, "organization": {"fullName": "Rigel Pharmaceuticals", "class": "INDUSTRY"}, "briefTitle": "A Safety and Efficacy Study of Inhaled R940343 in Patients With Mild to Moderate Asthma", "officialTitle": "A Phase 2, Multi-Center, Randomized, Double-Blind, Placebo-Controlled, Parallel Group Study of Two Doses of Inhaled R940343 in Patients With Mild to Moderate Allergic Asthma", "acronym": "SITAR"}, "statusModule": {"statusVerifiedDate": "2016-08", "overallStatus": "COMPLETED", "expandedAccessInfo": {"hasExpandedAccess": false}, "startDateStruct": {"date": "2012-07"}, "primaryCompletionDateStruct": {"date": "2013-07", "type": "ACTUAL"}, "completionDateStruct": {"date": "2013-07", "type": "ACTUAL"}, "studyFirstSubmitDate": "2012-04-30", "studyFirstSubmitQcDate": "2012-05-02", "studyFirstPostDateStruct": {"date": "2012-05-03", "type": "ESTIMATED"}, "resultsFirstSubmitDate": "2016-05-17", "resultsFirstSubmitQcDate": "2016-08-05", "resultsFirstPostDateStruct": {"date": "2016-09-29", "type": "ESTIMATED"}, "lastUpdateSubmitDate": "2016-08-05", "lastUpdatePostDateStruct": {"date": "2016-09-29", "type": "ESTIMATED"}}, "sponsorCollaboratorsModule": {"responsibleParty": {"type": "SPONSOR"}, "leadSponsor": {"name": "Rigel Pharmaceuticals", "class": "INDUSTRY"}}, "oversightModule": {"oversightHasDmc": false}, "descriptionModule": {"briefSummary": "The purpose of this study is to determine the safety, efficacy and tolerability of R940343 in the treatment of mild to moderate asthma.", "detailedDescription": "The study is a multi-center, randomized, double-blind, placebo-controlled, parallel group study comparing 2 doses of inhaled R343 bid to placebo over 8 weeks in patients with mild to moderate allergic asthma. Patients who meet specific inclusion and exclusion criteria after an initial screening evaluation and a single-blind, run-in period will be randomized to receive either R343 or placebo."}, "conditionsModule": {"conditions": ["Asthma"]}, "designModule": {"studyType": "INTERVENTIONAL", "phases": ["PHASE2"], "designInfo": {"allocation": "RANDOMIZED", "interventionModel": "PARALLEL", "primaryPurpose": "TREATMENT", "maskingInfo": {"masking": "QUADRUPLE", "whoMasked": ["PARTICIPANT", "CARE_PROVIDER", "INVESTIGATOR", "OUTCOMES_ASSESSOR"]}}, "enrollmentInfo": {"count": 301, "type": "ACTUAL"}}, "armsInterventionsModule": {"armGroups": [{"label": "R940343 2mg, 2 puffs bid", "type": "ACTIVE_COMPARATOR", "description": "R343 2mg, 2 puffs bid", "interventionNames": ["Drug: R940343 2mg"]}, {"label": "Placebo", "type": "PLACEBO_COMPARATOR", "interventionNames": ["Drug: Placebo"]}, {"label": "R940343 1mg, 1 puff bid", "type": "ACTIVE_COMPARATOR", "description": "R343 1mg, 1 puff bid", "interventionNames": ["Drug: R940343 1mg"]}], "interventions": [{"type": "DRUG", "name": "Placebo", "description": "1 puff bid or 2 puffs bid", "armGroupLabels": ["Placebo"]}, {"type": "DRUG", "name": "R940343 1mg", "description": "R343 1mg, 1 puff bid", "armGroupLabels": ["R940343 1mg, 1 puff bid"], "otherNames": ["R343"]}, {"type": "DRUG", "name": "R940343 2mg", "description": "R343 2mg, 2 puffs bid", "armGroupLabels": ["R940343 2mg, 2 puffs bid"], "otherNames": ["R343"]}]}, "outcomesModule": {"primaryOutcomes": [{"measure": "Change in FEV1", "description": "Change from baseline in pre-BD FEV1 (% predicted) at Week 8.", "timeFrame": "Baseline and Week 8"}]}, "eligibilityModule": {"eligibilityCriteria": "Inclusion Criteria:\n\n* Clinical history of asthma\n* Ability to perform spirometry\n\nExclusion Criteria:\n\n* Chronic obstructive pulmonary disease or bronchiectasis\n* Upper or lower respiratory infection", "healthyVolunteers": false, "sex": "ALL", "minimumAge": "18 Years", "maximumAge": "70 Years", "stdAges": ["ADULT", "OLDER_ADULT"]}, "contactsLocationsModule": {"overallOfficials": [{"name": "Elliott Grossbard, MD", "affiliation": "Rigel Pharmaceuticals,Inc.", "role": "STUDY_DIRECTOR"}], "locations": [{"facility": "California Research Medical Group, Inc", "city": "Fullerton", "state": "California", "zip": "92835", "country": "United States", "geoPoint": {"lat": 33.87029, "lon": -117.92534}}, {"facility": "Allergy Medical Clinic Research Division", "city": "Los Angeles", "state": "California", "zip": "90025", "country": "United States", "geoPoint": {"lat": 34.05223, "lon": -118.24368}}, {"facility": "California Allergy & Asthma Medical Group, INC", "city": "Los Angeles", "state": "California", "zip": "90025", "country": "United States", "geoPoint": {"lat": 34.05223, "lon": -118.24368}}, {"facility": "Southern California Institute for Respiratory Diseases, Inc.", "city": "Los Angeles", "state": "California", "zip": "90048", "country": "United States", "geoPoint": {"lat": 34.05223, "lon": -118.24368}}, {"facility": "Allergy & Asthma Associates of Southern California", "city": "Mission Viejo", "state": "California", "zip": "92691", "country": "United States", "geoPoint": {"lat": 33.60002, "lon": -117.672}}, {"facility": "CHOC PSF, AMC, Division of Allergy, Asthma & Immunology", "city": "Orange", "state": "California", "zip": "92868", "country": "United States", "geoPoint": {"lat": 33.78779, "lon": -117.85311}}, {"facility": "Peninsula Research Associates", "city": "Rolling Hills Estates", "state": "California", "zip": "90274", "country": "United States", "geoPoint": {"lat": 33.78779, "lon": -118.35813}}, {"facility": "Allergy Associates Medical Group. Inc.", "city": "San Diego", "state": "California", "zip": "92120", "country": "United States", "geoPoint": {"lat": 32.71533, "lon": -117.15726}}, {"facility": "Allergy & Asthma Med Group/Research Center", "city": "San Diego", "state": "California", "zip": "92123", "country": "United States", "geoPoint": {"lat": 32.71533, "lon": -117.15726}}, {"facility": "Allergy & Asthma Associates of Santa Clara Valley", "city": "San Jose", "state": "California", "zip": "95117", "country": "United States", "geoPoint": {"lat": 37.33939, "lon": -121.89496}}, {"facility": "Bensch Research Associates", "city": "Stockton", "state": "California", "zip": "95207", "country": "United States", "geoPoint": {"lat": 37.9577, "lon": -121.29078}}, {"facility": "Colorado Allergy and Asthma Clinic, PC", "city": "Centennial", "state": "Colorado", "zip": "80112", "country": "United States", "geoPoint": {"lat": 39.57916, "lon": -104.87692}}, {"facility": "Asthma & Allergy Associates, PC", "city": "Colorado Springs", "state": "Colorado", "zip": "80907", "country": "United States", "geoPoint": {"lat": 38.83388, "lon": -104.82136}}, {"facility": "National Jewish Health", "city": "Denver", "state": "Colorado", "zip": "80206", "country": "United States", "geoPoint": {"lat": 39.73915, "lon": -104.9847}}, {"facility": "Colorado Allergy & Asthma Centers, PC", "city": "Denver", "state": "Colorado", "zip": "80230", "country": "United States", "geoPoint": {"lat": 39.73915, "lon": -104.9847}}, {"facility": "Florida Center for Allergy & Asthma Research", "city": "Aventura", "state": "Florida", "zip": "33180", "country": "United States", "geoPoint": {"lat": 25.95648, "lon": -80.13921}}, {"facility": "Accelovance", "city": "Melbourne", "state": "Florida", "zip": "32935", "country": "United States", "geoPoint": {"lat": 28.08363, "lon": -80.60811}}, {"facility": "Sarasota Clinical Research", "city": "Sarasota", "state": "Florida", "zip": "34233", "country": "United States", "geoPoint": {"lat": 27.33643, "lon": -82.53065}}, {"facility": "Georgia Pollens Clinical Research Centers, Inc.", "city": "Albany", "state": "Georgia", "zip": "31707", "country": "United States", "geoPoint": {"lat": 31.57851, "lon": -84.15574}}, {"facility": "Idaho Allergy DBA Idaho Research", "city": "Eagle", "state": "Idaho", "zip": "83616", "country": "United States", "geoPoint": {"lat": 43.69544, "lon": -116.35401}}, {"facility": "Sneeze, Wheeze & Itch Associates", "city": "Normal", "state": "Illinois", "zip": "61761", "country": "United States", "geoPoint": {"lat": 40.5142, "lon": -88.99063}}, {"facility": "Chesapeake Clinical Research, Inc.", "city": "Baltimore", "state": "Maryland", "zip": "21236", "country": "United States", "geoPoint": {"lat": 39.29038, "lon": -76.61219}}, {"facility": "Northeast Medical Research Associates, Inc.", "city": "North Dartmouth", "state": "Massachusetts", "zip": "02747", "country": "United States", "geoPoint": {"lat": 41.63899, "lon": -70.97032}}, {"facility": "Respiratory Medicine Researh Institute of Michigan", "city": "Ypsilanti", "state": "Michigan", "zip": "48197", "country": "United States", "geoPoint": {"lat": 42.24115, "lon": -83.61299}}, {"facility": "Clinical Research Institute", "city": "Minneapolis", "state": "Minnesota", "zip": "55402", "country": "United States", "geoPoint": {"lat": 44.97997, "lon": -93.26384}}, {"facility": "Clinical Research Institute, Inc.", "city": "Plymouth", "state": "Minnesota", "zip": "55441", "country": "United States", "geoPoint": {"lat": 45.01052, "lon": -93.45551}}, {"facility": "Clinical Research of The Ozarks, Inc.", "city": "Columbia", "state": "Missouri", "zip": "65203", "country": "United States", "geoPoint": {"lat": 38.95171, "lon": -92.33407}}, {"facility": "The Clinical Research Center, LLC", "city": "St Louis", "state": "Missouri", "zip": "63141", "country": "United States", "geoPoint": {"lat": 38.62727, "lon": -90.19789}}, {"facility": "Clinical Research Group of Montana PLLC", "city": "Bozeman", "state": "Montana", "zip": "59718", "country": "United States", "geoPoint": {"lat": 45.67965, "lon": -111.03856}}, {"facility": "The Asthma & Allergy Center", "city": "Bellevue", "state": "Nebraska", "zip": "68123", "country": "United States", "geoPoint": {"lat": 41.13667, "lon": -95.89084}}, {"facility": "Atlantic Research Center, LLC", "city": "Ocean", "state": "New Jersey", "zip": "07712", "country": "United States", "geoPoint": {"lat": 39.27762, "lon": -74.5746}}, {"facility": "Princeton Center for Clinical Research", "city": "Skillman", "state": "New Jersey", "zip": "08558", "country": "United States", "geoPoint": {"lat": 40.42011, "lon": -74.7146}}, {"facility": "Allergy Consultants, PA", "city": "Verona", "state": "New Jersey", "zip": "07044", "country": "United States", "geoPoint": {"lat": 40.82982, "lon": -74.24015}}, {"facility": "New York Pulmonary Associates, P.C.", "city": "New York", "state": "New York", "zip": "10016", "country": "United States", "geoPoint": {"lat": 40.71427, "lon": -74.00597}}, {"facility": "Allergy Asthma Immunology of Rochester (AAIR)", "city": "Rochester", "state": "New York", "zip": "14618", "country": "United States", "geoPoint": {"lat": 43.15478, "lon": -77.61556}}, {"facility": "Peters Medical Research", "city": "High Point", "state": "North Carolina", "zip": "27262", "country": "United States", "geoPoint": {"lat": 35.95569, "lon": -80.00532}}, {"facility": "North Carolina Clinical Research", "city": "Raleigh", "state": "North Carolina", "zip": "27607", "country": "United States", "geoPoint": {"lat": 35.7721, "lon": -78.63861}}, {"facility": "New Horizons Clinical Research", "city": "Cincinnati", "state": "Ohio", "zip": "45242", "country": "United States", "geoPoint": {"lat": 39.12713, "lon": -84.51435}}, {"facility": "Allergy, Asthma & Clinical Research Center", "city": "Oklahoma City", "state": "Oklahoma", "zip": "73120", "country": "United States", "geoPoint": {"lat": 35.46756, "lon": -97.51643}}, {"facility": "Allergy & Asthma Research Group", "city": "Eugene", "state": "Oregon", "zip": "97401-7721", "country": "United States", "geoPoint": {"lat": 44.05207, "lon": -123.08675}}, {"facility": "Clinical Research Inst. of Southern Oregon, PC", "city": "Medford", "state": "Oregon", "zip": "97504", "country": "United States", "geoPoint": {"lat": 42.32652, "lon": -122.87559}}, {"facility": "Allergy Associates Research Center", "city": "Portland", "state": "Oregon", "zip": "97202", "country": "United States", "geoPoint": {"lat": 45.52345, "lon": -122.67621}}, {"facility": "Allergy & Clinical Immunology Associates", "city": "Pittsburgh", "state": "Pennsylvania", "zip": "15241", "country": "United States", "geoPoint": {"lat": 40.44062, "lon": -79.99589}}, {"facility": "National Allergy, Asthma and Uticaria Center of Charleston", "city": "Charleston", "state": "South Carolina", "zip": "29406", "country": "United States", "geoPoint": {"lat": 32.77657, "lon": -79.93092}}, {"facility": "Pharmaceutical Research & Consulting, Inc.", "city": "Dallas", "state": "Texas", "zip": "75231", "country": "United States", "geoPoint": {"lat": 32.78306, "lon": -96.80667}}, {"facility": "Western Sky Medical Research, Inc.", "city": "El Paso", "state": "Texas", "zip": "79903", "country": "United States", "geoPoint": {"lat": 31.75872, "lon": -106.48693}}, {"facility": "Live Oak Allergy & Asthma Clinic", "city": "Live Oak", "state": "Texas", "zip": "78233", "country": "United States", "geoPoint": {"lat": 29.56523, "lon": -98.3364}}, {"facility": "Allergy & Asthma Care of Waco, PA", "city": "Waco", "state": "Texas", "zip": "76712", "country": "United States", "geoPoint": {"lat": 31.54933, "lon": -97.14667}}, {"facility": "Allergy Asthma Research Institute", "city": "Waco", "state": "Texas", "zip": "76712", "country": "United States", "geoPoint": {"lat": 31.54933, "lon": -97.14667}}, {"facility": "ASTHMA, Inc.", "city": "Seattle", "state": "Washington", "zip": "98115", "country": "United States", "geoPoint": {"lat": 47.60621, "lon": -122.33207}}, {"facility": "MultiCare Pulmonary Specialists", "city": "Tacoma", "state": "Washington", "zip": "98405", "country": "United States", "geoPoint": {"lat": 47.25288, "lon": -122.44429}}, {"facility": "Joseph Greenbaum, MD", "city": "Hamilton", "state": "Ontario", "zip": "L8N 1Y2", "country": "Canada", "geoPoint": {"lat": 43.25011, "lon": -79.84963}}, {"facility": "Cheema Research, Inc.", "city": "Missassauga", "state": "Ontario", "zip": "L5A 3V4", "country": "Canada"}, {"facility": "Niagara Clinical Research", "city": "Niagara Falls", "state": "Ontario", "zip": "L2G 1J4", "country": "Canada", "geoPoint": {"lat": 43.10012, "lon": -79.06627}}, {"facility": "Ottawa Allergy Research Corp", "city": "Ottawa", "state": "Ontario", "zip": "K1Y 4G2", "country": "Canada", "geoPoint": {"lat": 45.41117, "lon": -75.69812}}, {"facility": "Pulmonary Care Clinic", "city": "Toronto", "state": "Ontario", "zip": "M5G 1N8", "country": "Canada", "geoPoint": {"lat": 43.70011, "lon": -79.4163}}, {"facility": "Primary Care Lung Clinic", "city": "Toronto", "state": "Ontario", "zip": "M6H 3M2", "country": "Canada", "geoPoint": {"lat": 43.70011, "lon": -79.4163}}, {"facility": "Dynamik Research, Inc.", "city": "Pointe-Claire", "state": "Quebec", "zip": "H9R 3J1", "country": "Canada", "geoPoint": {"lat": 45.44868, "lon": -73.81669}}, {"facility": "Centre De recherche Appliquee en Allergie DeQuebec", "city": "Quebec", "zip": "G1V 4M6", "country": "Canada", "geoPoint": {"lat": 46.81228, "lon": -71.21454}}]}, "ipdSharingStatementModule": {"ipdSharing": "NO"}}, "resultsSection": {"participantFlowModule": {"groups": [{"id": "FG000", "title": "R940343 2mg, 2 Puffs Bid", "description": "R343 2mg, 2 puffs bid\n\nR940343: R343 1mg, 1 puff bid R343 2mg, 2 puffs bid"}, {"id": "FG001", "title": "Placebo", "description": "Placebo: 1 puff bid or 2 puffs bid"}, {"id": "FG002", "title": "R940343 1mg, 1 Puff Bid", "description": "R343 1mg, 1 puff bid\n\nR940343: R343 1mg, 1 puff bid R343 2mg, 2 puffs bid"}], "periods": [{"title": "Overall Study", "milestones": [{"type": "STARTED", "achievements": [{"groupId": "FG000", "numSubjects": "101"}, {"groupId": "FG001", "numSubjects": "100"}, {"groupId": "FG002", "numSubjects": "100"}]}, {"type": "COMPLETED", "achievements": [{"groupId": "FG000", "numSubjects": "94"}, {"groupId": "FG001", "numSubjects": "91"}, {"groupId": "FG002", "numSubjects": "96"}]}, {"type": "NOT COMPLETED", "achievements": [{"groupId": "FG000", "numSubjects": "7"}, {"groupId": "FG001", "numSubjects": "9"}, {"groupId": "FG002", "numSubjects": "4"}]}]}]}, "baselineCharacteristicsModule": {"populationDescription": "For the purpose of analysis, participants randomized to the two different dosage levels of the placebo were considered a single Arm/Group.", "groups": [{"id": "BG000", "title": "R940343 2mg, 2 Puffs Bid", "description": "R343 2mg, 2 puffs bid\n\nR940343: R343 1mg, 1 puff bid R343 2mg, 2 puffs bid"}, {"id": "BG001", "title": "Placebo", "description": "Placebo: 1, 1 puff bid or 2, 2 puffs bid"}, {"id": "BG002", "title": "R940343 1mg, 1 Puff Bid", "description": "R343 1mg, 1 puff bid\n\nR940343: R343 1mg, 1 puff bid R343 2mg, 2 puffs bid"}, {"id": "BG003", "title": "Total", "description": "Total of all reporting groups"}], "denoms": [{"units": "Participants", "counts": [{"groupId": "BG000", "value": "101"}, {"groupId": "BG001", "value": "100"}, {"groupId": "BG002", "value": "100"}, {"groupId": "BG003", "value": "301"}]}], "measures": [{"title": "Age, Continuous", "paramType": "MEAN", "dispersionType": "STANDARD_DEVIATION", "unitOfMeasure": "years", "classes": [{"categories": [{"measurements": [{"groupId": "BG000", "value": "39.5", "spread": "13.5"}, {"groupId": "BG001", "value": "38.3", "spread": "12.6"}, {"groupId": "BG002", "value": "39.3", "spread": "12.8"}, {"groupId": "BG003", "value": "39.1", "spread": "13"}]}]}]}, {"title": "Sex: Female, Male", "paramType": "COUNT_OF_PARTICIPANTS", "unitOfMeasure": "Participants", "classes": [{"categories": [{"title": "Female", "measurements": [{"groupId": "BG000", "value": "51"}, {"groupId": "BG001", "value": "58"}, {"groupId": "BG002", "value": "55"}, {"groupId": "BG003", "value": "164"}]}, {"title": "Male", "measurements": [{"groupId": "BG000", "value": "50"}, {"groupId": "BG001", "value": "42"}, {"groupId": "BG002", "value": "45"}, {"groupId": "BG003", "value": "137"}]}]}]}]}, "outcomeMeasuresModule": {"outcomeMeasures": [{"type": "PRIMARY", "title": "Change in FEV1", "description": "Change from baseline in pre-BD FEV1 (% predicted) at Week 8.", "populationDescription": "All efficacy endpoints were analyzed based on the intent to treat population consisting of all randomized patients.", "reportingStatus": "POSTED", "paramType": "MEAN", "dispersionType": "Standard Deviation", "unitOfMeasure": "percentage of change", "timeFrame": "Baseline and Week 8", "groups": [{"id": "OG000", "title": "R940343 2mg, 2 Puffs Bid", "description": "R343 2mg, 2 puffs bid\n\nR940343: R343 1mg, 1 puff bid R343 2mg, 2 puffs bid"}, {"id": "OG001", "title": "Placebo", "description": "Placebo: 1, 1 puff bid or 2, 2 puffs bid"}, {"id": "OG002", "title": "R940343 1mg, 1 Puff Bid", "description": "R343 1mg, 1 puff bid\n\nR940343: R343 1mg, 1 puff bid R343 2mg, 2 puffs bid"}], "denoms": [{"units": "Participants", "counts": [{"groupId": "OG000", "value": "101"}, {"groupId": "OG001", "value": "100"}, {"groupId": "OG002", "value": "100"}]}], "classes": [{"categories": [{"measurements": [{"groupId": "OG000", "value": "-0.40", "spread": "8.56"}, {"groupId": "OG001", "value": "0.69", "spread": "9.31"}, {"groupId": "OG002", "value": "-0.59", "spread": "8.75"}]}]}]}]}, "adverseEventsModule": {"frequencyThreshold": "0", "timeFrame": "The adverse event reporting period begins with the first dose of study drug and ends with the final study follow-up visit (week 9).", "eventGroups": [{"id": "EG000", "title": "R940343 2mg, 2 Puffs Bid", "description": "R343 2mg, 2 puffs bid\n\nR940343: R343 1mg, 1 puff bid R343 2mg, 2 puffs bid", "seriousNumAffected": 0, "seriousNumAtRisk": 101, "otherNumAffected": 36, "otherNumAtRisk": 101}, {"id": "EG001", "title": "Placebo", "description": "Placebo: 1, 1 puff bid or 2, 2 puffs bid", "seriousNumAffected": 0, "seriousNumAtRisk": 100, "otherNumAffected": 48, "otherNumAtRisk": 100}, {"id": "EG002", "title": "R940343 1mg, 1 Puff Bid", "description": "R343 1mg, 1 puff bid\n\nR940343: R343 1mg, 1 puff bid R343 2mg, 2 puffs bid", "seriousNumAffected": 0, "seriousNumAtRisk": 100, "otherNumAffected": 26, "otherNumAtRisk": 100}], "otherEvents": [{"term": "Eye Disorders", "organSystem": "Eye disorders", "assessmentType": "NON_SYSTEMATIC_ASSESSMENT", "stats": [{"groupId": "EG000", "numEvents": 1, "numAffected": 1, "numAtRisk": 101}, {"groupId": "EG001", "numEvents": 1, "numAffected": 1, "numAtRisk": 100}, {"groupId": "EG002", "numEvents": 2, "numAffected": 1, "numAtRisk": 100}]}, {"term": "BLOOD AND LYMPHATIC SYSTEM DISORDERS", "organSystem": "Blood and lymphatic system disorders", "assessmentType": "NON_SYSTEMATIC_ASSESSMENT", "stats": [{"groupId": "EG000", "numEvents": 0, "numAffected": 0, "numAtRisk": 101}, {"groupId": "EG001", "numEvents": 2, "numAffected": 1, "numAtRisk": 100}, {"groupId": "EG002", "numEvents": 0, "numAffected": 0, "numAtRisk": 100}]}, {"term": "Cardiac Disorders", "organSystem": "Cardiac disorders", "assessmentType": "NON_SYSTEMATIC_ASSESSMENT", "stats": [{"groupId": "EG000", "numEvents": 0, "numAffected": 0, "numAtRisk": 101}, {"groupId": "EG001", "numEvents": 2, "numAffected": 2, "numAtRisk": 100}, {"groupId": "EG002", "numEvents": 0, "numAffected": 0, "numAtRisk": 100}]}, {"term": "Ear and Labyrinth Disorders", "organSystem": "Ear and labyrinth disorders", "assessmentType": "NON_SYSTEMATIC_ASSESSMENT", "stats": [{"groupId": "EG000", "numEvents": 1, "numAffected": 1, "numAtRisk": 101}, {"groupId": "EG001", "numEvents": 0, "numAffected": 0, "numAtRisk": 100}, {"groupId": "EG002", "numEvents": 0, "numAffected": 0, "numAtRisk": 100}]}, {"term": "Gastrointestinal Disorders", "organSystem": "Gastrointestinal disorders", "assessmentType": "NON_SYSTEMATIC_ASSESSMENT", "stats": [{"groupId": "EG000", "numEvents": 1, "numAffected": 1, "numAtRisk": 101}, {"groupId": "EG001", "numEvents": 1, "numAffected": 1, "numAtRisk": 100}, {"groupId": "EG002", "numEvents": 2, "numAffected": 2, "numAtRisk": 100}]}, {"term": "General Disorders and Administration Site Conditions", "organSystem": "General disorders", "assessmentType": "NON_SYSTEMATIC_ASSESSMENT", "stats": [{"groupId": "EG000", "numEvents": 0, "numAffected": 0, "numAtRisk": 101}, {"groupId": "EG001", "numEvents": 1, "numAffected": 1, "numAtRisk": 100}, {"groupId": "EG002", "numEvents": 0, "numAffected": 0, "numAtRisk": 100}]}, {"term": "Infections and infestations", "organSystem": "Infections and infestations", "assessmentType": "NON_SYSTEMATIC_ASSESSMENT", "stats": [{"groupId": "EG000", "numEvents": 20, "numAffected": 20, "numAtRisk": 101}, {"groupId": "EG001", "numEvents": 26, "numAffected": 26, "numAtRisk": 100}, {"groupId": "EG002", "numEvents": 9, "numAffected": 9, "numAtRisk": 100}]}, {"term": "Injury, poisoning and procedural complications", "organSystem": "Injury, poisoning and procedural complications", "assessmentType": "NON_SYSTEMATIC_ASSESSMENT", "stats": [{"groupId": "EG000", "numEvents": 2, "numAffected": 2, "numAtRisk": 101}, {"groupId": "EG001", "numEvents": 1, "numAffected": 1, "numAtRisk": 100}, {"groupId": "EG002", "numEvents": 2, "numAffected": 2, "numAtRisk": 100}]}, {"term": "Investigations", "organSystem": "Investigations", "assessmentType": "NON_SYSTEMATIC_ASSESSMENT", "stats": [{"groupId": "EG000", "numEvents": 3, "numAffected": 3, "numAtRisk": 101}, {"groupId": "EG001", "numEvents": 3, "numAffected": 3, "numAtRisk": 100}, {"groupId": "EG002", "numEvents": 1, "numAffected": 1, "numAtRisk": 100}]}, {"term": "Musculoskeletal and Connective Tissue Disorders", "organSystem": "Musculoskeletal and connective tissue disorders", "assessmentType": "NON_SYSTEMATIC_ASSESSMENT", "stats": [{"groupId": "EG000", "numEvents": 0, "numAffected": 0, "numAtRisk": 101}, {"groupId": "EG001", "numEvents": 3, "numAffected": 3, "numAtRisk": 100}, {"groupId": "EG002", "numEvents": 1, "numAffected": 1, "numAtRisk": 100}]}, {"term": "NERVOUS SYSTEM DISORDERS", "organSystem": "Nervous system disorders", "assessmentType": "NON_SYSTEMATIC_ASSESSMENT", "stats": [{"groupId": "EG000", "numEvents": 1, "numAffected": 1, "numAtRisk": 101}, {"groupId": "EG001", "numEvents": 0, "numAffected": 0, "numAtRisk": 100}, {"groupId": "EG002", "numEvents": 1, "numAffected": 1, "numAtRisk": 100}]}, {"term": "Psychiatric disorders", "organSystem": "Psychiatric disorders", "assessmentType": "NON_SYSTEMATIC_ASSESSMENT", "stats": [{"groupId": "EG000", "numEvents": 0, "numAffected": 0, "numAtRisk": 101}, {"groupId": "EG001", "numEvents": 0, "numAffected": 0, "numAtRisk": 100}, {"groupId": "EG002", "numEvents": 1, "numAffected": 1, "numAtRisk": 100}]}, {"term": "Renal and urinary disorders", "organSystem": "Renal and urinary disorders", "assessmentType": "NON_SYSTEMATIC_ASSESSMENT", "stats": [{"groupId": "EG000", "numEvents": 0, "numAffected": 0, "numAtRisk": 101}, {"groupId": "EG001", "numEvents": 1, "numAffected": 1, "numAtRisk": 100}, {"groupId": "EG002", "numEvents": 0, "numAffected": 0, "numAtRisk": 100}]}, {"term": "Reproductive system and breast disorders", "organSystem": "Reproductive system and breast disorders", "assessmentType": "NON_SYSTEMATIC_ASSESSMENT", "stats": [{"groupId": "EG000", "numEvents": 1, "numAffected": 1, "numAtRisk": 101}, {"groupId": "EG001", "numEvents": 1, "numAffected": 1, "numAtRisk": 100}, {"groupId": "EG002", "numEvents": 0, "numAffected": 0, "numAtRisk": 100}]}, {"term": "Respiratory, thoracic and mediastinal disorders", "organSystem": "Respiratory, thoracic and mediastinal disorders", "assessmentType": "NON_SYSTEMATIC_ASSESSMENT", "stats": [{"groupId": "EG000", "numEvents": 4, "numAffected": 4, "numAtRisk": 101}, {"groupId": "EG001", "numEvents": 9, "numAffected": 9, "numAtRisk": 100}, {"groupId": "EG002", "numEvents": 8, "numAffected": 8, "numAtRisk": 100}]}, {"term": "Skin and Subcutaneous Tissue Disorders", "organSystem": "Skin and subcutaneous tissue disorders", "assessmentType": "NON_SYSTEMATIC_ASSESSMENT", "stats": [{"groupId": "EG000", "numEvents": 2, "numAffected": 2, "numAtRisk": 101}, {"groupId": "EG001", "numEvents": 3, "numAffected": 3, "numAtRisk": 100}, {"groupId": "EG002", "numEvents": 0, "numAffected": 0, "numAtRisk": 100}]}]}, "moreInfoModule": {"certainAgreement": {"piSponsorEmployee": false, "restrictionType": "LTE60", "restrictiveAgreement": true}, "pointOfContact": {"title": "Anne-Marie Duliege, MD", "organization": "Rigel", "email": "clinicaltrials@rigel.com", "phone": "650-624-1100"}}}, "derivedSection": {"miscInfoModule": {"versionHolder": "2024-06-24"}, "conditionBrowseModule": {"meshes": [{"id": "D000001249", "term": "Asthma"}], "ancestors": [{"id": "D000001982", "term": "Bronchial Diseases"}, {"id": "D000012140", "term": "Respiratory Tract Diseases"}, {"id": "D000008173", "term": "Lung Diseases, Obstructive"}, {"id": "D000008171", "term": "Lung Diseases"}, {"id": "D000012130", "term": "Respiratory Hypersensitivity"}, {"id": "D000006969", "term": "Hypersensitivity, Immediate"}, {"id": "D000006967", "term": "Hypersensitivity"}, {"id": "D000007154", "term": "Immune System Diseases"}], "browseLeaves": [{"id": "M27137", "name": "Respiratory Aspiration", "relevance": "LOW"}, {"id": "M4556", "name": "Asthma", "asFound": "Asthma", "relevance": "HIGH"}, {"id": "M5258", "name": "Bronchial Diseases", "relevance": "LOW"}, {"id": "M14977", "name": "Respiratory Tract Diseases", "relevance": "LOW"}, {"id": "M11168", "name": "Lung Diseases", "relevance": "LOW"}, {"id": "M11170", "name": "Lung Diseases, Obstructive", "relevance": "LOW"}, {"id": "M10018", "name": "Hypersensitivity", "relevance": "LOW"}, {"id": "M14967", "name": "Respiratory Hypersensitivity", "relevance": "LOW"}, {"id": "M10020", "name": "Hypersensitivity, Immediate", "relevance": "LOW"}, {"id": "M10200", "name": "Immune System Diseases", "relevance": "LOW"}], "browseBranches": [{"abbrev": "BC08", "name": "Respiratory Tract (Lung and Bronchial) Diseases"}, {"abbrev": "BC23", "name": "Symptoms and General Pathology"}, {"abbrev": "All", "name": "All Conditions"}, {"abbrev": "BC20", "name": "Immune System Diseases"}]}}, "hasResults": true}