{"protocolSection": {"identificationModule": {"nctId": "NCT03332771", "orgStudyIdInfo": {"id": "EFC14838"}, "secondaryIdInfos": [{"id": "2016-001801-17", "type": "EUDRACT_NUMBER"}, {"id": "U1111-1190-7596", "type": "OTHER", "domain": "UTN"}], "organization": {"fullName": "Lexicon Pharmaceuticals", "class": "INDUSTRY"}, "briefTitle": "Efficacy and Safety of Sotagliflozin Versus Glimepiride and Placebo in Participants With Type 2 Diabetes Mellitus That Are Taking Metformin Monotherapy", "officialTitle": "A 52-week Randomized, Double-blind, Double-dummy, Active and Placebo-controlled, Parallel-group, Multicenter Study to Evaluate the Efficacy and Safety of Sotagliflozin Compared to Glimepiride or Placebo Added to Metformin in Patients With Type 2 Diabetes Who Have Inadequate Glycemic Control With Metformin Monotherapy", "acronym": "SOTA-GLIM"}, "statusModule": {"statusVerifiedDate": "2021-04", "overallStatus": "COMPLETED", "expandedAccessInfo": {"hasExpandedAccess": false}, "startDateStruct": {"date": "2017-12-01", "type": "ACTUAL"}, "primaryCompletionDateStruct": {"date": "2019-08-06", "type": "ACTUAL"}, "completionDateStruct": {"date": "2019-09-06", "type": "ACTUAL"}, "studyFirstSubmitDate": "2017-11-02", "studyFirstSubmitQcDate": "2017-11-02", "studyFirstPostDateStruct": {"date": "2017-11-06", "type": "ACTUAL"}, "resultsFirstSubmitDate": "2021-04-16", "resultsFirstSubmitQcDate": "2021-04-16", "resultsFirstPostDateStruct": {"date": "2021-05-11", "type": "ACTUAL"}, "dispFirstSubmitDate": "2020-05-01", "dispFirstSubmitQcDate": "2020-05-01", "dispFirstPostDateStruct": {"date": "2020-05-06", "type": "ACTUAL"}, "lastUpdateSubmitDate": "2021-04-16", "lastUpdatePostDateStruct": {"date": "2021-05-11", "type": "ACTUAL"}}, "sponsorCollaboratorsModule": {"responsibleParty": {"type": "SPONSOR"}, "leadSponsor": {"name": "Lexicon Pharmaceuticals", "class": "INDUSTRY"}, "collaborators": [{"name": "Sanofi", "class": "INDUSTRY"}]}, "oversightModule": {"oversightHasDmc": true, "isFdaRegulatedDrug": true, "isFdaRegulatedDevice": false}, "descriptionModule": {"briefSummary": "Primary Objective:\n\nTo demonstrate the non-inferiority of Sotagliflozin 400 milligrams (mg) compared to Glimepiride on hemoglobin A1c (HbA1c) reduction at Week 52 in participants with Type 2 Diabetes (T2D) who have inadequate glycemic control with metformin.\n\nSecondary Objectives:\n\nTo demonstrate the superiority of Sotagliflozin 400 mg compared to Glimepiride on change in body weight, systolic blood pressure (SBP) in participants with baseline SBP \u2265130 millimeter of mercury (mmHg), SBP in all participants, and proportion of participants with at least 1 documented symptomatic hypoglycemic event (\u226470 milligrams per deciliter \\[mg/dL\\]).\n\n* To demonstrate the superiority of Sotagliflozin 400 mg compared to placebo on change in HbA1c, body weight, SBP in participants with baseline SBP \u2265130 mmHg, SBP in all participants.\n* To demonstrate the superiority of Sotagliflozin 200 mg compared to placebo on change in HbA1c.\n* To demonstrate the non-inferiority of Sotagliflozin 400 mg compared to Glimepiride on change in HbA1c.\n* To demonstrate the superiority of Sotagliflozin 400 mg compared to Glimepiride on change in HbA1c.\n* To evaluate the safety and tolerability of Sotagliflozin compared to Glimepiride and placebo.", "detailedDescription": "Up to 58 weeks, including a Screening Period consisting of a Screening phase of up to 2 weeks, a 2-week single-blind placebo Run-in phase, a 52-week double-blind Treatment Period, and a 2-week post-treatment Follow-up period to collect safety information."}, "conditionsModule": {"conditions": ["Type 2 Diabetes Mellitus"]}, "designModule": {"studyType": "INTERVENTIONAL", "phases": ["PHASE3"], "designInfo": {"allocation": "RANDOMIZED", "interventionModel": "PARALLEL", "primaryPurpose": "TREATMENT", "maskingInfo": {"masking": "QUADRUPLE", "whoMasked": ["PARTICIPANT", "CARE_PROVIDER", "INVESTIGATOR", "OUTCOMES_ASSESSOR"]}}, "enrollmentInfo": {"count": 954, "type": "ACTUAL"}}, "armsInterventionsModule": {"armGroups": [{"label": "Sotagliflozin 400 mg", "type": "EXPERIMENTAL", "description": "Following a 2-week run-in period, two Sotagliflozin 200 mg, tablets, and two Glimepiride-matching placebo capsules, taken orally once daily before the first meal of the day in the double-blind treatment period up to 52 weeks.", "interventionNames": ["Drug: Sotagliflozin (SAR439954)", "Drug: Metformin", "Drug: Placebo"]}, {"label": "Sotagliflozin 200 mg", "type": "EXPERIMENTAL", "description": "Following a 2-week run-in period, one Sotagliflozin 200 mg, tablet and one Sotagliflozin-matching placebo tablet, and two Glimepiride-matching placebo capsules, taken orally once daily before the first meal of the day in the double-blind treatment period up to 52 weeks.", "interventionNames": ["Drug: Sotagliflozin (SAR439954)", "Drug: Metformin", "Drug: Placebo"]}, {"label": "Glimepiride", "type": "ACTIVE_COMPARATOR", "description": "Following a 2-week run-in period, two Sotagliflozin-matching placebo tablets, and combination of two Glimepiride capsules with adequate dose strengths per dose titration (titrated up to 6mg), taken orally once daily before the first meal of the day in the double-blind treatment period up to 52 weeks.", "interventionNames": ["Drug: Glimepiride", "Drug: Metformin", "Drug: Placebo"]}, {"label": "Placebo", "type": "PLACEBO_COMPARATOR", "description": "Following a 2-week run-in period, two Sotagliflozin-matching placebo tablets and two Glimepiride-matching placebo capsules, taken orally once daily before the first meal of the day in the double-blind treatment period up to 52 weeks.", "interventionNames": ["Drug: Metformin", "Drug: Placebo"]}], "interventions": [{"type": "DRUG", "name": "Sotagliflozin (SAR439954)", "description": "Pharmaceutical form: tablet\n\nRoute of administration: oral", "armGroupLabels": ["Sotagliflozin 200 mg", "Sotagliflozin 400 mg"]}, {"type": "DRUG", "name": "Glimepiride", "description": "Pharmaceutical form: capsule\n\nRoute of administration: oral", "armGroupLabels": ["Glimepiride"]}, {"type": "DRUG", "name": "Metformin", "description": "Pharmaceutical form: tablet\n\nRoute of administration: oral", "armGroupLabels": ["Glimepiride", "Placebo", "Sotagliflozin 200 mg", "Sotagliflozin 400 mg"]}, {"type": "DRUG", "name": "Placebo", "description": "Pharmaceutical form: tablet\n\nRoute of administration: oral", "armGroupLabels": ["Glimepiride", "Placebo", "Sotagliflozin 200 mg"]}, {"type": "DRUG", "name": "Placebo", "description": "Pharmaceutical form: capsule\n\nRoute of administration: oral", "armGroupLabels": ["Placebo", "Sotagliflozin 200 mg", "Sotagliflozin 400 mg"]}]}, "outcomesModule": {"primaryOutcomes": [{"measure": "Change From Baseline in Hemoglobin A1c at Week 52", "description": "An analysis of covariance (ANCOVA) model was used for the analysis.", "timeFrame": "Baseline, Week 52"}], "secondaryOutcomes": [{"measure": "Change From Baseline in Hemoglobin A1c at Week 26", "description": "An ANCOVA model was used for the analysis.", "timeFrame": "Baseline, Week 26"}, {"measure": "Change From Baseline in Body Weight at Week 26 and 52", "description": "An ANCOVA model was used for the analysis.", "timeFrame": "Baseline, Week 26, Week 52"}, {"measure": "Change From Baseline in Systolic Blood Pressure (SBP) for Participants With SBP \u2265130 mmHg at Week 12", "description": "An ANCOVA model was used for the analysis.", "timeFrame": "Baseline, Week 12"}, {"measure": "Change From Baseline in Systolic Blood Pressure (SBP) for All Participants at Week 12", "description": "An ANCOVA model was used for the analysis.", "timeFrame": "Baseline, Week 12"}, {"measure": "Percentage of Participants With At Least One Documented Symptomatic Hypoglycemic Event", "description": "Documented symptomatic hypoglycemia includes the typical symptoms of hypoglycemia (increased sweating, nervousness, asthenia/weakness, tremor, dizziness, increased appetite, palpitations, headache, sleep disorder, confusion, seizures, unconsciousness, and/or coma) and plasma glucose \u2264 70 mg/dL (3.9 mmol/L).", "timeFrame": "Up to Week 52"}, {"measure": "Percentage of Participants With Adverse Events (AEs)", "description": "An AE is any untoward medical occurrence in a participant or clinical investigation participant administered a pharmaceutical product and that does not necessarily have a causal relationship with this treatment.", "timeFrame": "Up to Week 52"}], "otherOutcomes": [{"measure": "Percentage of Participants With Hypoglycemic Events", "description": "Percentage of participants with hypoglycemic events are reported for the following 3 categories: Any hypoglycemia (as reported in the Electronic Case Report Form); Documented symptomatic hypoglycemia \\[typical symptoms of hypoglycemia (increased sweating, nervousness, asthenia/weakness, tremor, dizziness, increased appetite, palpitations, headache, sleep disorder, confusion, seizures, unconsciousness, and/or coma) and plasma glucose \u2264 70 mg/dL (3.9 mmol/L)\\]; Severe \\[an event requiring assistance of another person to actively administer carbohydrate, glucagon, intravenous glucose or other resuscitative actions\\] or documented symptomatic hypoglycemia \\[typical symptoms of hypoglycemia and plasma glucose \u2264 70 mg/dL\\].", "timeFrame": "Up to Week 52"}]}, "eligibilityModule": {"eligibilityCriteria": "Inclusion criteria :\n\n* Participants with Type 2 Diabetes (T2D) treated with metformin at a stable dose \u22651500 milligrams per day (mg/day) or maximum tolerated dose (documented) for at least 12 weeks prior to Screening Visit; in case of documented lack of tolerance, metformin dose \\<1500 mg/day is acceptable, and the dose should be stable for at least 12 weeks prior to Screening Visit.\n* Participants has given written informed consent to participate in the study in accordance with local regulations.\n\nExclusion criteria:\n\n* Age \\<18 years at the Screening Visit or \\<legal age of majority, whichever is greater.\n* Type 1 diabetes mellitus.\n* HbA1c, HbA1c \\<7.0% or HbA1c \\>10% at Screening.\n* Fasting Plasma Glucose (FPG) \\>15 millimoles per liter (mmol/L) (\\>270 milligram per deciliter \\[mg/dL\\]) measured by the central laboratory at Screening (Visit 1) and confirmed by a repeat test (\\>15 mmol/L \\[\\>270 mg/dL\\]) before randomization.\n* Body mass index \u226420 or \\>45 kilogram per meter square (kg/m\\^2) at Screening.\n* Pregnant (confirmed by pregnancy test at the Screening) or breast-feeding women.\n* Women of childbearing potential (WOCBP) not willing to use highly effective method(s) of birth control during the study treatment period and the follow-up period, or who are unwilling or unable to be tested for pregnancy (see Appendix A) during the study.\n* Previous use of any antidiabetic drug other than Metformin within 12 weeks preceding the Screening Visit.\n* Use of a selective Sodium-glucose co-transporter-2 (SGLT2) inhibitor (e.g., Canagliflozin, Dapagliflozin, or Empagliflozin) within 3 months prior to the Screening visit.\n* Use of systemic glucocorticoids (excluding topical, or ophthalmic application, intra-articular, nasal spray or inhaled forms) for more than 10 consecutive days within 90 days prior to the Screening Visit.\n* Previous insulin use \\>1 month (at any time, except for treatment of gestational diabetes).\n* History of prior gastric surgical procedure, including gastric banding, or inflammatory bowel disease within 3 years prior to the Screening Visit.\n* Difficulty swallowing such that the participants cannot take the investigational medicinal product (IMP).\n* History of diabetic ketoacidosis or nonketotic hyperosmolar coma within 12 weeks prior to the Screening Visit.\n* Mean of 3 separate blood pressure measurements \\>180 millimeter of mercury (mmHg) (SBP) or \\>100 mmHg (DBP).\n* History of hypertensive emergency within 12 weeks prior to Screening.\n* Participants who have previously been randomized in any clinical trial of Sotagliflozin/LX4211.\n* Participants with severe renal disease as defined by an estimated glomerular filtration rate (eGFR) of \\<30 milliliter per minute per meter square (mL/min/1.73 m\\^2) at Screening, based on the 4 variable Modification of Diet in Renal Disease (MDRD) equation (or according to the renal function restrictions of metformin use defined in the local approved label).\n* Participants with severe anemia, severe cardiovascular (including congestive heart failure New York Heart Association IV), respiratory, hepatic, neurological, psychiatric, or active malignant tumor or other major systemic disease that, according to Investigator, will preclude their safe participation in this study, or will make implementation of the protocol or interpretation of the study results difficult.\n* Aspartate aminotransferase and/or alanine aminotransferase: \\>3 times the upper limit of the normal laboratory range (ULN).\n* Total bilirubin: \\>1.5 times ULN (except in case of Gilbert's syndrome).\n* Participants who have taken other investigational drugs within 12 weeks or 5 half-lives from Screening whichever is longer.\n* Participants unwilling or unable to perform self-monitoring blood glucose (SMBG), complete the participant diary, or comply with study visits and other study procedures as required per protocol.\n* Participants with contraindication to glimepiride as per local labelling.\n* Participants with contraindication to metformin as per local labelling.\n\nThe above information is not intended to contain all considerations relevant to a Participants potential participation in a clinical trial.", "healthyVolunteers": false, "sex": "ALL", "minimumAge": "18 Years", "stdAges": ["ADULT", "OLDER_ADULT"]}, "contactsLocationsModule": {"overallOfficials": [{"name": "Suman Wason, MD", "affiliation": "Lexicon Pharmaceuticals, Inc.", "role": "STUDY_DIRECTOR"}], "locations": [{"facility": "Investigational Site Number 8407040", "city": "Birmingham", "state": "Alabama", "zip": "35205", "country": "United States", "geoPoint": {"lat": 33.52066, "lon": -86.80249}}, {"facility": "Investigational Site Number 8407048", "city": "Birmingham", "state": "Alabama", "zip": "35233-2110", "country": "United States", "geoPoint": {"lat": 33.52066, "lon": -86.80249}}, {"facility": "Investigational Site Number 8407035", "city": "Little Rock", "state": "Arkansas", "zip": "72211", "country": "United States", "geoPoint": {"lat": 34.74648, "lon": -92.28959}}, {"facility": "Investigational Site Number 8407051", "city": "Anaheim", "state": "California", "zip": "92801-2417", "country": "United States", "geoPoint": {"lat": 33.83529, "lon": -117.9145}}, {"facility": "Investigational Site Number 8407065", "city": "Canoga Park", "state": "California", "zip": "91301", "country": "United States", "geoPoint": {"lat": 34.20112, "lon": -118.59814}}, {"facility": "Investigational Site Number 8407078", "city": "Carmichael", "state": "California", "zip": "95608", "country": "United States", "geoPoint": {"lat": 38.61713, "lon": -121.32828}}, {"facility": "Investigational Site Number 8407089", "city": "Downey", "state": "California", "zip": "90242", "country": "United States", "geoPoint": {"lat": 33.94001, "lon": -118.13257}}, {"facility": "Investigational Site Number 8407011", "city": "Gold River", "state": "California", "zip": "95670", "country": "United States", "geoPoint": {"lat": 38.62629, "lon": -121.24662}}, {"facility": "Investigational Site Number 8407044", "city": "Greenbrae", "state": "California", "zip": "94904", "country": "United States", "geoPoint": {"lat": 37.94854, "lon": -122.5247}}, {"facility": "Investigational Site Number 8407006", "city": "Huntington Park", "state": "California", "zip": "90255-2911", "country": "United States", "geoPoint": {"lat": 33.98168, "lon": -118.22507}}, {"facility": "Investigational Site Number 8407037", "city": "Lemon Grove", "state": "California", "zip": "91945", "country": "United States", "geoPoint": {"lat": 32.74255, "lon": -117.03142}}, {"facility": "Investigational Site Number 8407100", "city": "Lomita", "state": "California", "zip": "90717", "country": "United States", "geoPoint": {"lat": 33.79224, "lon": -118.31507}}, {"facility": "Investigational Site Number 8407033", "city": "Long Beach", "state": "California", "zip": "90806", "country": "United States", "geoPoint": {"lat": 33.76696, "lon": -118.18923}}, {"facility": "Investigational Site Number 8407019", "city": "Los Angeles", "state": "California", "zip": "90057-3507", "country": "United States", "geoPoint": {"lat": 34.05223, "lon": -118.24368}}, {"facility": "Investigational Site Number 8407098", "city": "Northridge", "state": "California", "zip": "91325-5409", "country": "United States", "geoPoint": {"lat": 34.22834, "lon": -118.53675}}, {"facility": "Investigational Site Number 8407094", "city": "Norwalk", "state": "California", "zip": "90650", "country": "United States", "geoPoint": {"lat": 33.90224, "lon": -118.08173}}, {"facility": "Investigational Site Number 8407106", "city": "Pomona", "state": "California", "zip": "91766", "country": "United States", "geoPoint": {"lat": 34.05529, "lon": -117.75228}}, {"facility": "Investigational Site Number 8407096", "city": "Rancho Cucamonga", "state": "California", "zip": "91730", "country": "United States", "geoPoint": {"lat": 34.1064, "lon": -117.59311}}, {"facility": "Investigational Site Number 8407036", "city": "Sacramento", "state": "California", "zip": "95821", "country": "United States", "geoPoint": {"lat": 38.58157, "lon": -121.4944}}, {"facility": "Investigational Site Number 8407084", "city": "Tarzana", "state": "California", "zip": "91356-3551", "country": "United States", "geoPoint": {"lat": 34.17334, "lon": -118.55397}}, {"facility": "Investigational Site Number 8407034", "city": "Upland", "state": "California", "zip": "91786-4070", "country": "United States", "geoPoint": {"lat": 34.09751, "lon": -117.64839}}, {"facility": "Investigational Site Number 8407032", "city": "Van Nuys", "state": "California", "zip": "91405", "country": "United States", "geoPoint": {"lat": 34.18667, "lon": -118.44897}}, {"facility": "Investigational Site Number 8407004", "city": "Walnut Creek", "state": "California", "zip": "94598", "country": "United States", "geoPoint": {"lat": 37.90631, "lon": -122.06496}}, {"facility": "Investigational Site Number 8407117", "city": "Wildomar", "state": "California", "zip": "92595", "country": "United States", "geoPoint": {"lat": 33.59891, "lon": -117.28004}}, {"facility": "Investigational Site Number 8407045", "city": "Colorado Springs", "state": "Colorado", "zip": "80920-8075", "country": "United States", "geoPoint": {"lat": 38.83388, "lon": -104.82136}}, {"facility": "Investigational Site Number 8407074", "city": "Bradenton", "state": "Florida", "zip": "34201", "country": "United States", "geoPoint": {"lat": 27.49893, "lon": -82.57482}}, {"facility": "Investigational Site Number 8407027", "city": "Clearwater", "state": "Florida", "zip": "33761", "country": "United States", "geoPoint": {"lat": 27.96585, "lon": -82.8001}}, {"facility": "Investigational Site Number 8407103", "city": "Cooper City", "state": "Florida", "zip": "33024", "country": "United States", "geoPoint": {"lat": 26.05731, "lon": -80.27172}}, {"facility": "Investigational Site Number 8407021", "city": "Coral Gables", "state": "Florida", "zip": "33134", "country": "United States", "geoPoint": {"lat": 25.72149, "lon": -80.26838}}, {"facility": "Investigational Site Number 8407062", "city": "Lake Worth", "state": "Florida", "zip": "33467", "country": "United States", "geoPoint": {"lat": 26.61708, "lon": -80.07231}}, {"facility": "Investigational Site Number 8407121", "city": "Ocoee", "state": "Florida", "zip": "34761", "country": "United States", "geoPoint": {"lat": 28.56917, "lon": -81.54396}}, {"facility": "Investigational Site Number 8407024", "city": "Orlando", "state": "Florida", "zip": "32825-4454", "country": "United States", "geoPoint": {"lat": 28.53834, "lon": -81.37924}}, {"facility": "Investigational Site Number 8407038", "city": "Palmetto Bay", "state": "Florida", "zip": "33157-5503", "country": "United States", "geoPoint": {"lat": 25.62177, "lon": -80.32477}}, {"facility": "Investigational Site Number 8407093", "city": "Pembroke Pines", "state": "Florida", "zip": "33026-3924", "country": "United States", "geoPoint": {"lat": 26.00315, "lon": -80.22394}}, {"facility": "Investigational Site Number 8407107", "city": "Spring Hill", "state": "Florida", "zip": "34609", "country": "United States", "geoPoint": {"lat": 28.47688, "lon": -82.52546}}, {"facility": "Investigational Site Number 8407091", "city": "Tampa", "state": "Florida", "zip": "33619", "country": "United States", "geoPoint": {"lat": 27.94752, "lon": -82.45843}}, {"facility": "Investigational Site Number 8407113", "city": "Tampa", "state": "Florida", "zip": "33634", "country": "United States", "geoPoint": {"lat": 27.94752, "lon": -82.45843}}, {"facility": "Investigational Site Number 8407092", "city": "West Palm Beach", "state": "Florida", "zip": "33401", "country": "United States", "geoPoint": {"lat": 26.71534, "lon": -80.05337}}, {"facility": "Investigational Site Number 8407115", "city": "Winter Haven", "state": "Florida", "zip": "33880", "country": "United States", "geoPoint": {"lat": 28.02224, "lon": -81.73286}}, {"facility": "Investigational Site Number 8407017", "city": "Chicago", "state": "Illinois", "zip": "60607", "country": "United States", "geoPoint": {"lat": 41.85003, "lon": -87.65005}}, {"facility": "Investigational Site Number 8407018", "city": "Elgin", "state": "Illinois", "zip": "60124", "country": "United States", "geoPoint": {"lat": 42.03725, "lon": -88.28119}}, {"facility": "Investigational Site Number 8407046", "city": "Gurnee", "state": "Illinois", "zip": "60031", "country": "United States", "geoPoint": {"lat": 42.3703, "lon": -87.90202}}, {"facility": "Investigational Site Number 8407119", "city": "Springfield", "state": "Illinois", "zip": "62711", "country": "United States", "geoPoint": {"lat": 39.80172, "lon": -89.64371}}, {"facility": "Investigational Site Number 8407075", "city": "Waterloo", "state": "Iowa", "zip": "50702", "country": "United States", "geoPoint": {"lat": 42.49276, "lon": -92.34296}}, {"facility": "Investigational Site Number 8407120", "city": "West Des Moines", "state": "Iowa", "zip": "50265", "country": "United States", "geoPoint": {"lat": 41.57721, "lon": -93.71133}}, {"facility": "Investigational Site Number 8407095", "city": "Topeka", "state": "Kansas", "zip": "66606-2806", "country": "United States", "geoPoint": {"lat": 39.04833, "lon": -95.67804}}, {"facility": "Investigational Site Number 8407083", "city": "Wichita", "state": "Kansas", "zip": "67205-1138", "country": "United States", "geoPoint": {"lat": 37.69224, "lon": -97.33754}}, {"facility": "Investigational Site Number 8407043", "city": "Lexington", "state": "Kentucky", "zip": "40503-2517", "country": "United States", "geoPoint": {"lat": 37.98869, "lon": -84.47772}}, {"facility": "Investigational Site Number 8407087", "city": "Lexington", "state": "Kentucky", "zip": "40503", "country": "United States", "geoPoint": {"lat": 37.98869, "lon": -84.47772}}, {"facility": "Investigational Site Number 8407060", "city": "Lake Charles", "state": "Louisiana", "zip": "70601", "country": "United States", "geoPoint": {"lat": 30.21309, "lon": -93.2044}}, {"facility": "Investigational Site Number 8407058", "city": "New Orleans", "state": "Louisiana", "zip": "70119", "country": "United States", "geoPoint": {"lat": 29.95465, "lon": -90.07507}}, {"facility": "Investigational Site Number 8407009", "city": "New Orleans", "state": "Louisiana", "zip": "70124", "country": "United States", "geoPoint": {"lat": 29.95465, "lon": -90.07507}}, {"facility": "Investigational Site Number 8407079", "city": "Zachary", "state": "Louisiana", "zip": "70791-4010", "country": "United States", "geoPoint": {"lat": 30.64852, "lon": -91.1565}}, {"facility": "Investigational Site Number 8407085", "city": "Baltimore", "state": "Maryland", "zip": "21237", "country": "United States", "geoPoint": {"lat": 39.29038, "lon": -76.61219}}, {"facility": "Investigational Site Number 8407001", "city": "Rockville", "state": "Maryland", "zip": "20852", "country": "United States", "geoPoint": {"lat": 39.084, "lon": -77.15276}}, {"facility": "Investigational Site Number 8407069", "city": "Troy", "state": "Michigan", "zip": "48098-6334", "country": "United States", "geoPoint": {"lat": 42.60559, "lon": -83.14993}}, {"facility": "Investigational Site Number 8407110", "city": "Olive Branch", "state": "Mississippi", "zip": "38654", "country": "United States", "geoPoint": {"lat": 34.96176, "lon": -89.82953}}, {"facility": "Investigational Site Number 8407054", "city": "Bridgeton", "state": "Missouri", "zip": "63044", "country": "United States", "geoPoint": {"lat": 38.767, "lon": -90.41151}}, {"facility": "Investigational Site Number 8407049", "city": "Norfolk", "state": "Nebraska", "zip": "68701", "country": "United States", "geoPoint": {"lat": 42.02834, "lon": -97.417}}, {"facility": "Investigational Site Number 8407039", "city": "Omaha", "state": "Nebraska", "zip": "68114", "country": "United States", "geoPoint": {"lat": 41.25626, "lon": -95.94043}}, {"facility": "Investigational Site Number 8407061", "city": "Papillion", "state": "Nebraska", "zip": "68046-3136", "country": "United States", "geoPoint": {"lat": 41.15444, "lon": -96.04224}}, {"facility": "Investigational Site Number 8407108", "city": "Las Vegas", "state": "Nevada", "zip": "89106-4132", "country": "United States", "geoPoint": {"lat": 36.17497, "lon": -115.13722}}, {"facility": "Investigational Site Number 8407050", "city": "Albuquerque", "state": "New Mexico", "zip": "87106", "country": "United States", "geoPoint": {"lat": 35.08449, "lon": -106.65114}}, {"facility": "Investigational Site Number 8407116", "city": "New York", "state": "New York", "zip": "10016-6402", "country": "United States", "geoPoint": {"lat": 40.71427, "lon": -74.00597}}, {"facility": "Investigational Site Number 8407086", "city": "New York", "state": "New York", "zip": "10029", "country": "United States", "geoPoint": {"lat": 40.71427, "lon": -74.00597}}, {"facility": "Investigational Site Number 8407122", "city": "New York", "state": "New York", "zip": "10036", "country": "United States", "geoPoint": {"lat": 40.71427, "lon": -74.00597}}, {"facility": "Investigational Site Number 8407123", "city": "West Seneca", "state": "New York", "zip": "14224", "country": "United States", "geoPoint": {"lat": 42.85006, "lon": -78.79975}}, {"facility": "Investigational Site Number 8407020", "city": "Greensboro", "state": "North Carolina", "zip": "27408", "country": "United States", "geoPoint": {"lat": 36.07264, "lon": -79.79198}}, {"facility": "Investigational Site Number 8407114", "city": "Lenoir", "state": "North Carolina", "zip": "28645-8981", "country": "United States", "geoPoint": {"lat": 35.91402, "lon": -81.53898}}, {"facility": "Investigational Site Number 8407015", "city": "Morehead City", "state": "North Carolina", "zip": "28557", "country": "United States", "geoPoint": {"lat": 34.72294, "lon": -76.72604}}, {"facility": "Investigational Site Number 8407030", "city": "Salisbury", "state": "North Carolina", "zip": "28144-2742", "country": "United States", "geoPoint": {"lat": 35.67097, "lon": -80.47423}}, {"facility": "Investigational Site Number 8407041", "city": "Wilmington", "state": "North Carolina", "zip": "28401-6638", "country": "United States", "geoPoint": {"lat": 34.22573, "lon": -77.94471}}, {"facility": "Investigational Site Number 8407101", "city": "Winston-Salem", "state": "North Carolina", "zip": "27103", "country": "United States", "geoPoint": {"lat": 36.09986, "lon": -80.24422}}, {"facility": "Investigational Site Number 8407099", "city": "Cincinnati", "state": "Ohio", "zip": "45245", "country": "United States", "geoPoint": {"lat": 39.12713, "lon": -84.51435}}, {"facility": "Investigational Site Number 8407081", "city": "Lyndhurst", "state": "Ohio", "zip": "44124-2467", "country": "United States", "geoPoint": {"lat": 41.52005, "lon": -81.48873}}, {"facility": "Investigational Site Number 8407057", "city": "Norman", "state": "Oklahoma", "zip": "73069", "country": "United States", "geoPoint": {"lat": 35.22257, "lon": -97.43948}}, {"facility": "Investigational Site Number 8407073", "city": "Oklahoma City", "state": "Oklahoma", "zip": "73104-3252", "country": "United States", "geoPoint": {"lat": 35.46756, "lon": -97.51643}}, {"facility": "Investigational Site Number 8407068", "city": "Eugene", "state": "Oregon", "zip": "97404", "country": "United States", "geoPoint": {"lat": 44.05207, "lon": -123.08675}}, {"facility": "Investigational Site Number 8407104", "city": "Beaver", "state": "Pennsylvania", "zip": "15009-1957", "country": "United States", "geoPoint": {"lat": 40.69534, "lon": -80.30478}}, {"facility": "Investigational Site Number 8407025", "city": "Hatboro", "state": "Pennsylvania", "zip": "19040-2045", "country": "United States", "geoPoint": {"lat": 40.17428, "lon": -75.10684}}, {"facility": "Investigational Site Number 8407053", "city": "Lansdale", "state": "Pennsylvania", "zip": "19446-1002", "country": "United States", "geoPoint": {"lat": 40.2415, "lon": -75.28379}}, {"facility": "Investigational Site Number 8407016", "city": "Charleston", "state": "South Carolina", "zip": "29407", "country": "United States", "geoPoint": {"lat": 32.77657, "lon": -79.93092}}, {"facility": "Investigational Site Number 8407071", "city": "Greer", "state": "South Carolina", "zip": "29651-1817", "country": "United States", "geoPoint": {"lat": 34.93873, "lon": -82.22706}}, {"facility": "Investigational Site Number 8407022", "city": "Mount Pleasant", "state": "South Carolina", "zip": "29464", "country": "United States", "geoPoint": {"lat": 32.79407, "lon": -79.86259}}, {"facility": "Investigational Site Number 8407031", "city": "Mount Pleasant", "state": "South Carolina", "zip": "29464", "country": "United States", "geoPoint": {"lat": 32.79407, "lon": -79.86259}}, {"facility": "Investigational Site Number 8407014", "city": "Jefferson City", "state": "Tennessee", "zip": "37760", "country": "United States", "geoPoint": {"lat": 36.12231, "lon": -83.4924}}, {"facility": "Investigational Site Number 8407002", "city": "Knoxville", "state": "Tennessee", "zip": "37938", "country": "United States", "geoPoint": {"lat": 35.96064, "lon": -83.92074}}, {"facility": "Investigational Site Number 8407056", "city": "Memphis", "state": "Tennessee", "zip": "38163", "country": "United States", "geoPoint": {"lat": 35.14953, "lon": -90.04898}}, {"facility": "Investigational Site Number 8407026", "city": "Austin", "state": "Texas", "zip": "78735-8982", "country": "United States", "geoPoint": {"lat": 30.26715, "lon": -97.74306}}, {"facility": "Investigational Site Number 8407029", "city": "Beaumont", "state": "Texas", "zip": "77702", "country": "United States", "geoPoint": {"lat": 30.08605, "lon": -94.10185}}, {"facility": "Investigational Site Number 8407070", "city": "Carrollton", "state": "Texas", "zip": "75010", "country": "United States", "geoPoint": {"lat": 32.95373, "lon": -96.89028}}, {"facility": "Investigational Site Number 8407102", "city": "Corpus Christi", "state": "Texas", "zip": "78414-4173", "country": "United States", "geoPoint": {"lat": 27.80058, "lon": -97.39638}}, {"facility": "Investigational Site Number 8407023", "city": "Dallas", "state": "Texas", "zip": "75230", "country": "United States", "geoPoint": {"lat": 32.78306, "lon": -96.80667}}, {"facility": "Investigational Site Number 8407111", "city": "Dallas", "state": "Texas", "zip": "75231", "country": "United States", "geoPoint": {"lat": 32.78306, "lon": -96.80667}}, {"facility": "Investigational Site Number 8407013", "city": "Fort Worth", "state": "Texas", "zip": "76164", "country": "United States", "geoPoint": {"lat": 32.72541, "lon": -97.32085}}, {"facility": "Investigational Site Number 8407080", "city": "Houston", "state": "Texas", "zip": "77040", "country": "United States", "geoPoint": {"lat": 29.76328, "lon": -95.36327}}, {"facility": "Investigational Site Number 8407088", "city": "Houston", "state": "Texas", "zip": "77095-2856", "country": "United States", "geoPoint": {"lat": 29.76328, "lon": -95.36327}}, {"facility": "Investigational Site Number 8407090", "city": "Katy", "state": "Texas", "zip": "77450", "country": "United States", "geoPoint": {"lat": 29.78579, "lon": -95.8244}}, {"facility": "Investigational Site Number 8407042", "city": "Lampasas", "state": "Texas", "zip": "76550-1820", "country": "United States", "geoPoint": {"lat": 31.06378, "lon": -98.1817}}, {"facility": "Investigational Site Number 8407067", "city": "Lufkin", "state": "Texas", "zip": "75904", "country": "United States", "geoPoint": {"lat": 31.33824, "lon": -94.7291}}, {"facility": "Investigational Site Number 8407118", "city": "Lufkin", "state": "Texas", "zip": "75904", "country": "United States", "geoPoint": {"lat": 31.33824, "lon": -94.7291}}, {"facility": "Investigational Site Number 8407059", "city": "McAllen", "state": "Texas", "zip": "78504", "country": "United States", "geoPoint": {"lat": 26.20341, "lon": -98.23001}}, {"facility": "Investigational Site Number 8407012", "city": "Mesquite", "state": "Texas", "zip": "75149", "country": "United States", "geoPoint": {"lat": 32.7668, "lon": -96.59916}}, {"facility": "Investigational Site Number 8407007", "city": "Plano", "state": "Texas", "zip": "75075", "country": "United States", "geoPoint": {"lat": 33.01984, "lon": -96.69889}}, {"facility": "Investigational Site Number 8407005", "city": "San Antonio", "state": "Texas", "zip": "78218", "country": "United States", "geoPoint": {"lat": 29.42412, "lon": -98.49363}}, {"facility": "Investigational Site Number 8407064", "city": "San Antonio", "state": "Texas", "zip": "78229-3818", "country": "United States", "geoPoint": {"lat": 29.42412, "lon": -98.49363}}, {"facility": "Investigational Site Number 8407010", "city": "Schertz", "state": "Texas", "zip": "78154", "country": "United States", "geoPoint": {"lat": 29.55217, "lon": -98.26973}}, {"facility": "Investigational Site Number 8407076", "city": "Splendora", "state": "Texas", "zip": "77372", "country": "United States", "geoPoint": {"lat": 30.23299, "lon": -95.16104}}, {"facility": "Investigational Site Number 8407063", "city": "Clinton", "state": "Utah", "zip": "84015", "country": "United States", "geoPoint": {"lat": 41.13967, "lon": -112.0505}}, {"facility": "Investigational Site Number 8407055", "city": "Holladay", "state": "Utah", "zip": "84117-7054", "country": "United States", "geoPoint": {"lat": 40.66884, "lon": -111.82466}}, {"facility": "Investigational Site Number 8407097", "city": "Ogden", "state": "Utah", "zip": "84405", "country": "United States", "geoPoint": {"lat": 41.223, "lon": -111.97383}}, {"facility": "Investigational Site Number 8407072", "city": "Salt Lake City", "state": "Utah", "zip": "84102-1553", "country": "United States", "geoPoint": {"lat": 40.76078, "lon": -111.89105}}, {"facility": "Investigational Site Number 8407124", "city": "Manassas", "state": "Virginia", "zip": "20110-4421", "country": "United States", "geoPoint": {"lat": 38.75095, "lon": -77.47527}}, {"facility": "Investigational Site Number 8407105", "city": "Richmond", "state": "Virginia", "zip": "23249-0001", "country": "United States", "geoPoint": {"lat": 37.55376, "lon": -77.46026}}, {"facility": "Investigational Site Number 8407028", "city": "Renton", "state": "Washington", "zip": "98055", "country": "United States", "geoPoint": {"lat": 47.48288, "lon": -122.21707}}, {"facility": "Investigational Site Number 1007002", "city": "Gabrovo", "zip": "5300", "country": "Bulgaria", "geoPoint": {"lat": 42.87472, "lon": 25.33417}}, {"facility": "Investigational Site Number 1007008", "city": "Plovdiv", "zip": "4000", "country": "Bulgaria", "geoPoint": {"lat": 42.15, "lon": 24.75}}, {"facility": "Investigational Site Number 1007003", "city": "Plovdiv", "zip": "4002", "country": "Bulgaria", "geoPoint": {"lat": 42.15, "lon": 24.75}}, {"facility": "Investigational Site Number 1007001", "city": "Ruse", "zip": "7003", "country": "Bulgaria", "geoPoint": {"lat": 43.85639, "lon": 25.97083}}, {"facility": "Investigational Site Number 1007004", "city": "Smolyan", "zip": "4700", "country": "Bulgaria", "geoPoint": {"lat": 41.58528, "lon": 24.69194}}, {"facility": "Investigational Site Number 1007009", "city": "Sofia", "zip": "1632", "country": "Bulgaria", "geoPoint": {"lat": 42.69751, "lon": 23.32415}}, {"facility": "Investigational Site Number 1007005", "city": "Stara Zagora", "zip": "6000", "country": "Bulgaria", "geoPoint": {"lat": 42.43278, "lon": 25.64194}}, {"facility": "Investigational Site Number 1007006", "city": "Stara Zagora", "zip": "6000", "country": "Bulgaria", "geoPoint": {"lat": 42.43278, "lon": 25.64194}}, {"facility": "Investigational Site Number 1007007", "city": "Varna", "zip": "9000", "country": "Bulgaria", "geoPoint": {"lat": 43.21667, "lon": 27.91667}}, {"facility": "Investigational Site Number 3487005", "city": "Balatonfured", "zip": "8230", "country": "Hungary", "geoPoint": {"lat": 46.96188, "lon": 17.87187}}, {"facility": "Investigational Site Number 3487001", "city": "Budapest", "zip": "1033", "country": "Hungary", "geoPoint": {"lat": 47.49801, "lon": 19.03991}}, {"facility": "Investigational Site Number 3487010", "city": "Budapest", "zip": "1134", "country": "Hungary", "geoPoint": {"lat": 47.49801, "lon": 19.03991}}, {"facility": "Investigational Site Number 3487006", "city": "Debrecen", "zip": "4025", "country": "Hungary", "geoPoint": {"lat": 47.53333, "lon": 21.63333}}, {"facility": "Investigational Site Number 3487008", "city": "Debrecen", "zip": "4032", "country": "Hungary", "geoPoint": {"lat": 47.53333, "lon": 21.63333}}, {"facility": "Investigational Site Number 3487002", "city": "Kecskemet", "zip": "6000", "country": "Hungary", "geoPoint": {"lat": 46.90618, "lon": 19.69128}}, {"facility": "Investigational Site Number 3487007", "city": "Nyiregyhaza", "zip": "4405", "country": "Hungary", "geoPoint": {"lat": 47.95539, "lon": 21.71671}}, {"facility": "Investigational Site Number 3487004", "city": "Ny\u00edregyh\u00e1za", "zip": "4400", "country": "Hungary", "geoPoint": {"lat": 47.95539, "lon": 21.71671}}, {"facility": "Investigational Site Number 7037004", "city": "Bardejov", "zip": "085 01", "country": "Slovakia", "geoPoint": {"lat": 49.29175, "lon": 21.27271}}, {"facility": "Investigational Site Number 7037008", "city": "Bratislava", "zip": "831 06", "country": "Slovakia", "geoPoint": {"lat": 48.14816, "lon": 17.10674}}, {"facility": "Investigational Site Number 7037007", "city": "Bratislava", "zip": "85101", "country": "Slovakia", "geoPoint": {"lat": 48.14816, "lon": 17.10674}}, {"facility": "Investigational Site Number 7037005", "city": "Kosice", "zip": "4014", "country": "Slovakia", "geoPoint": {"lat": 48.71395, "lon": 21.25808}}, {"facility": "Investigational Site Number 7037002", "city": "Levice", "zip": "934 01", "country": "Slovakia", "geoPoint": {"lat": 48.21563, "lon": 18.60705}}, {"facility": "Investigational Site Number 7037010", "city": "Nitra", "zip": "94901", "country": "Slovakia", "geoPoint": {"lat": 48.30763, "lon": 18.08453}}, {"facility": "Investigational Site Number 7037009", "city": "Roznava", "zip": "048 01", "country": "Slovakia", "geoPoint": {"lat": 48.66009, "lon": 20.53758}}, {"facility": "Investigational Site Number 7037001", "city": "Sabinov", "zip": "08301", "country": "Slovakia", "geoPoint": {"lat": 49.10309, "lon": 21.0988}}, {"facility": "Investigational Site Number 7037003", "city": "Trnava", "zip": "91701", "country": "Slovakia", "geoPoint": {"lat": 48.37741, "lon": 17.58723}}, {"facility": "Investigational Site Number 7037006", "city": "Vrutky", "zip": "038 61", "country": "Slovakia", "geoPoint": {"lat": 49.11328, "lon": 18.91714}}]}, "ipdSharingStatementModule": {"ipdSharing": "YES", "description": "Individual participant data (IPD) and supporting clinical documents are available for request at clinicalstudydatarequest.com. While making information available Sanofi continues to protect the privacy of the participants in clinical trials and to remove commercially confidential information (CCI). Details on Data Sharing criteria and process for requesting access can be found at this web address: clinicalstudydatarequest.com"}}, "resultsSection": {"participantFlowModule": {"preAssignmentDetails": "Participants with diagnosis of Type 2 Diabetes Mellitus were enrolled in 1 of 4 treatment groups: Placebo or Sotagliflozin 200 mg or Sotagliflozin 400 mg or Glimepiride. Participants were randomly assigned in the ratio of 1:1:2:2 to these reporting groups. Total of 954 participants were enrolled in study, out of which 952 were randomized and treated.", "recruitmentDetails": "Participants took part in the study at 138 investigative sites in United States, Bulgaria, Hungary, and Slovakia from 01 December 2017 to 06 September 2019.", "groups": [{"id": "FG000", "title": "Placebo", "description": "Following a 2-week run-in period, two Sotagliflozin-matching placebo tablets and two Glimepiride-matching placebo capsules, taken orally once daily before the first meal of the day in the double-blind treatment period up to 52 weeks."}, {"id": "FG001", "title": "Sotagliflozin 400 mg", "description": "Following a 2-week run-in period, two Sotagliflozin 200 mg, tablets, and two Glimepiride-matching placebo capsules, taken orally once daily before the first meal of the day in the double-blind treatment period up to 52 weeks."}, {"id": "FG002", "title": "Sotagliflozin 200 mg", "description": "Following a 2-week run-in period, one Sotagliflozin 200 mg, tablet and one Sotagliflozin-matching placebo tablet, and two Glimepiride-matching placebo capsules, taken orally once daily before the first meal of the day in the double-blind treatment period up to 52 weeks."}, {"id": "FG003", "title": "Glimepiride", "description": "Following a 2-week run-in period, two Sotagliflozin-matching placebo tablets, and combination of two Glimepiride capsules with adequate dose strengths per dose titration (titrated up to 6mg), taken orally once daily before the first meal of the day in the double-blind treatment period up to 52 weeks."}], "periods": [{"title": "Overall Study", "milestones": [{"type": "STARTED", "achievements": [{"groupId": "FG000", "numSubjects": "159"}, {"groupId": "FG001", "numSubjects": "317"}, {"groupId": "FG002", "numSubjects": "160"}, {"groupId": "FG003", "numSubjects": "318"}]}, {"type": "COMPLETED", "achievements": [{"groupId": "FG000", "numSubjects": "125"}, {"groupId": "FG001", "numSubjects": "266"}, {"groupId": "FG002", "numSubjects": "128"}, {"groupId": "FG003", "numSubjects": "270"}]}, {"type": "NOT COMPLETED", "achievements": [{"groupId": "FG000", "numSubjects": "34"}, {"groupId": "FG001", "numSubjects": "51"}, {"groupId": "FG002", "numSubjects": "32"}, {"groupId": "FG003", "numSubjects": "48"}]}], "dropWithdraws": [{"type": "Adverse Event", "reasons": [{"groupId": "FG000", "numSubjects": "6"}, {"groupId": "FG001", "numSubjects": "4"}, {"groupId": "FG002", "numSubjects": "1"}, {"groupId": "FG003", "numSubjects": "3"}]}, {"type": "Poor Compliance to Protocol", "reasons": [{"groupId": "FG000", "numSubjects": "0"}, {"groupId": "FG001", "numSubjects": "1"}, {"groupId": "FG002", "numSubjects": "0"}, {"groupId": "FG003", "numSubjects": "1"}]}, {"type": "Lost to Follow-up", "reasons": [{"groupId": "FG000", "numSubjects": "2"}, {"groupId": "FG001", "numSubjects": "2"}, {"groupId": "FG002", "numSubjects": "1"}, {"groupId": "FG003", "numSubjects": "2"}]}, {"type": "At the Participant's own request", "reasons": [{"groupId": "FG000", "numSubjects": "20"}, {"groupId": "FG001", "numSubjects": "26"}, {"groupId": "FG002", "numSubjects": "14"}, {"groupId": "FG003", "numSubjects": "23"}]}, {"type": "Reason Not Specified", "reasons": [{"groupId": "FG000", "numSubjects": "6"}, {"groupId": "FG001", "numSubjects": "18"}, {"groupId": "FG002", "numSubjects": "16"}, {"groupId": "FG003", "numSubjects": "19"}]}]}]}, "baselineCharacteristicsModule": {"populationDescription": "The randomized population included any participant who had been allocated to a randomized treatment.", "groups": [{"id": "BG000", "title": "Placebo", "description": "Following a 2-week run-in period, two Sotagliflozin-matching placebo tablets and two Glimepiride-matching placebo capsules, taken orally once daily before the first meal of the day in the double-blind treatment period up to 52 weeks."}, {"id": "BG001", "title": "Sotagliflozin 400 mg", "description": "Following a 2-week run-in period, two Sotagliflozin 200 mg, tablets, and two Glimepiride-matching placebo capsules, taken orally once daily before the first meal of the day in the double-blind treatment period up to 52 weeks."}, {"id": "BG002", "title": "Sotagliflozin 200 mg", "description": "Following a 2-week run-in period, one Sotagliflozin 200 mg, tablet and one Sotagliflozin-matching placebo tablet, and two Glimepiride-matching placebo capsules, taken orally once daily before the first meal of the day in the double-blind treatment period up to 52 weeks."}, {"id": "BG003", "title": "Glimepiride", "description": "Following a 2-week run-in period, two Sotagliflozin-matching placebo tablets, and combination of two Glimepiride capsules with adequate dose strengths per dose titration (titrated up to 6mg), taken orally once daily before the first meal of the day in the double-blind treatment period up to 52 weeks."}, {"id": "BG004", "title": "Total", "description": "Total of all reporting groups"}], "denoms": [{"units": "Participants", "counts": [{"groupId": "BG000", "value": "159"}, {"groupId": "BG001", "value": "317"}, {"groupId": "BG002", "value": "160"}, {"groupId": "BG003", "value": "318"}, {"groupId": "BG004", "value": "954"}]}], "measures": [{"title": "Age, Continuous", "paramType": "MEAN", "dispersionType": "STANDARD_DEVIATION", "unitOfMeasure": "years", "classes": [{"categories": [{"measurements": [{"groupId": "BG000", "value": "58.8", "spread": "11.2"}, {"groupId": "BG001", "value": "59.7", "spread": "10.4"}, {"groupId": "BG002", "value": "58.6", "spread": "9.9"}, {"groupId": "BG003", "value": "59.8", "spread": "9.6"}, {"groupId": "BG004", "value": "59.4", "spread": "10.2"}]}]}]}, {"title": "Sex: Female, Male", "paramType": "COUNT_OF_PARTICIPANTS", "unitOfMeasure": "Participants", "classes": [{"categories": [{"title": "Female", "measurements": [{"groupId": "BG000", "value": "77"}, {"groupId": "BG001", "value": "157"}, {"groupId": "BG002", "value": "75"}, {"groupId": "BG003", "value": "143"}, {"groupId": "BG004", "value": "452"}]}, {"title": "Male", "measurements": [{"groupId": "BG000", "value": "82"}, {"groupId": "BG001", "value": "160"}, {"groupId": "BG002", "value": "85"}, {"groupId": "BG003", "value": "175"}, {"groupId": "BG004", "value": "502"}]}]}]}, {"title": "Ethnicity (NIH/OMB)", "paramType": "COUNT_OF_PARTICIPANTS", "unitOfMeasure": "Participants", "classes": [{"categories": [{"title": "Hispanic or Latino", "measurements": [{"groupId": "BG000", "value": "48"}, {"groupId": "BG001", "value": "85"}, {"groupId": "BG002", "value": "53"}, {"groupId": "BG003", "value": "111"}, {"groupId": "BG004", "value": "297"}]}, {"title": "Not Hispanic or Latino", "measurements": [{"groupId": "BG000", "value": "110"}, {"groupId": "BG001", "value": "230"}, {"groupId": "BG002", "value": "106"}, {"groupId": "BG003", "value": "207"}, {"groupId": "BG004", "value": "653"}]}, {"title": "Unknown or Not Reported", "measurements": [{"groupId": "BG000", "value": "1"}, {"groupId": "BG001", "value": "2"}, {"groupId": "BG002", "value": "1"}, {"groupId": "BG003", "value": "0"}, {"groupId": "BG004", "value": "4"}]}]}]}, {"title": "Race (NIH/OMB)", "paramType": "COUNT_OF_PARTICIPANTS", "unitOfMeasure": "Participants", "classes": [{"categories": [{"title": "American Indian or Alaska Native", "measurements": [{"groupId": "BG000", "value": "0"}, {"groupId": "BG001", "value": "1"}, {"groupId": "BG002", "value": "0"}, {"groupId": "BG003", "value": "1"}, {"groupId": "BG004", "value": "2"}]}, {"title": "Asian", "measurements": [{"groupId": "BG000", "value": "3"}, {"groupId": "BG001", "value": "5"}, {"groupId": "BG002", "value": "3"}, {"groupId": "BG003", "value": "4"}, {"groupId": "BG004", "value": "15"}]}, {"title": "Native Hawaiian or Other Pacific Islander", "measurements": [{"groupId": "BG000", "value": "1"}, {"groupId": "BG001", "value": "1"}, {"groupId": "BG002", "value": "2"}, {"groupId": "BG003", "value": "0"}, {"groupId": "BG004", "value": "4"}]}, {"title": "Black or African American", "measurements": [{"groupId": "BG000", "value": "13"}, {"groupId": "BG001", "value": "34"}, {"groupId": "BG002", "value": "19"}, {"groupId": "BG003", "value": "36"}, {"groupId": "BG004", "value": "102"}]}, {"title": "White", "measurements": [{"groupId": "BG000", "value": "141"}, {"groupId": "BG001", "value": "269"}, {"groupId": "BG002", "value": "136"}, {"groupId": "BG003", "value": "277"}, {"groupId": "BG004", "value": "823"}]}, {"title": "More than one race", "measurements": [{"groupId": "BG000", "value": "1"}, {"groupId": "BG001", "value": "3"}, {"groupId": "BG002", "value": "0"}, {"groupId": "BG003", "value": "0"}, {"groupId": "BG004", "value": "4"}]}, {"title": "Unknown or Not Reported", "measurements": [{"groupId": "BG000", "value": "0"}, {"groupId": "BG001", "value": "4"}, {"groupId": "BG002", "value": "0"}, {"groupId": "BG003", "value": "0"}, {"groupId": "BG004", "value": "4"}]}]}]}, {"title": "Region of Enrollment", "paramType": "NUMBER", "unitOfMeasure": "participants", "classes": [{"title": "Bulgaria", "categories": [{"measurements": [{"groupId": "BG000", "value": "7"}, {"groupId": "BG001", "value": "17"}, {"groupId": "BG002", "value": "5"}, {"groupId": "BG003", "value": "16"}, {"groupId": "BG004", "value": "45"}]}]}, {"title": "Hungary", "categories": [{"measurements": [{"groupId": "BG000", "value": "22"}, {"groupId": "BG001", "value": "48"}, {"groupId": "BG002", "value": "24"}, {"groupId": "BG003", "value": "42"}, {"groupId": "BG004", "value": "136"}]}]}, {"title": "Slovakia", "categories": [{"measurements": [{"groupId": "BG000", "value": "12"}, {"groupId": "BG001", "value": "28"}, {"groupId": "BG002", "value": "10"}, {"groupId": "BG003", "value": "30"}, {"groupId": "BG004", "value": "80"}]}]}, {"title": "United States", "categories": [{"measurements": [{"groupId": "BG000", "value": "118"}, {"groupId": "BG001", "value": "224"}, {"groupId": "BG002", "value": "121"}, {"groupId": "BG003", "value": "230"}, {"groupId": "BG004", "value": "693"}]}]}]}, {"title": "Hemoglobin A1c (HbA1c)", "paramType": "MEAN", "dispersionType": "STANDARD_DEVIATION", "unitOfMeasure": "percentage of HbA1c", "classes": [{"categories": [{"measurements": [{"groupId": "BG000", "value": "8.12", "spread": "0.73"}, {"groupId": "BG001", "value": "8.09", "spread": "0.78"}, {"groupId": "BG002", "value": "8.11", "spread": "0.86"}, {"groupId": "BG003", "value": "8.07", "spread": "0.79"}, {"groupId": "BG004", "value": "8.09", "spread": "0.79"}]}]}]}, {"title": "Systolic Blood Pressure (SBP)", "paramType": "MEAN", "dispersionType": "STANDARD_DEVIATION", "unitOfMeasure": "millimeter of mercury (mmHg)", "classes": [{"categories": [{"measurements": [{"groupId": "BG000", "value": "133.23", "spread": "14.90"}, {"groupId": "BG001", "value": "133.17", "spread": "14.37"}, {"groupId": "BG002", "value": "132.78", "spread": "13.29"}, {"groupId": "BG003", "value": "134.66", "spread": "14.43"}, {"groupId": "BG004", "value": "133.61", "spread": "14.30"}]}]}]}]}, "outcomeMeasuresModule": {"outcomeMeasures": [{"type": "PRIMARY", "title": "Change From Baseline in Hemoglobin A1c at Week 52", "description": "An analysis of covariance (ANCOVA) model was used for the analysis.", "populationDescription": "Intend to treat (ITT) population included all randomized participants. Missing data are imputed using the retrieved dropouts imputation method.", "reportingStatus": "POSTED", "paramType": "LEAST_SQUARES_MEAN", "dispersionType": "Standard Error", "unitOfMeasure": "percentage of HbA1c", "timeFrame": "Baseline, Week 52", "groups": [{"id": "OG000", "title": "Placebo", "description": "Following a 2-week run-in period, two Sotagliflozin-matching placebo tablets and two Glimepiride-matching placebo capsules, taken orally once daily before the first meal of the day in the double-blind treatment period up to 52 weeks."}, {"id": "OG001", "title": "Sotagliflozin 400 mg", "description": "Following a 2-week run-in period, two Sotagliflozin 200 mg, tablets, and two Glimepiride-matching placebo capsules, taken orally once daily before the first meal of the day in the double-blind treatment period up to 52 weeks."}, {"id": "OG002", "title": "Sotagliflozin 200 mg", "description": "Following a 2-week run-in period, one Sotagliflozin 200 mg, tablet and one Sotagliflozin-matching placebo tablet, and two Glimepiride-matching placebo capsules, taken orally once daily before the first meal of the day in the double-blind treatment period up to 52 weeks."}, {"id": "OG003", "title": "Glimepiride", "description": "Following a 2-week run-in period, two Sotagliflozin-matching placebo tablets, and combination of two Glimepiride capsules with adequate dose strengths per dose titration (titrated up to 6mg), taken orally once daily before the first meal of the day in the double-blind treatment period up to 52 weeks."}], "denoms": [{"units": "Participants", "counts": [{"groupId": "OG000", "value": "159"}, {"groupId": "OG001", "value": "317"}, {"groupId": "OG002", "value": "160"}, {"groupId": "OG003", "value": "318"}]}], "classes": [{"categories": [{"measurements": [{"groupId": "OG000", "value": "-0.40", "spread": "0.187"}, {"groupId": "OG001", "value": "-0.65", "spread": "0.101"}, {"groupId": "OG002", "value": "-0.49", "spread": "0.114"}, {"groupId": "OG003", "value": "-0.61", "spread": "0.093"}]}]}], "analyses": [{"groupIds": ["OG001", "OG003"], "groupDescription": "The change from baseline to Week 52 is analyzed using ANCOVA model with treatment groups, randomization strata of HbA1c (\u22648.5, \\>8.5%) at screening, randomization strata of SBP (\\<130, \u2265130 mmHg) at screening, and country as fixed effects, and baseline HbA1c as a covariate.", "nonInferiorityType": "NON_INFERIORITY", "nonInferiorityComment": "The non-inferiority hypothesis was declared significant if the upper bound of the 2-sided 95% confidence interval (CI) for the adjusted mean difference is \\<0.3.", "pValue": "0.3306", "statisticalMethod": "ANCOVA", "paramType": "Difference in Least Squares (LS) Mean", "paramValue": "0.12", "ciPctValue": "95", "ciNumSides": "TWO_SIDED", "ciLowerLimit": "-0.120", "ciUpperLimit": "0.357", "dispersionType": "STANDARD_ERROR_OF_MEAN", "dispersionValue": "0.122"}, {"groupIds": ["OG002", "OG003"], "groupDescription": "The change from baseline to Week 52 is analyzed using ANCOVA model with treatment groups, randomization strata of HbA1c (\u22648.5, \\>8.5%) at screening, randomization strata of SBP (\\<130, \u2265130 mmHg) at screening, and country as fixed effects, and baseline HbA1c as a covariate.", "nonInferiorityType": "NON_INFERIORITY", "nonInferiorityComment": "The non-inferiority hypothesis was declared significant if the upper bound of the 2-sided 95% CI for the adjusted mean difference is \\<0.3.", "pValue": "0.7112", "statisticalMethod": "ANCOVA", "paramType": "Difference in LS Mean", "paramValue": "-0.04", "ciPctValue": "95", "ciNumSides": "TWO_SIDED", "ciLowerLimit": "-0.265", "ciUpperLimit": "0.181", "dispersionType": "STANDARD_ERROR_OF_MEAN", "dispersionValue": "0.114"}]}, {"type": "SECONDARY", "title": "Change From Baseline in Hemoglobin A1c at Week 26", "description": "An ANCOVA model was used for the analysis.", "populationDescription": "ITT population included all randomized participants. Missing data are imputed using the washout imputation method.", "reportingStatus": "POSTED", "paramType": "LEAST_SQUARES_MEAN", "dispersionType": "Standard Error", "unitOfMeasure": "percentage of HbA1c", "timeFrame": "Baseline, Week 26", "groups": [{"id": "OG000", "title": "Placebo", "description": "Following a 2-week run-in period, two Sotagliflozin-matching placebo tablets and two Glimepiride-matching placebo capsules, taken orally once daily before the first meal of the day in the double-blind treatment period up to 52 weeks."}, {"id": "OG001", "title": "Sotagliflozin 400 mg", "description": "Following a 2-week run-in period, two Sotagliflozin 200 mg, tablets, and two Glimepiride-matching placebo capsules, taken orally once daily before the first meal of the day in the double-blind treatment period up to 52 weeks."}, {"id": "OG002", "title": "Sotagliflozin 200 mg", "description": "Following a 2-week run-in period, one Sotagliflozin 200 mg, tablet and one Sotagliflozin-matching placebo tablet, and two Glimepiride-matching placebo capsules, taken orally once daily before the first meal of the day in the double-blind treatment period up to 52 weeks."}, {"id": "OG003", "title": "Glimepiride", "description": "Following a 2-week run-in period, two Sotagliflozin-matching placebo tablets, and combination of two Glimepiride capsules with adequate dose strengths per dose titration (titrated up to 6mg), taken orally once daily before the first meal of the day in the double-blind treatment period up to 52 weeks."}], "denoms": [{"units": "Participants", "counts": [{"groupId": "OG000", "value": "159"}, {"groupId": "OG001", "value": "317"}, {"groupId": "OG002", "value": "160"}, {"groupId": "OG003", "value": "318"}]}], "classes": [{"categories": [{"measurements": [{"groupId": "OG000", "value": "-0.41", "spread": "0.097"}, {"groupId": "OG001", "value": "-0.77", "spread": "0.076"}, {"groupId": "OG002", "value": "-0.61", "spread": "0.098"}, {"groupId": "OG003", "value": "-1.02", "spread": "0.075"}]}]}], "analyses": [{"groupIds": ["OG001", "OG003"], "groupDescription": "The change from baseline to Week 26 is analyzed using ANCOVA model with treatment groups, randomization strata of HbA1c (\u22648.5, \\>8.5%) at screening, randomization strata of SBP (\\<130, \u2265130 mmHg) at screening, and country as fixed effects, and baseline HbA1c as a covariate.", "nonInferiorityType": "SUPERIORITY", "pValue": "0.0827", "statisticalMethod": "ANCOVA", "paramType": "Difference in LS Mean", "paramValue": "-0.21", "ciPctValue": "95", "ciNumSides": "TWO_SIDED", "ciLowerLimit": "-0.440", "ciUpperLimit": "0.027", "dispersionType": "STANDARD_ERROR_OF_MEAN", "dispersionValue": "0.119"}, {"groupIds": ["OG002", "OG003"], "groupDescription": "The change from baseline to Week 26 is analyzed using ANCOVA model with treatment groups, randomization strata of HbA1c (\u22648.5, \\>8.5%) at screening, randomization strata of SBP (\\<130, \u2265130 mmHg) at screening, and country as fixed effects, and baseline HbA1c as a covariate.", "nonInferiorityType": "SUPERIORITY", "pValue": "0.0003", "statisticalMethod": "ANCOVA", "paramType": "Difference in LS Mean", "paramValue": "-0.37", "ciPctValue": "95", "ciNumSides": "TWO_SIDED", "ciLowerLimit": "-0.571", "ciUpperLimit": "-0.167", "dispersionType": "STANDARD_ERROR_OF_MEAN", "dispersionValue": "0.103"}]}, {"type": "SECONDARY", "title": "Change From Baseline in Body Weight at Week 26 and 52", "description": "An ANCOVA model was used for the analysis.", "populationDescription": "ITT population included all randomized participants. Missing data are imputed using the retrieved dropouts \\& washout imputation method.", "reportingStatus": "POSTED", "paramType": "LEAST_SQUARES_MEAN", "dispersionType": "Standard Error", "unitOfMeasure": "kilogram (kg)", "timeFrame": "Baseline, Week 26, Week 52", "groups": [{"id": "OG000", "title": "Placebo", "description": "Following a 2-week run-in period, two Sotagliflozin-matching placebo tablets and two Glimepiride-matching placebo capsules, taken orally once daily before the first meal of the day in the double-blind treatment period up to 52 weeks."}, {"id": "OG001", "title": "Sotagliflozin 400 mg", "description": "Following a 2-week run-in period, two Sotagliflozin 200 mg, tablets, and two Glimepiride-matching placebo capsules, taken orally once daily before the first meal of the day in the double-blind treatment period up to 52 weeks."}, {"id": "OG002", "title": "Sotagliflozin 200 mg", "description": "Following a 2-week run-in period, one Sotagliflozin 200 mg, tablet and one Sotagliflozin-matching placebo tablet, and two Glimepiride-matching placebo capsules, taken orally once daily before the first meal of the day in the double-blind treatment period up to 52 weeks."}, {"id": "OG003", "title": "Glimepiride", "description": "Following a 2-week run-in period, two Sotagliflozin-matching placebo tablets, and combination of two Glimepiride capsules with adequate dose strengths per dose titration (titrated up to 6mg), taken orally once daily before the first meal of the day in the double-blind treatment period up to 52 weeks."}], "denoms": [{"units": "Participants", "counts": [{"groupId": "OG000", "value": "159"}, {"groupId": "OG001", "value": "317"}, {"groupId": "OG002", "value": "160"}, {"groupId": "OG003", "value": "318"}]}], "classes": [{"title": "Change at Week 26", "categories": [{"measurements": [{"groupId": "OG000", "value": "-1.26", "spread": "0.329"}, {"groupId": "OG001", "value": "-2.75", "spread": "0.257"}, {"groupId": "OG002", "value": "-2.24", "spread": "0.336"}, {"groupId": "OG003", "value": "0.70", "spread": "0.256"}]}]}, {"title": "Change at Week 52", "categories": [{"measurements": [{"groupId": "OG000", "value": "-0.47", "spread": "1.406"}, {"groupId": "OG001", "value": "-2.64", "spread": "0.503"}, {"groupId": "OG002", "value": "-1.74", "spread": "0.707"}, {"groupId": "OG003", "value": "0.94", "spread": "0.452"}]}]}], "analyses": [{"groupIds": ["OG000", "OG001"], "groupDescription": "The change from baseline to Week 26 is analyzed using ANCOVA model with treatment groups (placebo, sotagliflozin 200 mg, sotagliflozin 400 mg, glimepiride), randomization strata of HbA1c (\u2264 8.5, \\>8.5%) at screening, randomization strata of SBP (\\<130,\u2265 130 mmHg) at screening, and country as fixed effects, and baseline body weight as a covariate.", "nonInferiorityType": "SUPERIORITY", "pValue": "<0.0001", "statisticalMethod": "ANCOVA", "paramType": "Difference in LS Mean", "paramValue": "-1.49", "ciPctValue": "95", "ciNumSides": "TWO_SIDED", "ciLowerLimit": "-2.173", "ciUpperLimit": "-0.803", "dispersionType": "STANDARD_ERROR_OF_MEAN", "dispersionValue": "0.349"}, {"groupIds": ["OG001", "OG003"], "groupDescription": "The change from baseline to Week 52 is analyzed using analysis of ANCOVA model with treatment groups, randomization strata of HbA1c (\u22648.5, \\>8.5%) at screening, randomization strata of SBP (\\<130, \u2265130 mmHg) at screening, and country as fixed effects and baseline body weight as a covariate.", "nonInferiorityType": "SUPERIORITY", "pValue": "< 0.0001", "statisticalMethod": "ANCOVA", "paramType": "Difference in LS Mean", "paramValue": "-3.58", "ciPctValue": "95", "ciNumSides": "TWO_SIDED", "ciLowerLimit": "-4.651", "ciUpperLimit": "-2.517", "dispersionType": "STANDARD_ERROR_OF_MEAN", "dispersionValue": "0.544"}]}, {"type": "SECONDARY", "title": "Change From Baseline in Systolic Blood Pressure (SBP) for Participants With SBP \u2265130 mmHg at Week 12", "description": "An ANCOVA model was used for the analysis.", "populationDescription": "Analysis was performed on ITT population in participants with baseline SBP \u2265130 mmHg. Missing data are imputed using washout imputation method.", "reportingStatus": "POSTED", "paramType": "LEAST_SQUARES_MEAN", "dispersionType": "Standard Error", "unitOfMeasure": "mmHg", "timeFrame": "Baseline, Week 12", "groups": [{"id": "OG000", "title": "Placebo", "description": "Following a 2-week run-in period, two Sotagliflozin-matching placebo tablets and two Glimepiride-matching placebo capsules, taken orally once daily before the first meal of the day in the double-blind treatment period up to 52 weeks."}, {"id": "OG001", "title": "Sotagliflozin 400 mg", "description": "Following a 2-week run-in period, two Sotagliflozin 200 mg, tablets, and two Glimepiride-matching placebo capsules, taken orally once daily before the first meal of the day in the double-blind treatment period up to 52 weeks."}, {"id": "OG002", "title": "Sotagliflozin 200 mg", "description": "Following a 2-week run-in period, one Sotagliflozin 200 mg, tablet and one Sotagliflozin-matching placebo tablet, and two Glimepiride-matching placebo capsules, taken orally once daily before the first meal of the day in the double-blind treatment period up to 52 weeks."}, {"id": "OG003", "title": "Glimepiride", "description": "Following a 2-week run-in period, two Sotagliflozin-matching placebo tablets, and combination of two Glimepiride capsules with adequate dose strengths per dose titration (titrated up to 6mg), taken orally once daily before the first meal of the day in the double-blind treatment period up to 52 weeks."}], "denoms": [{"units": "Participants", "counts": [{"groupId": "OG000", "value": "79"}, {"groupId": "OG001", "value": "161"}, {"groupId": "OG002", "value": "81"}, {"groupId": "OG003", "value": "175"}]}], "classes": [{"categories": [{"measurements": [{"groupId": "OG000", "value": "-5.34", "spread": "1.451"}, {"groupId": "OG001", "value": "-8.03", "spread": "1.064"}, {"groupId": "OG002", "value": "-9.12", "spread": "1.466"}, {"groupId": "OG003", "value": "-3.86", "spread": "1.081"}]}]}], "analyses": [{"groupIds": ["OG001", "OG003"], "groupDescription": "The change from baseline to Week 12 is analyzed using ANCOVA model with treatment groups, randomization strata of HbA1c (\u22648.5, \\>8.5%) at screening, and country as fixed effects, and baseline SBP as a covariate.", "nonInferiorityType": "SUPERIORITY", "pValue": "0.0012", "statisticalMethod": "ANCOVA", "paramType": "Difference in LS Mean", "paramValue": "-4.18", "ciPctValue": "95", "ciNumSides": "TWO_SIDED", "ciLowerLimit": "-6.701", "ciUpperLimit": "-1.650", "dispersionType": "STANDARD_ERROR_OF_MEAN", "dispersionValue": "1.288"}, {"groupIds": ["OG000", "OG001"], "groupDescription": "The change from baseline to Week 12 is analyzed using ANCOVA model with treatment groups, randomization strata of HbA1c (\u22648.5, \\>8.5%) at screening, and country as fixed effects, and baseline SBP as a covariate.", "nonInferiorityType": "SUPERIORITY", "pValue": "0.0973", "statisticalMethod": "ANCOVA", "paramType": "Difference in LS Mean", "paramValue": "-2.70", "ciPctValue": "95", "ciNumSides": "TWO_SIDED", "ciLowerLimit": "-5.890", "ciUpperLimit": "0.491", "dispersionType": "STANDARD_ERROR_OF_MEAN", "dispersionValue": "0.0973"}]}, {"type": "SECONDARY", "title": "Change From Baseline in Systolic Blood Pressure (SBP) for All Participants at Week 12", "description": "An ANCOVA model was used for the analysis.", "populationDescription": "ITT population included all randomized participants. Missing data are imputed using washout imputation method under the missing not at random framework.", "reportingStatus": "POSTED", "paramType": "LEAST_SQUARES_MEAN", "dispersionType": "Standard Error", "unitOfMeasure": "mmHg", "timeFrame": "Baseline, Week 12", "groups": [{"id": "OG000", "title": "Placebo", "description": "Following a 2-week run-in period, two Sotagliflozin-matching placebo tablets and two Glimepiride-matching placebo capsules, taken orally once daily before the first meal of the day in the double-blind treatment period up to 52 weeks."}, {"id": "OG001", "title": "Sotagliflozin 400 mg", "description": "Following a 2-week run-in period, two Sotagliflozin 200 mg, tablets, and two Glimepiride-matching placebo capsules, taken orally once daily before the first meal of the day in the double-blind treatment period up to 52 weeks."}, {"id": "OG002", "title": "Sotagliflozin 200 mg", "description": "Following a 2-week run-in period, one Sotagliflozin 200 mg, tablet and one Sotagliflozin-matching placebo tablet, and two Glimepiride-matching placebo capsules, taken orally once daily before the first meal of the day in the double-blind treatment period up to 52 weeks."}, {"id": "OG003", "title": "Glimepiride", "description": "Following a 2-week run-in period, two Sotagliflozin-matching placebo tablets, and combination of two Glimepiride capsules with adequate dose strengths per dose titration (titrated up to 6mg), taken orally once daily before the first meal of the day in the double-blind treatment period up to 52 weeks."}], "denoms": [{"units": "Participants", "counts": [{"groupId": "OG000", "value": "159"}, {"groupId": "OG001", "value": "317"}, {"groupId": "OG002", "value": "160"}, {"groupId": "OG003", "value": "318"}]}], "classes": [{"categories": [{"measurements": [{"groupId": "OG000", "value": "-2.64", "spread": "1.013"}, {"groupId": "OG001", "value": "-4.70", "spread": "0.791"}, {"groupId": "OG002", "value": "-4.77", "spread": "1.033"}, {"groupId": "OG003", "value": "-0.68", "spread": "0.795"}]}]}], "analyses": [{"groupIds": ["OG001", "OG003"], "groupDescription": "The change from baseline to Week 12 is analyzed using ANCOVA model with treatment groups, randomization strata of HbA1c (\u2264 8.5, \\>8.5%) at screening, and country as fixed effects, and baseline SBP as a covariate.", "nonInferiorityType": "SUPERIORITY", "pValue": "<0.0001", "statisticalMethod": "ANCOVA", "paramType": "Difference in LS Mean", "paramValue": "-4.02", "ciPctValue": "95", "ciNumSides": "TWO_SIDED", "ciLowerLimit": "-5.730", "ciUpperLimit": "-2.319", "dispersionType": "STANDARD_ERROR_OF_MEAN", "dispersionValue": "0.870"}]}, {"type": "SECONDARY", "title": "Percentage of Participants With At Least One Documented Symptomatic Hypoglycemic Event", "description": "Documented symptomatic hypoglycemia includes the typical symptoms of hypoglycemia (increased sweating, nervousness, asthenia/weakness, tremor, dizziness, increased appetite, palpitations, headache, sleep disorder, confusion, seizures, unconsciousness, and/or coma) and plasma glucose \u2264 70 mg/dL (3.9 mmol/L).", "populationDescription": "ITT population included all randomized participants.", "reportingStatus": "POSTED", "paramType": "NUMBER", "unitOfMeasure": "percentage of participants", "timeFrame": "Up to Week 52", "groups": [{"id": "OG000", "title": "Placebo", "description": "Following a 2-week run-in period, two Sotagliflozin-matching placebo tablets and two Glimepiride-matching placebo capsules, taken orally once daily before the first meal of the day in the double-blind treatment period up to 52 weeks."}, {"id": "OG001", "title": "Sotagliflozin 400 mg", "description": "Following a 2-week run-in period, two Sotagliflozin 200 mg, tablets, and two Glimepiride-matching placebo capsules, taken orally once daily before the first meal of the day in the double-blind treatment period up to 52 weeks."}, {"id": "OG002", "title": "Sotagliflozin 200 mg", "description": "Following a 2-week run-in period, one Sotagliflozin 200 mg, tablet and one Sotagliflozin-matching placebo tablet, and two Glimepiride-matching placebo capsules, taken orally once daily before the first meal of the day in the double-blind treatment period up to 52 weeks."}, {"id": "OG003", "title": "Glimepiride", "description": "Following a 2-week run-in period, two Sotagliflozin-matching placebo tablets, and combination of two Glimepiride capsules with adequate dose strengths per dose titration (titrated up to 6mg), taken orally once daily before the first meal of the day in the double-blind treatment period up to 52 weeks."}], "denoms": [{"units": "Participants", "counts": [{"groupId": "OG000", "value": "159"}, {"groupId": "OG001", "value": "317"}, {"groupId": "OG002", "value": "160"}, {"groupId": "OG003", "value": "318"}]}], "classes": [{"categories": [{"measurements": [{"groupId": "OG000", "value": "0.63"}, {"groupId": "OG001", "value": "1.26"}, {"groupId": "OG002", "value": "3.75"}, {"groupId": "OG003", "value": "16.67"}]}]}], "analyses": [{"groupIds": ["OG001", "OG003"], "groupDescription": "Weighted average of percentage difference between treatment groups from each stratum \\[randomization strata of HbA1c \\[\u22648.5%, \\>8.5%\\] at screening, randomization strata of mean SBP \\[\\<130, \u2265130 mmHg\\] at screening using Cochran-Mantel-Haenszel weights.", "nonInferiorityType": "SUPERIORITY", "pValue": "<0.0001", "statisticalMethod": "Cochran-Mantel-Haenszel", "paramType": "Percentage difference", "paramValue": "-15.4", "ciPctValue": "95", "ciNumSides": "TWO_SIDED", "ciLowerLimit": "-19.67", "ciUpperLimit": "-11.12"}]}, {"type": "SECONDARY", "title": "Percentage of Participants With Adverse Events (AEs)", "description": "An AE is any untoward medical occurrence in a participant or clinical investigation participant administered a pharmaceutical product and that does not necessarily have a causal relationship with this treatment.", "populationDescription": "Safety population included all participants who had received at least one dose of study drug.", "reportingStatus": "POSTED", "paramType": "NUMBER", "unitOfMeasure": "percentage of participants", "timeFrame": "Up to Week 52", "groups": [{"id": "OG000", "title": "Placebo", "description": "Following a 2-week run-in period, two Sotagliflozin-matching placebo tablets and two Glimepiride-matching placebo capsules, taken orally once daily before the first meal of the day in the double-blind treatment period up to 52 weeks."}, {"id": "OG001", "title": "Sotagliflozin 400 mg", "description": "Following a 2-week run-in period, two Sotagliflozin 200 mg, tablets, and two Glimepiride-matching placebo capsules, taken orally once daily before the first meal of the day in the double-blind treatment period up to 52 weeks."}, {"id": "OG002", "title": "Sotagliflozin 200 mg", "description": "Following a 2-week run-in period, one Sotagliflozin 200 mg, tablet and one Sotagliflozin-matching placebo tablet, and two Glimepiride-matching placebo capsules, taken orally once daily before the first meal of the day in the double-blind treatment period up to 52 weeks."}, {"id": "OG003", "title": "Glimepiride", "description": "Following a 2-week run-in period, two Sotagliflozin-matching placebo tablets, and combination of two Glimepiride capsules with adequate dose strengths per dose titration (titrated up to 6mg), taken orally once daily before the first meal of the day in the double-blind treatment period up to 52 weeks."}], "denoms": [{"units": "Participants", "counts": [{"groupId": "OG000", "value": "159"}, {"groupId": "OG001", "value": "317"}, {"groupId": "OG002", "value": "159"}, {"groupId": "OG003", "value": "317"}]}], "classes": [{"categories": [{"measurements": [{"groupId": "OG000", "value": "57.2"}, {"groupId": "OG001", "value": "59.9"}, {"groupId": "OG002", "value": "56.6"}, {"groupId": "OG003", "value": "49.2"}]}]}]}, {"type": "OTHER_PRE_SPECIFIED", "title": "Percentage of Participants With Hypoglycemic Events", "description": "Percentage of participants with hypoglycemic events are reported for the following 3 categories: Any hypoglycemia (as reported in the Electronic Case Report Form); Documented symptomatic hypoglycemia \\[typical symptoms of hypoglycemia (increased sweating, nervousness, asthenia/weakness, tremor, dizziness, increased appetite, palpitations, headache, sleep disorder, confusion, seizures, unconsciousness, and/or coma) and plasma glucose \u2264 70 mg/dL (3.9 mmol/L)\\]; Severe \\[an event requiring assistance of another person to actively administer carbohydrate, glucagon, intravenous glucose or other resuscitative actions\\] or documented symptomatic hypoglycemia \\[typical symptoms of hypoglycemia and plasma glucose \u2264 70 mg/dL\\].", "populationDescription": "Safety population included all randomized participants who received at least 1 dose of double-blind investigational medicinal product (IMP) (regardless of the amount of treatment administered).", "reportingStatus": "POSTED", "paramType": "NUMBER", "unitOfMeasure": "percentage of participants", "timeFrame": "Up to Week 52", "groups": [{"id": "OG000", "title": "Placebo", "description": "Following a 2-week run-in period, two Sotagliflozin-matching placebo tablets and two Glimepiride-matching placebo capsules, taken orally once daily before the first meal of the day in the double-blind treatment period up to 52 weeks."}, {"id": "OG001", "title": "Sotagliflozin 400 mg", "description": "Following a 2-week run-in period, two Sotagliflozin 200 mg, tablets, and two Glimepiride-matching placebo capsules, taken orally once daily before the first meal of the day in the double-blind treatment period up to 52 weeks."}, {"id": "OG002", "title": "Sotagliflozin 200 mg", "description": "Following a 2-week run-in period, one Sotagliflozin 200 mg, tablet and one Sotagliflozin-matching placebo tablet, and two Glimepiride-matching placebo capsules, taken orally once daily before the first meal of the day in the double-blind treatment period up to 52 weeks."}, {"id": "OG003", "title": "Glimepiride", "description": "Following a 2-week run-in period, two Sotagliflozin-matching placebo tablets, and combination of two Glimepiride capsules with adequate dose strengths per dose titration (titrated up to 6mg), taken orally once daily before the first meal of the day in the double-blind treatment period up to 52 weeks."}], "denoms": [{"units": "Participants", "counts": [{"groupId": "OG000", "value": "159"}, {"groupId": "OG001", "value": "317"}, {"groupId": "OG002", "value": "159"}, {"groupId": "OG003", "value": "317"}]}], "classes": [{"title": "Any hypoglycemia", "categories": [{"measurements": [{"groupId": "OG000", "value": "2.5"}, {"groupId": "OG001", "value": "4.1"}, {"groupId": "OG002", "value": "6.3"}, {"groupId": "OG003", "value": "25.9"}]}]}, {"title": "Documented symptomatic hypoglycemia", "categories": [{"measurements": [{"groupId": "OG000", "value": "0.6"}, {"groupId": "OG001", "value": "1.3"}, {"groupId": "OG002", "value": "3.8"}, {"groupId": "OG003", "value": "16.7"}]}]}, {"title": "Severe or documented symptomatic hypoglycemia", "categories": [{"measurements": [{"groupId": "OG000", "value": "0.6"}, {"groupId": "OG001", "value": "1.3"}, {"groupId": "OG002", "value": "3.8"}, {"groupId": "OG003", "value": "16.7"}]}]}]}]}, "adverseEventsModule": {"frequencyThreshold": "5", "timeFrame": "First dose of study drug to last dose of study drug (up to 52 weeks) + 2 weeks", "description": "Safety population included all participants who had received at least one dose of study drug.", "eventGroups": [{"id": "EG000", "title": "Placebo", "description": "Following a 2-week run-in period, two Sotagliflozin-matching placebo tablets and two Glimepiride-matching placebo capsules, taken orally once daily before the first meal of the day in the double-blind treatment period up to 52 weeks.", "deathsNumAffected": 2, "deathsNumAtRisk": 159, "seriousNumAffected": 11, "seriousNumAtRisk": 159, "otherNumAffected": 30, "otherNumAtRisk": 159}, {"id": "EG001", "title": "Sotagliflozin 400 mg", "description": "Following a 2-week run-in period, two Sotagliflozin 200 mg, tablets, and two Glimepiride-matching placebo capsules, taken orally once daily before the first meal of the day in the double-blind treatment period up to 52 weeks.", "deathsNumAffected": 1, "deathsNumAtRisk": 317, "seriousNumAffected": 17, "seriousNumAtRisk": 317, "otherNumAffected": 49, "otherNumAtRisk": 317}, {"id": "EG002", "title": "Sotagliflozin 200 mg", "description": "Following a 2-week run-in period, one Sotagliflozin 200 mg, tablet and one Sotagliflozin-matching placebo tablet, and two Glimepiride-matching placebo capsules, taken orally once daily before the first meal of the day in the double-blind treatment period up to 52 weeks.", "deathsNumAffected": 0, "deathsNumAtRisk": 159, "seriousNumAffected": 11, "seriousNumAtRisk": 159, "otherNumAffected": 21, "otherNumAtRisk": 159}, {"id": "EG003", "title": "Glimepiride", "description": "Following a 2-week run-in period, two Sotagliflozin-matching placebo tablets, and combination of two Glimepiride capsules with adequate dose strengths per dose titration (titrated up to 6mg), taken orally once daily before the first meal of the day in the double-blind treatment period up to 52 weeks.", "deathsNumAffected": 2, "deathsNumAtRisk": 317, "seriousNumAffected": 14, "seriousNumAtRisk": 317, "otherNumAffected": 22, "otherNumAtRisk": 317}], "seriousEvents": [{"term": "Acute left ventricular failure", "organSystem": "Cardiac disorders", "sourceVocabulary": "MedDRA 22.0", "assessmentType": "SYSTEMATIC_ASSESSMENT", "stats": [{"groupId": "EG000", "numAffected": 1, "numAtRisk": 159}, {"groupId": "EG001", "numAffected": 1, "numAtRisk": 317}, {"groupId": "EG002", "numAffected": 0, "numAtRisk": 159}, {"groupId": "EG003", "numAffected": 0, "numAtRisk": 317}]}, {"term": "Acute myocardial infarction", "organSystem": "Cardiac disorders", "sourceVocabulary": "MedDRA 22.0", "assessmentType": "SYSTEMATIC_ASSESSMENT", "stats": [{"groupId": "EG000", "numAffected": 0, "numAtRisk": 159}, {"groupId": "EG001", "numAffected": 1, "numAtRisk": 317}, {"groupId": "EG002", "numAffected": 0, "numAtRisk": 159}, {"groupId": "EG003", "numAffected": 1, "numAtRisk": 317}]}, {"term": "Angina pectoris", "organSystem": "Cardiac disorders", "sourceVocabulary": "MedDRA 22.0", "assessmentType": "SYSTEMATIC_ASSESSMENT", "stats": [{"groupId": "EG000", "numAffected": 1, "numAtRisk": 159}, {"groupId": "EG001", "numAffected": 0, "numAtRisk": 317}, {"groupId": "EG002", "numAffected": 0, "numAtRisk": 159}, {"groupId": "EG003", "numAffected": 0, "numAtRisk": 317}]}, {"term": "Angina unstable", "organSystem": "Cardiac disorders", "sourceVocabulary": "MedDRA 22.0", "assessmentType": "SYSTEMATIC_ASSESSMENT", "stats": [{"groupId": "EG000", "numAffected": 1, "numAtRisk": 159}, {"groupId": "EG001", "numAffected": 0, "numAtRisk": 317}, {"groupId": "EG002", "numAffected": 0, "numAtRisk": 159}, {"groupId": "EG003", "numAffected": 0, "numAtRisk": 317}]}, {"term": "Atrial fibrillation", "organSystem": "Cardiac disorders", "sourceVocabulary": "MedDRA 22.0", "assessmentType": "SYSTEMATIC_ASSESSMENT", "stats": [{"groupId": "EG000", "numAffected": 0, "numAtRisk": 159}, {"groupId": "EG001", "numAffected": 0, "numAtRisk": 317}, {"groupId": "EG002", "numAffected": 1, "numAtRisk": 159}, {"groupId": "EG003", "numAffected": 0, "numAtRisk": 317}]}, {"term": "Cardiac failure", "organSystem": "Cardiac disorders", "sourceVocabulary": "MedDRA 22.0", "assessmentType": "SYSTEMATIC_ASSESSMENT", "stats": [{"groupId": "EG000", "numAffected": 0, "numAtRisk": 159}, {"groupId": "EG001", "numAffected": 1, "numAtRisk": 317}, {"groupId": "EG002", "numAffected": 0, "numAtRisk": 159}, {"groupId": "EG003", "numAffected": 0, "numAtRisk": 317}]}, {"term": "Coronary artery disease", "organSystem": "Cardiac disorders", "sourceVocabulary": "MedDRA 22.0", "assessmentType": "SYSTEMATIC_ASSESSMENT", "stats": [{"groupId": "EG000", "numAffected": 0, "numAtRisk": 159}, {"groupId": "EG001", "numAffected": 0, "numAtRisk": 317}, {"groupId": "EG002", "numAffected": 0, "numAtRisk": 159}, {"groupId": "EG003", "numAffected": 1, "numAtRisk": 317}]}, {"term": "Supraventricular tachycardia", "organSystem": "Cardiac disorders", "sourceVocabulary": "MedDRA 22.0", "assessmentType": "SYSTEMATIC_ASSESSMENT", "stats": [{"groupId": "EG000", "numAffected": 1, "numAtRisk": 159}, {"groupId": "EG001", "numAffected": 0, "numAtRisk": 317}, {"groupId": "EG002", "numAffected": 0, "numAtRisk": 159}, {"groupId": "EG003", "numAffected": 0, "numAtRisk": 317}]}, {"term": "Retinal haemorrhage", "organSystem": "Eye disorders", "sourceVocabulary": "MedDRA 22.0", "assessmentType": "SYSTEMATIC_ASSESSMENT", "stats": [{"groupId": "EG000", "numAffected": 0, "numAtRisk": 159}, {"groupId": "EG001", "numAffected": 1, "numAtRisk": 317}, {"groupId": "EG002", "numAffected": 0, "numAtRisk": 159}, {"groupId": "EG003", "numAffected": 0, "numAtRisk": 317}]}, {"term": "Diverticulum intestinal haemorrhagic", "organSystem": "Gastrointestinal disorders", "sourceVocabulary": "MedDRA 22.0", "assessmentType": "SYSTEMATIC_ASSESSMENT", "stats": [{"groupId": "EG000", "numAffected": 0, "numAtRisk": 159}, {"groupId": "EG001", "numAffected": 1, "numAtRisk": 317}, {"groupId": "EG002", "numAffected": 0, "numAtRisk": 159}, {"groupId": "EG003", "numAffected": 0, "numAtRisk": 317}]}, {"term": "Gastrointestinal inflammation", "organSystem": "Gastrointestinal disorders", "sourceVocabulary": "MedDRA 22.0", "assessmentType": "SYSTEMATIC_ASSESSMENT", "stats": [{"groupId": "EG000", "numAffected": 0, "numAtRisk": 159}, {"groupId": "EG001", "numAffected": 0, "numAtRisk": 317}, {"groupId": "EG002", "numAffected": 0, "numAtRisk": 159}, {"groupId": "EG003", "numAffected": 1, "numAtRisk": 317}]}, {"term": "Pancreatitis acute", "organSystem": "Gastrointestinal disorders", "sourceVocabulary": "MedDRA 22.0", "assessmentType": "SYSTEMATIC_ASSESSMENT", "stats": [{"groupId": "EG000", "numAffected": 0, "numAtRisk": 159}, {"groupId": "EG001", "numAffected": 1, "numAtRisk": 317}, {"groupId": "EG002", "numAffected": 0, "numAtRisk": 159}, {"groupId": "EG003", "numAffected": 0, "numAtRisk": 317}]}, {"term": "Small intestinal obstruction", "organSystem": "Gastrointestinal disorders", "sourceVocabulary": "MedDRA 22.0", "assessmentType": "SYSTEMATIC_ASSESSMENT", "stats": [{"groupId": "EG000", "numAffected": 0, "numAtRisk": 159}, {"groupId": "EG001", "numAffected": 1, "numAtRisk": 317}, {"groupId": "EG002", "numAffected": 0, "numAtRisk": 159}, {"groupId": "EG003", "numAffected": 0, "numAtRisk": 317}]}, {"term": "Umbilical hernia", "organSystem": "Gastrointestinal disorders", "sourceVocabulary": "MedDRA 22.0", "assessmentType": "SYSTEMATIC_ASSESSMENT", "stats": [{"groupId": "EG000", "numAffected": 0, "numAtRisk": 159}, {"groupId": "EG001", "numAffected": 0, "numAtRisk": 317}, {"groupId": "EG002", "numAffected": 0, "numAtRisk": 159}, {"groupId": "EG003", "numAffected": 1, "numAtRisk": 317}]}, {"term": "Death", "organSystem": "General disorders", "sourceVocabulary": "MedDRA 22.0", "assessmentType": "SYSTEMATIC_ASSESSMENT", "stats": [{"groupId": "EG000", "numAffected": 1, "numAtRisk": 159}, {"groupId": "EG001", "numAffected": 0, "numAtRisk": 317}, {"groupId": "EG002", "numAffected": 0, "numAtRisk": 159}, {"groupId": "EG003", "numAffected": 0, "numAtRisk": 317}]}, {"term": "Incarcerated hernia", "organSystem": "General disorders", "sourceVocabulary": "MedDRA 22.0", "assessmentType": "SYSTEMATIC_ASSESSMENT", "stats": [{"groupId": "EG000", "numAffected": 0, "numAtRisk": 159}, {"groupId": "EG001", "numAffected": 1, "numAtRisk": 317}, {"groupId": "EG002", "numAffected": 0, "numAtRisk": 159}, {"groupId": "EG003", "numAffected": 0, "numAtRisk": 317}]}, {"term": "Influenza like illness", "organSystem": "General disorders", "sourceVocabulary": "MedDRA 22.0", "assessmentType": "SYSTEMATIC_ASSESSMENT", "stats": [{"groupId": "EG000", "numAffected": 1, "numAtRisk": 159}, {"groupId": "EG001", "numAffected": 0, "numAtRisk": 317}, {"groupId": "EG002", "numAffected": 0, "numAtRisk": 159}, {"groupId": "EG003", "numAffected": 0, "numAtRisk": 317}]}, {"term": "Non-cardiac chest pain", "organSystem": "General disorders", "sourceVocabulary": "MedDRA 22.0", "assessmentType": "SYSTEMATIC_ASSESSMENT", "stats": [{"groupId": "EG000", "numAffected": 2, "numAtRisk": 159}, {"groupId": "EG001", "numAffected": 1, "numAtRisk": 317}, {"groupId": "EG002", "numAffected": 0, "numAtRisk": 159}, {"groupId": "EG003", "numAffected": 0, "numAtRisk": 317}]}, {"term": "Sudden cardiac death", "organSystem": "General disorders", "sourceVocabulary": "MedDRA 22.0", "assessmentType": "SYSTEMATIC_ASSESSMENT", "stats": [{"groupId": "EG000", "numAffected": 0, "numAtRisk": 159}, {"groupId": "EG001", "numAffected": 0, "numAtRisk": 317}, {"groupId": "EG002", "numAffected": 0, "numAtRisk": 159}, {"groupId": "EG003", "numAffected": 1, "numAtRisk": 317}]}, {"term": "Cholecystitis chronic", "organSystem": "Hepatobiliary disorders", "sourceVocabulary": "MedDRA 22.0", "assessmentType": "SYSTEMATIC_ASSESSMENT", "stats": [{"groupId": "EG000", "numAffected": 0, "numAtRisk": 159}, {"groupId": "EG001", "numAffected": 1, "numAtRisk": 317}, {"groupId": "EG002", "numAffected": 0, "numAtRisk": 159}, {"groupId": "EG003", "numAffected": 0, "numAtRisk": 317}]}, {"term": "Cholelithiasis", "organSystem": "Hepatobiliary disorders", "sourceVocabulary": "MedDRA 22.0", "assessmentType": "SYSTEMATIC_ASSESSMENT", "stats": [{"groupId": "EG000", "numAffected": 0, "numAtRisk": 159}, {"groupId": "EG001", "numAffected": 0, "numAtRisk": 317}, {"groupId": "EG002", "numAffected": 1, "numAtRisk": 159}, {"groupId": "EG003", "numAffected": 0, "numAtRisk": 317}]}, {"term": "Cholecystitis infective", "organSystem": "Infections and infestations", "sourceVocabulary": "MedDRA 22.0", "assessmentType": "SYSTEMATIC_ASSESSMENT", "stats": [{"groupId": "EG000", "numAffected": 0, "numAtRisk": 159}, {"groupId": "EG001", "numAffected": 1, "numAtRisk": 317}, {"groupId": "EG002", "numAffected": 0, "numAtRisk": 159}, {"groupId": "EG003", "numAffected": 0, "numAtRisk": 317}]}, {"term": "Epididymitis", "organSystem": "Infections and infestations", "sourceVocabulary": "MedDRA 22.0", "assessmentType": "SYSTEMATIC_ASSESSMENT", "stats": [{"groupId": "EG000", "numAffected": 0, "numAtRisk": 159}, {"groupId": "EG001", "numAffected": 1, "numAtRisk": 317}, {"groupId": "EG002", "numAffected": 0, "numAtRisk": 159}, {"groupId": "EG003", "numAffected": 0, "numAtRisk": 317}]}, {"term": "Erysipelas", "organSystem": "Infections and infestations", "sourceVocabulary": "MedDRA 22.0", "assessmentType": "SYSTEMATIC_ASSESSMENT", "stats": [{"groupId": "EG000", "numAffected": 0, "numAtRisk": 159}, {"groupId": "EG001", "numAffected": 0, "numAtRisk": 317}, {"groupId": "EG002", "numAffected": 1, "numAtRisk": 159}, {"groupId": "EG003", "numAffected": 0, "numAtRisk": 317}]}, {"term": "Gastroenteritis", "organSystem": "Infections and infestations", "sourceVocabulary": "MedDRA 22.0", "assessmentType": "SYSTEMATIC_ASSESSMENT", "stats": [{"groupId": "EG000", "numAffected": 0, "numAtRisk": 159}, {"groupId": "EG001", "numAffected": 1, "numAtRisk": 317}, {"groupId": "EG002", "numAffected": 0, "numAtRisk": 159}, {"groupId": "EG003", "numAffected": 0, "numAtRisk": 317}]}, {"term": "Pneumonia", "organSystem": "Infections and infestations", "sourceVocabulary": "MedDRA 22.0", "assessmentType": "SYSTEMATIC_ASSESSMENT", "stats": [{"groupId": "EG000", "numAffected": 0, "numAtRisk": 159}, {"groupId": "EG001", "numAffected": 0, "numAtRisk": 317}, {"groupId": "EG002", "numAffected": 1, "numAtRisk": 159}, {"groupId": "EG003", "numAffected": 2, "numAtRisk": 317}]}, {"term": "Pneumonia legionella", "organSystem": "Infections and infestations", "sourceVocabulary": "MedDRA 22.0", "assessmentType": "SYSTEMATIC_ASSESSMENT", "stats": [{"groupId": "EG000", "numAffected": 0, "numAtRisk": 159}, {"groupId": "EG001", "numAffected": 0, "numAtRisk": 317}, {"groupId": "EG002", "numAffected": 1, "numAtRisk": 159}, {"groupId": "EG003", "numAffected": 0, "numAtRisk": 317}]}, {"term": "Pyelonephritis chronic", "organSystem": "Infections and infestations", "sourceVocabulary": "MedDRA 22.0", "assessmentType": "SYSTEMATIC_ASSESSMENT", "stats": [{"groupId": "EG000", "numAffected": 0, "numAtRisk": 159}, {"groupId": "EG001", "numAffected": 0, "numAtRisk": 317}, {"groupId": "EG002", "numAffected": 0, "numAtRisk": 159}, {"groupId": "EG003", "numAffected": 1, "numAtRisk": 317}]}, {"term": "Sepsis", "organSystem": "Infections and infestations", "sourceVocabulary": "MedDRA 22.0", "assessmentType": "SYSTEMATIC_ASSESSMENT", "stats": [{"groupId": "EG000", "numAffected": 0, "numAtRisk": 159}, {"groupId": "EG001", "numAffected": 1, "numAtRisk": 317}, {"groupId": "EG002", "numAffected": 1, "numAtRisk": 159}, {"groupId": "EG003", "numAffected": 1, "numAtRisk": 317}]}, {"term": "Urinary tract infection", "organSystem": "Infections and infestations", "sourceVocabulary": "MedDRA 22.0", "assessmentType": "SYSTEMATIC_ASSESSMENT", "stats": [{"groupId": "EG000", "numAffected": 0, "numAtRisk": 159}, {"groupId": "EG001", "numAffected": 1, "numAtRisk": 317}, {"groupId": "EG002", "numAffected": 0, "numAtRisk": 159}, {"groupId": "EG003", "numAffected": 1, "numAtRisk": 317}]}, {"term": "Ankle fracture", "organSystem": "Injury, poisoning and procedural complications", "sourceVocabulary": "MedDRA 22.0", "assessmentType": "SYSTEMATIC_ASSESSMENT", "stats": [{"groupId": "EG000", "numAffected": 0, "numAtRisk": 159}, {"groupId": "EG001", "numAffected": 1, "numAtRisk": 317}, {"groupId": "EG002", "numAffected": 0, "numAtRisk": 159}, {"groupId": "EG003", "numAffected": 0, "numAtRisk": 317}]}, {"term": "Concussion", "organSystem": "Injury, poisoning and procedural complications", "sourceVocabulary": "MedDRA 22.0", "assessmentType": "SYSTEMATIC_ASSESSMENT", "stats": [{"groupId": "EG000", "numAffected": 0, "numAtRisk": 159}, {"groupId": "EG001", "numAffected": 1, "numAtRisk": 317}, {"groupId": "EG002", "numAffected": 0, "numAtRisk": 159}, {"groupId": "EG003", "numAffected": 0, "numAtRisk": 317}]}, {"term": "Fall", "organSystem": "Injury, poisoning and procedural complications", "sourceVocabulary": "MedDRA 22.0", "assessmentType": "SYSTEMATIC_ASSESSMENT", "stats": [{"groupId": "EG000", "numAffected": 0, "numAtRisk": 159}, {"groupId": "EG001", "numAffected": 0, "numAtRisk": 317}, {"groupId": "EG002", "numAffected": 0, "numAtRisk": 159}, {"groupId": "EG003", "numAffected": 1, "numAtRisk": 317}]}, {"term": "Femur fracture", "organSystem": "Injury, poisoning and procedural complications", "sourceVocabulary": "MedDRA 22.0", "assessmentType": "SYSTEMATIC_ASSESSMENT", "stats": [{"groupId": "EG000", "numAffected": 0, "numAtRisk": 159}, {"groupId": "EG001", "numAffected": 0, "numAtRisk": 317}, {"groupId": "EG002", "numAffected": 0, "numAtRisk": 159}, {"groupId": "EG003", "numAffected": 1, "numAtRisk": 317}]}, {"term": "Fibula fracture", "organSystem": "Injury, poisoning and procedural complications", "sourceVocabulary": "MedDRA 22.0", "assessmentType": "SYSTEMATIC_ASSESSMENT", "stats": [{"groupId": "EG000", "numAffected": 0, "numAtRisk": 159}, {"groupId": "EG001", "numAffected": 0, "numAtRisk": 317}, {"groupId": "EG002", "numAffected": 1, "numAtRisk": 159}, {"groupId": "EG003", "numAffected": 0, "numAtRisk": 317}]}, {"term": "Hand fracture", "organSystem": "Injury, poisoning and procedural complications", "sourceVocabulary": "MedDRA 22.0", "assessmentType": "SYSTEMATIC_ASSESSMENT", "stats": [{"groupId": "EG000", "numAffected": 0, "numAtRisk": 159}, {"groupId": "EG001", "numAffected": 0, "numAtRisk": 317}, {"groupId": "EG002", "numAffected": 1, "numAtRisk": 159}, {"groupId": "EG003", "numAffected": 0, "numAtRisk": 317}]}, {"term": "Intentional overdose", "organSystem": "Injury, poisoning and procedural complications", "sourceVocabulary": "MedDRA 22.0", "assessmentType": "SYSTEMATIC_ASSESSMENT", "stats": [{"groupId": "EG000", "numAffected": 0, "numAtRisk": 159}, {"groupId": "EG001", "numAffected": 0, "numAtRisk": 317}, {"groupId": "EG002", "numAffected": 1, "numAtRisk": 159}, {"groupId": "EG003", "numAffected": 0, "numAtRisk": 317}]}, {"term": "Joint dislocation", "organSystem": "Injury, poisoning and procedural complications", "sourceVocabulary": "MedDRA 22.0", "assessmentType": "SYSTEMATIC_ASSESSMENT", "stats": [{"groupId": "EG000", "numAffected": 0, "numAtRisk": 159}, {"groupId": "EG001", "numAffected": 1, "numAtRisk": 317}, {"groupId": "EG002", "numAffected": 0, "numAtRisk": 159}, {"groupId": "EG003", "numAffected": 0, "numAtRisk": 317}]}, {"term": "Road traffic accident", "organSystem": "Injury, poisoning and procedural complications", "sourceVocabulary": "MedDRA 22.0", "assessmentType": "SYSTEMATIC_ASSESSMENT", "stats": [{"groupId": "EG000", "numAffected": 0, "numAtRisk": 159}, {"groupId": "EG001", "numAffected": 1, "numAtRisk": 317}, {"groupId": "EG002", "numAffected": 1, "numAtRisk": 159}, {"groupId": "EG003", "numAffected": 1, "numAtRisk": 317}]}, {"term": "Tibia fracture", "organSystem": "Injury, poisoning and procedural complications", "sourceVocabulary": "MedDRA 22.0", "assessmentType": "SYSTEMATIC_ASSESSMENT", "stats": [{"groupId": "EG000", "numAffected": 0, "numAtRisk": 159}, {"groupId": "EG001", "numAffected": 0, "numAtRisk": 317}, {"groupId": "EG002", "numAffected": 1, "numAtRisk": 159}, {"groupId": "EG003", "numAffected": 0, "numAtRisk": 317}]}, {"term": "Vascular graft stenosis", "organSystem": "Injury, poisoning and procedural complications", "sourceVocabulary": "MedDRA 22.0", "assessmentType": "SYSTEMATIC_ASSESSMENT", "stats": [{"groupId": "EG000", "numAffected": 0, "numAtRisk": 159}, {"groupId": "EG001", "numAffected": 1, "numAtRisk": 317}, {"groupId": "EG002", "numAffected": 0, "numAtRisk": 159}, {"groupId": "EG003", "numAffected": 0, "numAtRisk": 317}]}, {"term": "Dehydration", "organSystem": "Metabolism and nutrition disorders", "sourceVocabulary": "MedDRA 22.0", "assessmentType": "SYSTEMATIC_ASSESSMENT", "stats": [{"groupId": "EG000", "numAffected": 0, "numAtRisk": 159}, {"groupId": "EG001", "numAffected": 0, "numAtRisk": 317}, {"groupId": "EG002", "numAffected": 0, "numAtRisk": 159}, {"groupId": "EG003", "numAffected": 1, "numAtRisk": 317}]}, {"term": "Gout", "organSystem": "Metabolism and nutrition disorders", "sourceVocabulary": "MedDRA 22.0", "assessmentType": "SYSTEMATIC_ASSESSMENT", "stats": [{"groupId": "EG000", "numAffected": 0, "numAtRisk": 159}, {"groupId": "EG001", "numAffected": 0, "numAtRisk": 317}, {"groupId": "EG002", "numAffected": 0, "numAtRisk": 159}, {"groupId": "EG003", "numAffected": 1, "numAtRisk": 317}]}, {"term": "Cervical spinal stenosis", "organSystem": "Musculoskeletal and connective tissue disorders", "sourceVocabulary": "MedDRA 22.0", "assessmentType": "SYSTEMATIC_ASSESSMENT", "stats": [{"groupId": "EG000", "numAffected": 0, "numAtRisk": 159}, {"groupId": "EG001", "numAffected": 0, "numAtRisk": 317}, {"groupId": "EG002", "numAffected": 0, "numAtRisk": 159}, {"groupId": "EG003", "numAffected": 1, "numAtRisk": 317}]}, {"term": "Intervertebral disc protrusion", "organSystem": "Musculoskeletal and connective tissue disorders", "sourceVocabulary": "MedDRA 22.0", "assessmentType": "SYSTEMATIC_ASSESSMENT", "stats": [{"groupId": "EG000", "numAffected": 0, "numAtRisk": 159}, {"groupId": "EG001", "numAffected": 1, "numAtRisk": 317}, {"groupId": "EG002", "numAffected": 0, "numAtRisk": 159}, {"groupId": "EG003", "numAffected": 1, "numAtRisk": 317}]}, {"term": "Musculoskeletal chest pain", "organSystem": "Musculoskeletal and connective tissue disorders", "sourceVocabulary": "MedDRA 22.0", "assessmentType": "SYSTEMATIC_ASSESSMENT", "stats": [{"groupId": "EG000", "numAffected": 0, "numAtRisk": 159}, {"groupId": "EG001", "numAffected": 0, "numAtRisk": 317}, {"groupId": "EG002", "numAffected": 1, "numAtRisk": 159}, {"groupId": "EG003", "numAffected": 0, "numAtRisk": 317}]}, {"term": "Osteoarthritis", "organSystem": "Musculoskeletal and connective tissue disorders", "sourceVocabulary": "MedDRA 22.0", "assessmentType": "SYSTEMATIC_ASSESSMENT", "stats": [{"groupId": "EG000", "numAffected": 0, "numAtRisk": 159}, {"groupId": "EG001", "numAffected": 0, "numAtRisk": 317}, {"groupId": "EG002", "numAffected": 0, "numAtRisk": 159}, {"groupId": "EG003", "numAffected": 1, "numAtRisk": 317}]}, {"term": "Vertebral osteophyte", "organSystem": "Musculoskeletal and connective tissue disorders", "sourceVocabulary": "MedDRA 22.0", "assessmentType": "SYSTEMATIC_ASSESSMENT", "stats": [{"groupId": "EG000", "numAffected": 0, "numAtRisk": 159}, {"groupId": "EG001", "numAffected": 0, "numAtRisk": 317}, {"groupId": "EG002", "numAffected": 0, "numAtRisk": 159}, {"groupId": "EG003", "numAffected": 1, "numAtRisk": 317}]}, {"term": "B-cell lymphoma", "organSystem": "Neoplasms benign, malignant and unspecified (incl cysts and polyps)", "sourceVocabulary": "MedDRA 22.0", "assessmentType": "SYSTEMATIC_ASSESSMENT", "stats": [{"groupId": "EG000", "numAffected": 0, "numAtRisk": 159}, {"groupId": "EG001", "numAffected": 0, "numAtRisk": 317}, {"groupId": "EG002", "numAffected": 1, "numAtRisk": 159}, {"groupId": "EG003", "numAffected": 0, "numAtRisk": 317}]}, {"term": "Basal cell carcinoma", "organSystem": "Neoplasms benign, malignant and unspecified (incl cysts and polyps)", "sourceVocabulary": "MedDRA 22.0", "assessmentType": "SYSTEMATIC_ASSESSMENT", "stats": [{"groupId": "EG000", "numAffected": 1, "numAtRisk": 159}, {"groupId": "EG001", "numAffected": 0, "numAtRisk": 317}, {"groupId": "EG002", "numAffected": 0, "numAtRisk": 159}, {"groupId": "EG003", "numAffected": 0, "numAtRisk": 317}]}, {"term": "Bladder transitional cell carcinoma", "organSystem": "Neoplasms benign, malignant and unspecified (incl cysts and polyps)", "sourceVocabulary": "MedDRA 22.0", "assessmentType": "SYSTEMATIC_ASSESSMENT", "stats": [{"groupId": "EG000", "numAffected": 0, "numAtRisk": 159}, {"groupId": "EG001", "numAffected": 1, "numAtRisk": 317}, {"groupId": "EG002", "numAffected": 0, "numAtRisk": 159}, {"groupId": "EG003", "numAffected": 0, "numAtRisk": 317}]}, {"term": "Breast cancer", "organSystem": "Neoplasms benign, malignant and unspecified (incl cysts and polyps)", "sourceVocabulary": "MedDRA 22.0", "assessmentType": "SYSTEMATIC_ASSESSMENT", "stats": [{"groupId": "EG000", "numAffected": 1, "numAtRisk": 159}, {"groupId": "EG001", "numAffected": 1, "numAtRisk": 317}, {"groupId": "EG002", "numAffected": 0, "numAtRisk": 159}, {"groupId": "EG003", "numAffected": 0, "numAtRisk": 317}]}, {"term": "Oesophageal adenocarcinoma", "organSystem": "Neoplasms benign, malignant and unspecified (incl cysts and polyps)", "sourceVocabulary": "MedDRA 22.0", "assessmentType": "SYSTEMATIC_ASSESSMENT", "stats": [{"groupId": "EG000", "numAffected": 1, "numAtRisk": 159}, {"groupId": "EG001", "numAffected": 0, "numAtRisk": 317}, {"groupId": "EG002", "numAffected": 0, "numAtRisk": 159}, {"groupId": "EG003", "numAffected": 0, "numAtRisk": 317}]}, {"term": "Prostate cancer", "organSystem": "Neoplasms benign, malignant and unspecified (incl cysts and polyps)", "sourceVocabulary": "MedDRA 22.0", "assessmentType": "SYSTEMATIC_ASSESSMENT", "stats": [{"groupId": "EG000", "numAffected": 0, "numAtRisk": 159}, {"groupId": "EG001", "numAffected": 0, "numAtRisk": 317}, {"groupId": "EG002", "numAffected": 0, "numAtRisk": 159}, {"groupId": "EG003", "numAffected": 1, "numAtRisk": 317}]}, {"term": "Squamous cell carcinoma", "organSystem": "Neoplasms benign, malignant and unspecified (incl cysts and polyps)", "sourceVocabulary": "MedDRA 22.0", "assessmentType": "SYSTEMATIC_ASSESSMENT", "stats": [{"groupId": "EG000", "numAffected": 1, "numAtRisk": 159}, {"groupId": "EG001", "numAffected": 0, "numAtRisk": 317}, {"groupId": "EG002", "numAffected": 0, "numAtRisk": 159}, {"groupId": "EG003", "numAffected": 0, "numAtRisk": 317}]}, {"term": "Cerebellar stroke", "organSystem": "Nervous system disorders", "sourceVocabulary": "MedDRA 22.0", "assessmentType": "SYSTEMATIC_ASSESSMENT", "stats": [{"groupId": "EG000", "numAffected": 1, "numAtRisk": 159}, {"groupId": "EG001", "numAffected": 0, "numAtRisk": 317}, {"groupId": "EG002", "numAffected": 0, "numAtRisk": 159}, {"groupId": "EG003", "numAffected": 0, "numAtRisk": 317}]}, {"term": "Hemiparesis", "organSystem": "Nervous system disorders", "sourceVocabulary": "MedDRA 22.0", "assessmentType": "SYSTEMATIC_ASSESSMENT", "stats": [{"groupId": "EG000", "numAffected": 0, "numAtRisk": 159}, {"groupId": "EG001", "numAffected": 0, "numAtRisk": 317}, {"groupId": "EG002", "numAffected": 1, "numAtRisk": 159}, {"groupId": "EG003", "numAffected": 0, "numAtRisk": 317}]}, {"term": "Syncope", "organSystem": "Nervous system disorders", "sourceVocabulary": "MedDRA 22.0", "assessmentType": "SYSTEMATIC_ASSESSMENT", "stats": [{"groupId": "EG000", "numAffected": 0, "numAtRisk": 159}, {"groupId": "EG001", "numAffected": 0, "numAtRisk": 317}, {"groupId": "EG002", "numAffected": 1, "numAtRisk": 159}, {"groupId": "EG003", "numAffected": 0, "numAtRisk": 317}]}, {"term": "Transient ischaemic attack", "organSystem": "Nervous system disorders", "sourceVocabulary": "MedDRA 22.0", "assessmentType": "SYSTEMATIC_ASSESSMENT", "stats": [{"groupId": "EG000", "numAffected": 1, "numAtRisk": 159}, {"groupId": "EG001", "numAffected": 0, "numAtRisk": 317}, {"groupId": "EG002", "numAffected": 0, "numAtRisk": 159}, {"groupId": "EG003", "numAffected": 0, "numAtRisk": 317}]}, {"term": "Alcohol withdrawal syndrome", "organSystem": "Psychiatric disorders", "sourceVocabulary": "MedDRA 22.0", "assessmentType": "SYSTEMATIC_ASSESSMENT", "stats": [{"groupId": "EG000", "numAffected": 0, "numAtRisk": 159}, {"groupId": "EG001", "numAffected": 1, "numAtRisk": 317}, {"groupId": "EG002", "numAffected": 0, "numAtRisk": 159}, {"groupId": "EG003", "numAffected": 0, "numAtRisk": 317}]}, {"term": "Depression", "organSystem": "Psychiatric disorders", "sourceVocabulary": "MedDRA 22.0", "assessmentType": "SYSTEMATIC_ASSESSMENT", "stats": [{"groupId": "EG000", "numAffected": 0, "numAtRisk": 159}, {"groupId": "EG001", "numAffected": 0, "numAtRisk": 317}, {"groupId": "EG002", "numAffected": 1, "numAtRisk": 159}, {"groupId": "EG003", "numAffected": 0, "numAtRisk": 317}]}, {"term": "Suicide attempt", "organSystem": "Psychiatric disorders", "sourceVocabulary": "MedDRA 22.0", "assessmentType": "SYSTEMATIC_ASSESSMENT", "stats": [{"groupId": "EG000", "numAffected": 0, "numAtRisk": 159}, {"groupId": "EG001", "numAffected": 0, "numAtRisk": 317}, {"groupId": "EG002", "numAffected": 1, "numAtRisk": 159}, {"groupId": "EG003", "numAffected": 0, "numAtRisk": 317}]}, {"term": "Adnexa uteri mass", "organSystem": "Reproductive system and breast disorders", "sourceVocabulary": "MedDRA 22.0", "assessmentType": "SYSTEMATIC_ASSESSMENT", "stats": [{"groupId": "EG000", "numAffected": 0, "numAtRisk": 159}, {"groupId": "EG001", "numAffected": 1, "numAtRisk": 317}, {"groupId": "EG002", "numAffected": 0, "numAtRisk": 159}, {"groupId": "EG003", "numAffected": 0, "numAtRisk": 317}]}, {"term": "Metrorrhagia", "organSystem": "Reproductive system and breast disorders", "sourceVocabulary": "MedDRA 22.0", "assessmentType": "SYSTEMATIC_ASSESSMENT", "stats": [{"groupId": "EG000", "numAffected": 0, "numAtRisk": 159}, {"groupId": "EG001", "numAffected": 0, "numAtRisk": 317}, {"groupId": "EG002", "numAffected": 0, "numAtRisk": 159}, {"groupId": "EG003", "numAffected": 1, "numAtRisk": 317}]}, {"term": "Asthma", "organSystem": "Respiratory, thoracic and mediastinal disorders", "sourceVocabulary": "MedDRA 22.0", "assessmentType": "SYSTEMATIC_ASSESSMENT", "stats": [{"groupId": "EG000", "numAffected": 1, "numAtRisk": 159}, {"groupId": "EG001", "numAffected": 0, "numAtRisk": 317}, {"groupId": "EG002", "numAffected": 0, "numAtRisk": 159}, {"groupId": "EG003", "numAffected": 0, "numAtRisk": 317}]}, {"term": "Hypertension", "organSystem": "Vascular disorders", "sourceVocabulary": "MedDRA 22.0", "assessmentType": "SYSTEMATIC_ASSESSMENT", "stats": [{"groupId": "EG000", "numAffected": 0, "numAtRisk": 159}, {"groupId": "EG001", "numAffected": 0, "numAtRisk": 317}, {"groupId": "EG002", "numAffected": 1, "numAtRisk": 159}, {"groupId": "EG003", "numAffected": 0, "numAtRisk": 317}]}, {"term": "Hypertensive crisis", "organSystem": "Vascular disorders", "sourceVocabulary": "MedDRA 22.0", "assessmentType": "SYSTEMATIC_ASSESSMENT", "stats": [{"groupId": "EG000", "numAffected": 1, "numAtRisk": 159}, {"groupId": "EG001", "numAffected": 0, "numAtRisk": 317}, {"groupId": "EG002", "numAffected": 0, "numAtRisk": 159}, {"groupId": "EG003", "numAffected": 0, "numAtRisk": 317}]}, {"term": "Vasculitis", "organSystem": "Vascular disorders", "sourceVocabulary": "MedDRA 22.0", "assessmentType": "SYSTEMATIC_ASSESSMENT", "stats": [{"groupId": "EG000", "numAffected": 0, "numAtRisk": 159}, {"groupId": "EG001", "numAffected": 0, "numAtRisk": 317}, {"groupId": "EG002", "numAffected": 1, "numAtRisk": 159}, {"groupId": "EG003", "numAffected": 0, "numAtRisk": 317}]}], "otherEvents": [{"term": "Diarrhoea", "organSystem": "Gastrointestinal disorders", "sourceVocabulary": "MedDRA 22.0", "assessmentType": "SYSTEMATIC_ASSESSMENT", "stats": [{"groupId": "EG000", "numAffected": 11, "numAtRisk": 159}, {"groupId": "EG001", "numAffected": 14, "numAtRisk": 317}, {"groupId": "EG002", "numAffected": 8, "numAtRisk": 159}, {"groupId": "EG003", "numAffected": 7, "numAtRisk": 317}]}, {"term": "Vulvovaginal mycotic infection", "organSystem": "Infections and infestations", "sourceVocabulary": "MedDRA 22.0", "assessmentType": "SYSTEMATIC_ASSESSMENT", "stats": [{"groupId": "EG000", "numAffected": 2, "numAtRisk": 159}, {"groupId": "EG001", "numAffected": 19, "numAtRisk": 317}, {"groupId": "EG002", "numAffected": 6, "numAtRisk": 159}, {"groupId": "EG003", "numAffected": 2, "numAtRisk": 317}]}, {"term": "Hyperglycaemia", "organSystem": "Metabolism and nutrition disorders", "sourceVocabulary": "MedDRA 22.0", "assessmentType": "SYSTEMATIC_ASSESSMENT", "stats": [{"groupId": "EG000", "numAffected": 8, "numAtRisk": 159}, {"groupId": "EG001", "numAffected": 5, "numAtRisk": 317}, {"groupId": "EG002", "numAffected": 2, "numAtRisk": 159}, {"groupId": "EG003", "numAffected": 2, "numAtRisk": 317}]}, {"term": "Headache", "organSystem": "Nervous system disorders", "sourceVocabulary": "MedDRA 22.0", "assessmentType": "SYSTEMATIC_ASSESSMENT", "stats": [{"groupId": "EG000", "numAffected": 11, "numAtRisk": 159}, {"groupId": "EG001", "numAffected": 14, "numAtRisk": 317}, {"groupId": "EG002", "numAffected": 7, "numAtRisk": 159}, {"groupId": "EG003", "numAffected": 12, "numAtRisk": 317}]}]}, "moreInfoModule": {"certainAgreement": {"piSponsorEmployee": false, "restrictionType": "OTHER", "restrictiveAgreement": true, "otherDetails": "Institution must provide any proposed publication or presentation to Sponsor for Sponsor's review, comment and approval at least thirty (30) days prior to the proposed submission for publication date or the proposed presentation date. Sponsor shall have the right to have deleted from the final version of the publication any confidential information, proprietary information, or patentable subject matter."}, "pointOfContact": {"title": "Medical Affairs", "organization": "Lexicon Pharmaceuticals, Inc.", "email": "medical-information@lexpharma.com", "phone": "510-338-6064"}}}, "documentSection": {"largeDocumentModule": {"largeDocs": [{"typeAbbrev": "Prot", "hasProtocol": true, "hasSap": false, "hasIcf": false, "label": "Study Protocol", "date": "2018-04-11", "uploadDate": "2021-04-12T09:17", "filename": "Prot_000.pdf", "size": 3662256}, {"typeAbbrev": "SAP", "hasProtocol": false, "hasSap": true, "hasIcf": false, "label": "Statistical Analysis Plan", "date": "2020-04-15", "uploadDate": "2021-04-12T09:18", "filename": "SAP_001.pdf", "size": 1242180}]}}, "derivedSection": {"miscInfoModule": {"versionHolder": "2024-06-24"}, "conditionBrowseModule": {"meshes": [{"id": "D000003920", "term": "Diabetes Mellitus"}, {"id": "D000003924", "term": "Diabetes Mellitus, Type 2"}], "ancestors": [{"id": "D000044882", "term": "Glucose Metabolism Disorders"}, {"id": "D000008659", "term": "Metabolic Diseases"}, {"id": "D000004700", "term": "Endocrine System Diseases"}], "browseLeaves": [{"id": "M7115", "name": "Diabetes Mellitus", "asFound": "Diabetes Mellitus", "relevance": "HIGH"}, {"id": "M7119", "name": "Diabetes Mellitus, Type 2", "asFound": "Type 2 Diabetes Mellitus", "relevance": "HIGH"}, {"id": "M11639", "name": "Metabolic Diseases", "relevance": "LOW"}, {"id": "M25403", "name": "Glucose Metabolism Disorders", "relevance": "LOW"}, {"id": "M7862", "name": "Endocrine System Diseases", "relevance": "LOW"}], "browseBranches": [{"abbrev": "BC18", "name": "Nutritional and Metabolic Diseases"}, {"abbrev": "BC19", "name": "Gland and Hormone Related Diseases"}, {"abbrev": "All", "name": "All Conditions"}]}, "interventionBrowseModule": {"meshes": [{"id": "D000008687", "term": "Metformin"}, {"id": "C000057619", "term": "Glimepiride"}, {"id": "C000575681", "term": "(2S,3R,4R,5S,6R)-2-(4-chloro-3-(4-ethoxybenzyl)phenyl)-6-(methylthio)tetrahydro-2H-pyran-3,4,5-triol"}], "ancestors": [{"id": "D000007004", "term": "Hypoglycemic Agents"}, {"id": "D000045505", "term": "Physiological Effects of Drugs"}, {"id": "D000000889", "term": "Anti-Arrhythmia Agents"}, {"id": "D000007166", "term": "Immunosuppressive Agents"}, {"id": "D000007155", "term": "Immunologic Factors"}, {"id": "D000077203", "term": "Sodium-Glucose Transporter 2 Inhibitors"}, {"id": "D000045504", "term": "Molecular Mechanisms of Pharmacological Action"}], "browseLeaves": [{"id": "M11667", "name": "Metformin", "asFound": "Assessment", "relevance": "HIGH"}, {"id": "M252104", "name": "Glimepiride", "asFound": "Bioequivalence", "relevance": "HIGH"}, {"id": "M254783", "name": "(2S,3R,4R,5S,6R)-2-(4-chloro-3-(4-ethoxybenzyl)phenyl)-6-(methylthio)tetrahydro-2H-pyran-3,4,5-triol", "asFound": "BAY 43-9006", "relevance": "HIGH"}, {"id": "M10054", "name": "Hypoglycemic Agents", "relevance": "LOW"}, {"id": "M4213", "name": "Anti-Arrhythmia Agents", "relevance": "LOW"}, {"id": "M10212", "name": "Immunosuppressive Agents", "relevance": "LOW"}, {"id": "M10201", "name": "Immunologic Factors", "relevance": "LOW"}, {"id": "M1691", "name": "Sodium-Glucose Transporter 2 Inhibitors", "relevance": "LOW"}], "browseBranches": [{"abbrev": "Hypo", "name": "Hypoglycemic Agents"}, {"abbrev": "All", "name": "All Drugs and Chemicals"}, {"abbrev": "AnArAg", "name": "Anti-Arrhythmia Agents"}]}}, "hasResults": true}