{"protocolSection": {"identificationModule": {"nctId": "NCT02695420", "orgStudyIdInfo": {"id": "20120227"}, "organization": {"fullName": "Cytokinetics", "class": "INDUSTRY"}, "briefTitle": "Safety, PK, and Efficacy of Omecamtiv Mecarbil in Japanese Subjects With Heart Failure With Reduced Ejection Fraction", "officialTitle": "A Double-blind, Randomized, Placebo-controlled, Multicenter Study to Evaluate the Safety, Pharmacokinetics, and Efficacy of Omecamtiv Mecarbil in Japanese Subjects With Heart Failure With Reduced Ejection Fraction"}, "statusModule": {"statusVerifiedDate": "2021-07", "overallStatus": "COMPLETED", "expandedAccessInfo": {"hasExpandedAccess": false}, "startDateStruct": {"date": "2016-04-14", "type": "ACTUAL"}, "primaryCompletionDateStruct": {"date": "2017-04-06", "type": "ACTUAL"}, "completionDateStruct": {"date": "2017-05-08", "type": "ACTUAL"}, "studyFirstSubmitDate": "2016-02-25", "studyFirstSubmitQcDate": "2016-02-25", "studyFirstPostDateStruct": {"date": "2016-03-01", "type": "ESTIMATED"}, "resultsFirstSubmitDate": "2020-01-23", "resultsFirstSubmitQcDate": "2020-01-23", "resultsFirstPostDateStruct": {"date": "2020-01-31", "type": "ACTUAL"}, "dispFirstSubmitDate": "2018-02-05", "dispFirstSubmitQcDate": "2018-02-05", "dispFirstPostDateStruct": {"date": "2018-02-09", "type": "ACTUAL"}, "lastUpdateSubmitDate": "2021-07-25", "lastUpdatePostDateStruct": {"date": "2021-07-27", "type": "ACTUAL"}}, "sponsorCollaboratorsModule": {"responsibleParty": {"type": "SPONSOR"}, "leadSponsor": {"name": "Cytokinetics", "class": "INDUSTRY"}}, "oversightModule": {"oversightHasDmc": true}, "descriptionModule": {"briefSummary": "* To evaluate pharmacokinetics (PK) of omecamtiv mecarbil in Japanese subjects with heart failure (HF) with reduced ejection fraction\n* To evaluate the safety and tolerability of oral omecamtiv mecarbil", "detailedDescription": "This study was conducted by Amgen as the IND holder, with Cytokinetics as a collaborator. Due to the termination of the collaboration agreement between Amgen and Cytokinetics in May 2021 and subsequent transfer of the omecamtiv mecarbil IND from Amgen to Cytokinetics, Cytokinetics is now listed as the sponsor."}, "conditionsModule": {"conditions": ["Heart Failure With Reduced Ejection Fraction"], "keywords": ["Heart Failure"]}, "designModule": {"studyType": "INTERVENTIONAL", "phases": ["PHASE2"], "designInfo": {"allocation": "RANDOMIZED", "interventionModel": "PARALLEL", "primaryPurpose": "TREATMENT", "maskingInfo": {"masking": "QUADRUPLE", "whoMasked": ["PARTICIPANT", "CARE_PROVIDER", "INVESTIGATOR", "OUTCOMES_ASSESSOR"]}}, "enrollmentInfo": {"count": 81, "type": "ACTUAL"}}, "armsInterventionsModule": {"armGroups": [{"label": "Placebo BID", "type": "PLACEBO_COMPARATOR", "description": "Participants will receive placebo BID.", "interventionNames": ["Drug: 25 mg Omecamtiv Mecarbil"]}, {"label": "25 mg Omecamtiv Mecarbil BID", "type": "EXPERIMENTAL", "description": "Participants will receive 25 mg omecamtiv mecarbil BID.", "interventionNames": ["Drug: Placebo"]}, {"label": "37.5 mg Omecamtiv Mecarbil BID Target Dose", "type": "EXPERIMENTAL", "description": "Participants will receive omecamtiv mecarbil 25 mg BID up to Week 4 or Week 8 and 25 mg or 37.5 mg BID after Week 4 or Week 8, based on Week 2 PK.", "interventionNames": ["Drug: 25 mg Omecamtiv Mecarbil", "Drug: 37.5 mg Omecamtiv Mecarbil"]}, {"label": "50 mg Omecamtiv Mecarbil BID Target Dose", "type": "EXPERIMENTAL", "description": "Participants will receive Omecamtiv Mecarbil 25 mg BID up to Week 4 or Week 8 and 25 mg or 50 mg BID after Week 4 or Week 8, based on Week 2 PK.", "interventionNames": ["Drug: 25 mg Omecamtiv Mecarbil", "Drug: 50 mg Omecamtiv Mecarbil"]}], "interventions": [{"type": "DRUG", "name": "25 mg Omecamtiv Mecarbil", "description": "oral tablet", "armGroupLabels": ["37.5 mg Omecamtiv Mecarbil BID Target Dose", "50 mg Omecamtiv Mecarbil BID Target Dose", "Placebo BID"]}, {"type": "DRUG", "name": "Placebo", "description": "oral tablet", "armGroupLabels": ["25 mg Omecamtiv Mecarbil BID"]}, {"type": "DRUG", "name": "37.5 mg Omecamtiv Mecarbil", "description": "oral tablet", "armGroupLabels": ["37.5 mg Omecamtiv Mecarbil BID Target Dose"]}, {"type": "DRUG", "name": "50 mg Omecamtiv Mecarbil", "description": "oral tablet", "armGroupLabels": ["50 mg Omecamtiv Mecarbil BID Target Dose"]}]}, "outcomesModule": {"primaryOutcomes": [{"measure": "Pharmacokinetics (PK): Concentration Before Morning Dose (Cpredose) Over Time", "timeFrame": "Before morning dose on Week 2 (Day 15), Week 4 (Day 28), Week 12 (Day 84), Week 16 (Day 112)"}, {"measure": "PK: Area Under the Curve Until 8 Hours After Morning Dose at Week 8 (AUC0-8)", "timeFrame": "Week 8 (Day 56) at predose, at 2 hours \u00b130 minutes; 4 hours \u00b130 minutes; 6 hours \u00b130 minutes; 8 hours \u00b130 minutes after morning dose"}], "secondaryOutcomes": [{"measure": "Change From Baseline at Week 16 in Systolic Ejection Time (SET)", "description": "LS mean was from the repeated measures model, which included treatment group, stratification factor (from IVRS), scheduled visit, baseline value, and the interaction of treatment group with scheduled visit as covariates.", "timeFrame": "Baseline, Week 16 (Day 112)"}], "otherOutcomes": [{"measure": "Number of Participants With Treatment-Emergent Adverse Events (TEAEs)", "description": "An adverse event (AE) is defined as any untoward medical occurrence. Serious AEs are defined as AEs that meets at least 1 of the following serious criteria: fatal, life threatening, requires in-patient hospitalization or prolongation of existing hospitalization, results in persistent or significant disability/incapacity, congenital anomaly/birth defect, other medically important serious event. AEs are graded as: 1=mild, 2=moderate, 3=severe, 4=life-threatening, 5=death. TEAEs are defined as events occurring after the first dose of study drug.", "timeFrame": "From first dose of study drug up to Week 20 (Day 140 + 3 days)"}]}, "eligibilityModule": {"eligibilityCriteria": "Inclusion Criteria:\n\n* Japanese male or female \u2265 20 years and \u2264 85 years of age\n* History of chronic stable heart failure (HF) with reduced ejection fraction, defined as requiring treatment for HF for a minimum of 4 weeks prior to screening\n* Treated for HF with optimal pharmacological therapy\n* Left ventricular ejection fraction \u2264 40% at screening\n\nExclusion Criteria:\n\n* Severe uncorrected valvular heart disease\n* Hypertrophic obstructive cardiomyopathy, active myocarditis, constrictive pericarditis, or clinically significant congenital heart disease\n* Acute myocardial infarction, unstable angina, or persistent angina at rest within 30 days prior to randomization\n* Systolic blood pressure (BP) \\> 160 mmHg or \\< 90 mmHg, or diastolic BP \\> 90 mmHg, or heart rate (HR) \\> 110 beats per minute (bpm) or HR \\< 50 bpm\n* Estimated glomerular filtration rate (eGFR) \\< 30 mL/min/1.73 m\\^2\n* Total bilirubin (TBL) \u2265 2x upper limit of normal (ULN), or alanine aminotransferase (ALT) or aspartate aminotransferase (AST) \u2265 3x ULN Other Exclusion Criteria may apply.", "healthyVolunteers": false, "sex": "ALL", "minimumAge": "20 Years", "maximumAge": "85 Years", "stdAges": ["ADULT", "OLDER_ADULT"]}, "contactsLocationsModule": {"overallOfficials": [{"name": "MD", "affiliation": "Amgen", "role": "STUDY_DIRECTOR"}], "locations": [{"facility": "Research Site", "city": "Kasugai-shi", "state": "Aichi", "zip": "486-8510", "country": "Japan", "geoPoint": {"lat": 35.24762, "lon": 136.97229}}, {"facility": "Research Site", "city": "Kasugai-shi", "state": "Aichi", "zip": "487-0016", "country": "Japan", "geoPoint": {"lat": 35.24762, "lon": 136.97229}}, {"facility": "Research Site", "city": "Nagoya-shi", "state": "Aichi", "zip": "454-8509", "country": "Japan", "geoPoint": {"lat": 35.18147, "lon": 136.90641}}, {"facility": "Research Site", "city": "Asahi-shi", "state": "Chiba", "zip": "289-2511", "country": "Japan", "geoPoint": {"lat": 35.71667, "lon": 140.65}}, {"facility": "Research Site", "city": "Chiba-shi", "state": "Chiba", "zip": "260-8606", "country": "Japan", "geoPoint": {"lat": 35.6, "lon": 140.11667}}, {"facility": "Research Site", "city": "Imabari-shi", "state": "Ehime", "zip": "799-1592", "country": "Japan", "geoPoint": {"lat": 34.05455, "lon": 133.01316}}, {"facility": "Research Site", "city": "Chikushino-shi", "state": "Fukuoka", "zip": "818-8516", "country": "Japan", "geoPoint": {"lat": 33.49631, "lon": 130.5156}}, {"facility": "Research Site", "city": "Fukuoka-shi", "state": "Fukuoka", "zip": "814-0180", "country": "Japan", "geoPoint": {"lat": 33.6, "lon": 130.41667}}, {"facility": "Research Site", "city": "Fukuoka-shi", "state": "Fukuoka", "zip": "815-8588", "country": "Japan", "geoPoint": {"lat": 33.6, "lon": 130.41667}}, {"facility": "Research Site", "city": "Hakodate-shi", "state": "Hokkaido", "zip": "041-8512", "country": "Japan", "geoPoint": {"lat": 41.77583, "lon": 140.73667}}, {"facility": "Research Site", "city": "Sapporo", "state": "Hokkaido", "zip": "060-8648", "country": "Japan", "geoPoint": {"lat": 43.06667, "lon": 141.35}}, {"facility": "Research Site", "city": "Amagasaki-shi", "state": "Hyogo", "zip": "660-8550", "country": "Japan", "geoPoint": {"lat": 34.71667, "lon": 135.41667}}, {"facility": "Research Site", "city": "Kawanishi-shi", "state": "Hyogo", "zip": "666-0125", "country": "Japan", "geoPoint": {"lat": 34.81671, "lon": 135.41666}}, {"facility": "Research Site", "city": "Takarazuka-shi", "state": "Hyogo", "zip": "665-0873", "country": "Japan", "geoPoint": {"lat": 34.79936, "lon": 135.35697}}, {"facility": "Research Site", "city": "Kanazawa-shi", "state": "Ishikawa", "zip": "920-8650", "country": "Japan", "geoPoint": {"lat": 36.6, "lon": 136.61667}}, {"facility": "Research Site", "city": "Nankoku-shi", "state": "Kochi", "zip": "783-8505", "country": "Japan", "geoPoint": {"lat": 33.56943, "lon": 133.64937}}, {"facility": "Research Site", "city": "Oita-shi", "state": "Oita", "zip": "870-0192", "country": "Japan", "geoPoint": {"lat": 33.23333, "lon": 131.6}}, {"facility": "Research Site", "city": "Okayama-shi", "state": "Okayama", "zip": "702-8055", "country": "Japan", "geoPoint": {"lat": 34.65, "lon": 133.93333}}, {"facility": "Research Site", "city": "Kishiwada-shi", "state": "Osaka", "zip": "596-8522", "country": "Japan", "geoPoint": {"lat": 34.46667, "lon": 135.36667}}, {"facility": "Research Site", "city": "Osaka-shi", "state": "Osaka", "zip": "532-0003", "country": "Japan", "geoPoint": {"lat": 34.69374, "lon": 135.50218}}, {"facility": "Research Site", "city": "Osaka-shi", "state": "Osaka", "zip": "550-0012", "country": "Japan", "geoPoint": {"lat": 34.69374, "lon": 135.50218}}, {"facility": "Research Site", "city": "Osaka-shi", "state": "Osaka", "zip": "559-0012", "country": "Japan", "geoPoint": {"lat": 34.69374, "lon": 135.50218}}, {"facility": "Research Site", "city": "Suita-shi", "state": "Osaka", "zip": "565-0871", "country": "Japan", "geoPoint": {"lat": 34.76143, "lon": 135.51567}}, {"facility": "Research Site", "city": "Saga-shi", "state": "Saga", "zip": "840-8571", "country": "Japan", "geoPoint": {"lat": 33.23333, "lon": 130.3}}, {"facility": "Research Site", "city": "Saitama-shi", "state": "Saitama", "zip": "330-8503", "country": "Japan", "geoPoint": {"lat": 35.90807, "lon": 139.65657}}, {"facility": "Research Site", "city": "Wako-shi", "state": "Saitama", "zip": "351-0102", "country": "Japan", "geoPoint": {"lat": 35.78944, "lon": 139.62333}}, {"facility": "Research Site", "city": "Sunto-gun", "state": "Shizuoka", "zip": "411-8611", "country": "Japan"}, {"facility": "Research Site", "city": "Chiyoda-ku", "state": "Tokyo", "zip": "101-8309", "country": "Japan"}, {"facility": "Research Site", "city": "Itabashi-ku", "state": "Tokyo", "zip": "173-0015", "country": "Japan", "geoPoint": {"lat": 35.74893, "lon": 139.71497}}, {"facility": "Research Site", "city": "Itabashi-ku", "state": "Tokyo", "zip": "173-8610", "country": "Japan", "geoPoint": {"lat": 35.74893, "lon": 139.71497}}, {"facility": "Research Site", "city": "Meguro-ku", "state": "Tokyo", "zip": "152-8902", "country": "Japan", "geoPoint": {"lat": 42.12755, "lon": 143.31736}}, {"facility": "Research Site", "city": "Shinagawa-ku", "state": "Tokyo", "zip": "141-0001", "country": "Japan", "geoPoint": {"lat": 33.63627, "lon": 133.00572}}]}, "referencesModule": {"seeAlsoLinks": [{"label": "AmgenTrials clinical trials website", "url": "http://www.amgentrials.com"}]}}, "resultsSection": {"participantFlowModule": {"preAssignmentDetails": "Participants were randomized at a ratio of 1:1:1:1 to twice daily (BID) placebo, 25 mg, 25 mg-\\>37.5 mg Target Dose, or 25 mg-\\>50 mg Target Dose, respectively. Randomization was stratified by presence or absence of atrial fibrillation/flutter.", "recruitmentDetails": "Participants were enrolled at 31 research centers in Japan from 14 April 2016 to 16 December 2016.", "groups": [{"id": "FG000", "title": "Placebo BID", "description": "Placebo for omecamtiv mecarbil BID"}, {"id": "FG001", "title": "Omecamtiv Mecarbil 25 mg BID", "description": "Omecamtiv mecarbil 25 mg BID"}, {"id": "FG002", "title": "Omecamtiv Mecarbil 25 mg to 37.5 mg BID Target Dose", "description": "Omecamtiv mecarbil 25 mg BID up to Week 4 or Week 8 and 25 mg or 37.5 mg BID after Week 4 or Week 8, based on Week 2 PK"}, {"id": "FG003", "title": "Omecamtiv Mecarbil 25 mg to 50 mg BID Target Dose", "description": "Omecamtiv Mecarbil 25 mg BID up to Week 4 or Week 8 and 25 mg or 50 mg BID after Week 4 or Week 8, based on Week 2 PK"}], "periods": [{"title": "Overall Study", "milestones": [{"type": "STARTED", "achievements": [{"groupId": "FG000", "numSubjects": "21"}, {"groupId": "FG001", "numSubjects": "21"}, {"groupId": "FG002", "numSubjects": "19"}, {"groupId": "FG003", "numSubjects": "20"}]}, {"type": "COMPLETED", "achievements": [{"groupId": "FG000", "numSubjects": "21"}, {"groupId": "FG001", "numSubjects": "20"}, {"groupId": "FG002", "numSubjects": "19"}, {"groupId": "FG003", "numSubjects": "20"}]}, {"type": "NOT COMPLETED", "achievements": [{"groupId": "FG000", "numSubjects": "0"}, {"groupId": "FG001", "numSubjects": "1"}, {"groupId": "FG002", "numSubjects": "0"}, {"groupId": "FG003", "numSubjects": "0"}]}], "dropWithdraws": [{"type": "Death", "reasons": [{"groupId": "FG000", "numSubjects": "0"}, {"groupId": "FG001", "numSubjects": "1"}, {"groupId": "FG002", "numSubjects": "0"}, {"groupId": "FG003", "numSubjects": "0"}]}]}]}, "baselineCharacteristicsModule": {"groups": [{"id": "BG000", "title": "Placebo BID", "description": "Placebo for omecamtiv mecarbil BID"}, {"id": "BG001", "title": "Omecamtiv Mecarbil 25 mg BID", "description": "Omecamtiv mecarbil 25 mg BID"}, {"id": "BG002", "title": "Omecamtiv Mecarbil 25 mg to 37.5 mg BID Target Dose", "description": "Omecamtiv mecarbil 25 mg BID up to Week 4 or Week 8 and 25 mg or 37.5 mg BID after Week 4 or Week 8, based on Week 2 PK"}, {"id": "BG003", "title": "Omecamtiv Mecarbil 25 mg to 50 mg BID Target Dose", "description": "Omecamtiv Mecarbil 25 mg BID up to Week 4 or Week 8 and 25 mg or 50 mg BID after Week 4 or Week 8, based on Week 2 PK"}, {"id": "BG004", "title": "Total", "description": "Total of all reporting groups"}], "denoms": [{"units": "Participants", "counts": [{"groupId": "BG000", "value": "21"}, {"groupId": "BG001", "value": "21"}, {"groupId": "BG002", "value": "19"}, {"groupId": "BG003", "value": "20"}, {"groupId": "BG004", "value": "81"}]}], "measures": [{"title": "Age, Continuous", "paramType": "MEAN", "dispersionType": "STANDARD_DEVIATION", "unitOfMeasure": "years", "classes": [{"categories": [{"measurements": [{"groupId": "BG000", "value": "64.6", "spread": "11.5"}, {"groupId": "BG001", "value": "66.9", "spread": "10.3"}, {"groupId": "BG002", "value": "63.6", "spread": "10.8"}, {"groupId": "BG003", "value": "66.5", "spread": "12.2"}, {"groupId": "BG004", "value": "65.4", "spread": "11.1"}]}]}]}, {"title": "Sex: Female, Male", "paramType": "COUNT_OF_PARTICIPANTS", "unitOfMeasure": "Participants", "classes": [{"categories": [{"title": "Female", "measurements": [{"groupId": "BG000", "value": "9"}, {"groupId": "BG001", "value": "3"}, {"groupId": "BG002", "value": "0"}, {"groupId": "BG003", "value": "1"}, {"groupId": "BG004", "value": "13"}]}, {"title": "Male", "measurements": [{"groupId": "BG000", "value": "12"}, {"groupId": "BG001", "value": "18"}, {"groupId": "BG002", "value": "19"}, {"groupId": "BG003", "value": "19"}, {"groupId": "BG004", "value": "68"}]}]}]}, {"title": "Race/Ethnicity, Customized", "paramType": "NUMBER", "unitOfMeasure": "participants", "classes": [{"title": "Asian", "categories": [{"measurements": [{"groupId": "BG000", "value": "21"}, {"groupId": "BG001", "value": "21"}, {"groupId": "BG002", "value": "19"}, {"groupId": "BG003", "value": "20"}, {"groupId": "BG004", "value": "81"}]}]}, {"title": "Other", "categories": [{"measurements": [{"groupId": "BG000", "value": "0"}, {"groupId": "BG001", "value": "0"}, {"groupId": "BG002", "value": "0"}, {"groupId": "BG003", "value": "0"}, {"groupId": "BG004", "value": "0"}]}]}]}, {"title": "Race/Ethnicity, Customized", "paramType": "NUMBER", "unitOfMeasure": "participants", "classes": [{"title": "Japanese", "categories": [{"measurements": [{"groupId": "BG000", "value": "21"}, {"groupId": "BG001", "value": "21"}, {"groupId": "BG002", "value": "19"}, {"groupId": "BG003", "value": "20"}, {"groupId": "BG004", "value": "81"}]}]}, {"title": "Other", "categories": [{"measurements": [{"groupId": "BG000", "value": "0"}, {"groupId": "BG001", "value": "0"}, {"groupId": "BG002", "value": "0"}, {"groupId": "BG003", "value": "0"}, {"groupId": "BG004", "value": "0"}]}]}]}, {"title": "Atrial Fibrillation/Flutter at Randomization", "description": "Randomization was stratified by presence or absence of atrial fibrillation/flutter via interactive voice-response system/interactive web-response (IVRS/IWRS) system.", "paramType": "NUMBER", "unitOfMeasure": "participants", "classes": [{"title": "Present", "categories": [{"measurements": [{"groupId": "BG000", "value": "4"}, {"groupId": "BG001", "value": "4"}, {"groupId": "BG002", "value": "3"}, {"groupId": "BG003", "value": "4"}, {"groupId": "BG004", "value": "15"}]}]}, {"title": "Absent", "categories": [{"measurements": [{"groupId": "BG000", "value": "17"}, {"groupId": "BG001", "value": "17"}, {"groupId": "BG002", "value": "16"}, {"groupId": "BG003", "value": "16"}, {"groupId": "BG004", "value": "66"}]}]}]}]}, "outcomeMeasuresModule": {"outcomeMeasures": [{"type": "PRIMARY", "title": "Pharmacokinetics (PK): Concentration Before Morning Dose (Cpredose) Over Time", "populationDescription": "PK Analysis Set: all randomized participants who received at least one dose of omecamtiv mecarbil and had at least one evaluable omecamtiv mecarbil PK concentration at given time point.", "reportingStatus": "POSTED", "paramType": "MEAN", "dispersionType": "Standard Deviation", "unitOfMeasure": "ng/mL", "timeFrame": "Before morning dose on Week 2 (Day 15), Week 4 (Day 28), Week 12 (Day 84), Week 16 (Day 112)", "groups": [{"id": "OG000", "title": "Omecamtiv Mecarbil 25 mg BID", "description": "Omecamtiv mecarbil 25 mg BID"}, {"id": "OG001", "title": "Omecamtiv Mecarbil 25 mg to 37.5 mg BID Target Dose", "description": "Omecamtiv mecarbil 25 mg BID up to Week 4 or Week 8 and 25 mg or 37.5 mg BID after Week 4 or Week 8, based on Week 2 PK"}, {"id": "OG002", "title": "Omecamtiv Mecarbil 25 mg to 50 mg BID Target Dose", "description": "Omecamtiv Mecarbil 25 mg BID up to Week 4 or Week 8 and 25 mg or 50 mg BID after Week 4 or Week 8, based on Week 2 PK"}], "denoms": [{"units": "Participants", "counts": [{"groupId": "OG000", "value": "20"}, {"groupId": "OG001", "value": "18"}, {"groupId": "OG002", "value": "20"}]}], "classes": [{"title": "Week 2", "denoms": [{"units": "Participants", "counts": [{"groupId": "OG000", "value": "20"}, {"groupId": "OG001", "value": "18"}, {"groupId": "OG002", "value": "20"}]}], "categories": [{"measurements": [{"groupId": "OG000", "value": "239", "spread": "106"}, {"groupId": "OG001", "value": "179", "spread": "77.1"}, {"groupId": "OG002", "value": "208", "spread": "61.6"}]}]}, {"title": "Week 4", "denoms": [{"units": "Participants", "counts": [{"groupId": "OG000", "value": "17"}, {"groupId": "OG001", "value": "17"}, {"groupId": "OG002", "value": "20"}]}], "categories": [{"measurements": [{"groupId": "OG000", "value": "222", "spread": "63.5"}, {"groupId": "OG001", "value": "196", "spread": "44"}, {"groupId": "OG002", "value": "209", "spread": "61.9"}]}]}, {"title": "Week 12", "denoms": [{"units": "Participants", "counts": [{"groupId": "OG000", "value": "19"}, {"groupId": "OG001", "value": "17"}, {"groupId": "OG002", "value": "19"}]}], "categories": [{"measurements": [{"groupId": "OG000", "value": "217", "spread": "66.1"}, {"groupId": "OG001", "value": "228", "spread": "56.9"}, {"groupId": "OG002", "value": "282", "spread": "120"}]}]}, {"title": "Week 16", "denoms": [{"units": "Participants", "counts": [{"groupId": "OG000", "value": "19"}, {"groupId": "OG001", "value": "17"}, {"groupId": "OG002", "value": "20"}]}], "categories": [{"measurements": [{"groupId": "OG000", "value": "206", "spread": "84.5"}, {"groupId": "OG001", "value": "244", "spread": "67.7"}, {"groupId": "OG002", "value": "292", "spread": "118"}]}]}]}, {"type": "PRIMARY", "title": "PK: Area Under the Curve Until 8 Hours After Morning Dose at Week 8 (AUC0-8)", "populationDescription": "PK Analysis Set: all randomized participants who received at least one dose of omecamtiv mecarbil and had at least one evaluable omecamtiv mecarbil PK concentration.", "reportingStatus": "POSTED", "paramType": "MEAN", "dispersionType": "Standard Deviation", "unitOfMeasure": "hr*ng/mL", "timeFrame": "Week 8 (Day 56) at predose, at 2 hours \u00b130 minutes; 4 hours \u00b130 minutes; 6 hours \u00b130 minutes; 8 hours \u00b130 minutes after morning dose", "groups": [{"id": "OG000", "title": "Omecamtiv Mecarbil 25 mg BID", "description": "Omecamtiv mecarbil 25 mg BID"}, {"id": "OG001", "title": "Omecamtiv Mecarbil 25 mg to 37.5 mg BID Target Dose", "description": "Omecamtiv mecarbil 25 mg BID up to Week 4 or Week 8 and 25 mg or 37.5 mg BID after Week 4 or Week 8, based on Week 2 PK"}, {"id": "OG002", "title": "Omecamtiv Mecarbil 25 mg to 50 mg BID Target Dose", "description": "Omecamtiv Mecarbil 25 mg BID up to Week 4 or Week 8 and 25 mg or 50 mg BID after Week 4 or Week 8, based on Week 2 PK"}], "denoms": [{"units": "Participants", "counts": [{"groupId": "OG000", "value": "9"}, {"groupId": "OG001", "value": "8"}, {"groupId": "OG002", "value": "1"}]}], "classes": [{"categories": [{"measurements": [{"groupId": "OG000", "value": "1850", "spread": "563"}, {"groupId": "OG001", "value": "1850", "spread": "383"}, {"groupId": "OG002", "value": "2360", "spread": "465"}]}]}]}, {"type": "SECONDARY", "title": "Change From Baseline at Week 16 in Systolic Ejection Time (SET)", "description": "LS mean was from the repeated measures model, which included treatment group, stratification factor (from IVRS), scheduled visit, baseline value, and the interaction of treatment group with scheduled visit as covariates.", "populationDescription": "All participants who received at least one dose of study drug with observed data. The 4 active treatment arms include only those participants who had a minimum investigational product exposure period of 25 days.", "reportingStatus": "POSTED", "paramType": "LEAST_SQUARES_MEAN", "dispersionType": "Standard Error", "unitOfMeasure": "msec", "timeFrame": "Baseline, Week 16 (Day 112)", "groups": [{"id": "OG000", "title": "Placebo BID", "description": "Placebo for omecamtiv mecarbil BID"}, {"id": "OG001", "title": "Omecamtiv Mecarbil 25 mg BID", "description": "Omecamtiv mecarbil 25 mg BID"}, {"id": "OG002", "title": "Omecamtiv Mecarbil 25 mg to 37.5 mg BID Target Dose", "description": "Omecamtiv mecarbil 25 mg BID up to Week 4 or Week 8 and 25 mg or 37.5 mg BID after Week 4 or Week 8, based on Week 2 PK"}, {"id": "OG003", "title": "Omecamtiv Mecarbil 25 mg to 50 mg BID Target Dose", "description": "Omecamtiv Mecarbil 25 mg BID up to Week 4 or Week 8 and 25 mg or 50 mg BID after Week 4 or Week 8, based on Week 2 PK"}], "denoms": [{"units": "Participants", "counts": [{"groupId": "OG000", "value": "20"}, {"groupId": "OG001", "value": "19"}, {"groupId": "OG002", "value": "17"}, {"groupId": "OG003", "value": "17"}]}], "classes": [{"categories": [{"measurements": [{"groupId": "OG000", "value": "-1.7", "spread": "4.7"}, {"groupId": "OG001", "value": "20.5", "spread": "4.9"}, {"groupId": "OG002", "value": "27.6", "spread": "5.4"}, {"groupId": "OG003", "value": "23.8", "spread": "5.2"}]}]}], "analyses": [{"groupIds": ["OG000", "OG001"], "nonInferiorityType": "SUPERIORITY", "pValue": "0.0008", "statisticalMethod": "Repeated Measures Model", "paramType": "Treatment Difference", "paramValue": "22.1", "ciPctValue": "95", "ciNumSides": "TWO_SIDED", "ciLowerLimit": "9.6", "ciUpperLimit": "34.7", "dispersionType": "STANDARD_ERROR_OF_MEAN", "dispersionValue": "6.3"}, {"groupIds": ["OG000", "OG002"], "nonInferiorityType": "SUPERIORITY", "pValue": "< 0.0001", "statisticalMethod": "Repeated measures model", "paramType": "Treatment Difference", "paramValue": "29.3", "ciPctValue": "95", "ciNumSides": "TWO_SIDED", "ciLowerLimit": "16.3", "ciUpperLimit": "42.3", "dispersionType": "STANDARD_ERROR_OF_MEAN", "dispersionValue": "6.5"}, {"groupIds": ["OG000", "OG003"], "nonInferiorityType": "SUPERIORITY", "pValue": "0.0002", "statisticalMethod": "Repeated measures model", "paramType": "Treatment Difference", "paramValue": "25.5", "ciPctValue": "95", "ciNumSides": "TWO_SIDED", "ciLowerLimit": "12.6", "ciUpperLimit": "38.4", "dispersionType": "STANDARD_ERROR_OF_MEAN", "dispersionValue": "6.5"}]}, {"type": "OTHER_PRE_SPECIFIED", "title": "Number of Participants With Treatment-Emergent Adverse Events (TEAEs)", "description": "An adverse event (AE) is defined as any untoward medical occurrence. Serious AEs are defined as AEs that meets at least 1 of the following serious criteria: fatal, life threatening, requires in-patient hospitalization or prolongation of existing hospitalization, results in persistent or significant disability/incapacity, congenital anomaly/birth defect, other medically important serious event. AEs are graded as: 1=mild, 2=moderate, 3=severe, 4=life-threatening, 5=death. TEAEs are defined as events occurring after the first dose of study drug.", "populationDescription": "Safety Analysis Set: all participants who received at least one dose of study drug.", "reportingStatus": "POSTED", "paramType": "COUNT_OF_PARTICIPANTS", "unitOfMeasure": "Participants", "timeFrame": "From first dose of study drug up to Week 20 (Day 140 + 3 days)", "groups": [{"id": "OG000", "title": "Placebo BID", "description": "Placebo for omecamtiv mecarbil BID"}, {"id": "OG001", "title": "Omecamtiv Mecarbil 25 mg BID", "description": "Omecamtiv mecarbil 25 mg BID"}, {"id": "OG002", "title": "Omecamtiv Mecarbil 25 mg to 37.5 mg BID Target Dose", "description": "Omecamtiv mecarbil 25 mg BID up to Week 4 or Week 8 and 25 mg or 37.5 mg BID after Week 4 or Week 8, based on Week 2 PK"}, {"id": "OG003", "title": "Omecamtiv Mecarbil 25 mg to 50 mg BID Target Dose", "description": "Omecamtiv Mecarbil 25 mg BID up to Week 4 or Week 8 and 25 mg or 50 mg BID after Week 4 or Week 8, based on Week 2 PK"}], "denoms": [{"units": "Participants", "counts": [{"groupId": "OG000", "value": "21"}, {"groupId": "OG001", "value": "21"}, {"groupId": "OG002", "value": "19"}, {"groupId": "OG003", "value": "20"}]}], "classes": [{"title": "All TEAEs", "categories": [{"measurements": [{"groupId": "OG000", "value": "14"}, {"groupId": "OG001", "value": "10"}, {"groupId": "OG002", "value": "10"}, {"groupId": "OG003", "value": "12"}]}]}, {"title": "Grade >= 2 TEAEs", "categories": [{"measurements": [{"groupId": "OG000", "value": "10"}, {"groupId": "OG001", "value": "6"}, {"groupId": "OG002", "value": "6"}, {"groupId": "OG003", "value": "7"}]}]}, {"title": "Grade >= 3 TEAEs", "categories": [{"measurements": [{"groupId": "OG000", "value": "3"}, {"groupId": "OG001", "value": "4"}, {"groupId": "OG002", "value": "1"}, {"groupId": "OG003", "value": "2"}]}]}, {"title": "Grade >= 4 TEAEs", "categories": [{"measurements": [{"groupId": "OG000", "value": "0"}, {"groupId": "OG001", "value": "1"}, {"groupId": "OG002", "value": "0"}, {"groupId": "OG003", "value": "0"}]}]}, {"title": "Serious AEs", "categories": [{"measurements": [{"groupId": "OG000", "value": "3"}, {"groupId": "OG001", "value": "4"}, {"groupId": "OG002", "value": "1"}, {"groupId": "OG003", "value": "3"}]}]}, {"title": "TEAEs Leading to Withdrawal of Study Drug", "categories": [{"measurements": [{"groupId": "OG000", "value": "0"}, {"groupId": "OG001", "value": "2"}, {"groupId": "OG002", "value": "1"}, {"groupId": "OG003", "value": "0"}]}]}, {"title": "Fata Adverse Events", "categories": [{"measurements": [{"groupId": "OG000", "value": "0"}, {"groupId": "OG001", "value": "1"}, {"groupId": "OG002", "value": "0"}, {"groupId": "OG003", "value": "0"}]}]}]}]}, "adverseEventsModule": {"frequencyThreshold": "5", "timeFrame": "From first dose of study drug up to Week 20 (Day 140 + 3 days)", "description": "Other Adverse Events summarizes the non-serious occurrences of adverse events that exceed the indicated frequency threshold.", "eventGroups": [{"id": "EG000", "title": "Placebo BID", "description": "Placebo for omecamtiv mecarbil BID", "deathsNumAffected": 0, "deathsNumAtRisk": 21, "seriousNumAffected": 3, "seriousNumAtRisk": 21, "otherNumAffected": 10, "otherNumAtRisk": 21}, {"id": "EG001", "title": "Omecamtiv Mecarbil 25 mg BID", "description": "Omecamtiv mecarbil 25 mg BID", "deathsNumAffected": 1, "deathsNumAtRisk": 21, "seriousNumAffected": 4, "seriousNumAtRisk": 21, "otherNumAffected": 8, "otherNumAtRisk": 21}, {"id": "EG002", "title": "Omecamtiv Mecarbil 25 mg to 37.5 mg BID Target Dose", "description": "Omecamtiv mecarbil 25 mg BID up to Week 4 or Week 8 and 25 mg or 37.5 mg BID after Week 4 or Week 8, based on Week 2 PK", "deathsNumAffected": 0, "deathsNumAtRisk": 19, "seriousNumAffected": 1, "seriousNumAtRisk": 19, "otherNumAffected": 10, "otherNumAtRisk": 19}, {"id": "EG003", "title": "Omecamtiv Mecarbil 25 mg to 50 mg BID Target Dose", "description": "Omecamtiv Mecarbil 25 mg BID up to Week 4 or Week 8 and 25 mg or 50 mg BID after Week 4 or Week 8, based on Week 2 PK", "deathsNumAffected": 0, "deathsNumAtRisk": 20, "seriousNumAffected": 3, "seriousNumAtRisk": 20, "otherNumAffected": 11, "otherNumAtRisk": 20}], "seriousEvents": [{"term": "Angina pectoris", "organSystem": "Cardiac disorders", "sourceVocabulary": "MedDRA 20.0", "assessmentType": "SYSTEMATIC_ASSESSMENT", "stats": [{"groupId": "EG000", "numAffected": 0, "numAtRisk": 21}, {"groupId": "EG001", "numAffected": 0, "numAtRisk": 21}, {"groupId": "EG002", "numAffected": 0, "numAtRisk": 19}, {"groupId": "EG003", "numAffected": 1, "numAtRisk": 20}]}, {"term": "Cardiac failure", "organSystem": "Cardiac disorders", "sourceVocabulary": "MedDRA 20.0", "assessmentType": "SYSTEMATIC_ASSESSMENT", "stats": [{"groupId": "EG000", "numAffected": 1, "numAtRisk": 21}, {"groupId": "EG001", "numAffected": 1, "numAtRisk": 21}, {"groupId": "EG002", "numAffected": 0, "numAtRisk": 19}, {"groupId": "EG003", "numAffected": 1, "numAtRisk": 20}]}, {"term": "Cardiac failure chronic", "organSystem": "Cardiac disorders", "sourceVocabulary": "MedDRA 20.0", "assessmentType": "SYSTEMATIC_ASSESSMENT", "stats": [{"groupId": "EG000", "numAffected": 0, "numAtRisk": 21}, {"groupId": "EG001", "numAffected": 1, "numAtRisk": 21}, {"groupId": "EG002", "numAffected": 0, "numAtRisk": 19}, {"groupId": "EG003", "numAffected": 1, "numAtRisk": 20}]}, {"term": "Cardiac failure congestive", "organSystem": "Cardiac disorders", "sourceVocabulary": "MedDRA 20.0", "assessmentType": "SYSTEMATIC_ASSESSMENT", "stats": [{"groupId": "EG000", "numAffected": 0, "numAtRisk": 21}, {"groupId": "EG001", "numAffected": 1, "numAtRisk": 21}, {"groupId": "EG002", "numAffected": 0, "numAtRisk": 19}, {"groupId": "EG003", "numAffected": 0, "numAtRisk": 20}]}, {"term": "Cardiac ventricular thrombosis", "organSystem": "Cardiac disorders", "sourceVocabulary": "MedDRA 20.0", "assessmentType": "SYSTEMATIC_ASSESSMENT", "stats": [{"groupId": "EG000", "numAffected": 1, "numAtRisk": 21}, {"groupId": "EG001", "numAffected": 0, "numAtRisk": 21}, {"groupId": "EG002", "numAffected": 0, "numAtRisk": 19}, {"groupId": "EG003", "numAffected": 0, "numAtRisk": 20}]}, {"term": "Cardio-respiratory arrest", "organSystem": "Cardiac disorders", "sourceVocabulary": "MedDRA 20.0", "assessmentType": "SYSTEMATIC_ASSESSMENT", "stats": [{"groupId": "EG000", "numAffected": 0, "numAtRisk": 21}, {"groupId": "EG001", "numAffected": 1, "numAtRisk": 21}, {"groupId": "EG002", "numAffected": 0, "numAtRisk": 19}, {"groupId": "EG003", "numAffected": 0, "numAtRisk": 20}]}, {"term": "Ventricular fibrillation", "organSystem": "Cardiac disorders", "sourceVocabulary": "MedDRA 20.0", "assessmentType": "SYSTEMATIC_ASSESSMENT", "stats": [{"groupId": "EG000", "numAffected": 0, "numAtRisk": 21}, {"groupId": "EG001", "numAffected": 1, "numAtRisk": 21}, {"groupId": "EG002", "numAffected": 0, "numAtRisk": 19}, {"groupId": "EG003", "numAffected": 0, "numAtRisk": 20}]}, {"term": "Vascular stent restenosis", "organSystem": "General disorders", "sourceVocabulary": "MedDRA 20.0", "assessmentType": "SYSTEMATIC_ASSESSMENT", "stats": [{"groupId": "EG000", "numAffected": 0, "numAtRisk": 21}, {"groupId": "EG001", "numAffected": 0, "numAtRisk": 21}, {"groupId": "EG002", "numAffected": 0, "numAtRisk": 19}, {"groupId": "EG003", "numAffected": 1, "numAtRisk": 20}]}, {"term": "Hepatic function abnormal", "organSystem": "Hepatobiliary disorders", "sourceVocabulary": "MedDRA 20.0", "assessmentType": "SYSTEMATIC_ASSESSMENT", "stats": [{"groupId": "EG000", "numAffected": 0, "numAtRisk": 21}, {"groupId": "EG001", "numAffected": 1, "numAtRisk": 21}, {"groupId": "EG002", "numAffected": 0, "numAtRisk": 19}, {"groupId": "EG003", "numAffected": 0, "numAtRisk": 20}]}, {"term": "Pneumonia", "organSystem": "Infections and infestations", "sourceVocabulary": "MedDRA 20.0", "assessmentType": "SYSTEMATIC_ASSESSMENT", "stats": [{"groupId": "EG000", "numAffected": 1, "numAtRisk": 21}, {"groupId": "EG001", "numAffected": 0, "numAtRisk": 21}, {"groupId": "EG002", "numAffected": 1, "numAtRisk": 19}, {"groupId": "EG003", "numAffected": 0, "numAtRisk": 20}]}, {"term": "Sepsis", "organSystem": "Infections and infestations", "sourceVocabulary": "MedDRA 20.0", "assessmentType": "SYSTEMATIC_ASSESSMENT", "stats": [{"groupId": "EG000", "numAffected": 0, "numAtRisk": 21}, {"groupId": "EG001", "numAffected": 1, "numAtRisk": 21}, {"groupId": "EG002", "numAffected": 0, "numAtRisk": 19}, {"groupId": "EG003", "numAffected": 0, "numAtRisk": 20}]}], "otherEvents": [{"term": "Iron deficiency anaemia", "organSystem": "Blood and lymphatic system disorders", "sourceVocabulary": "MedDRA 20.0", "assessmentType": "SYSTEMATIC_ASSESSMENT", "stats": [{"groupId": "EG000", "numAffected": 0, "numAtRisk": 21}, {"groupId": "EG001", "numAffected": 2, "numAtRisk": 21}, {"groupId": "EG002", "numAffected": 0, "numAtRisk": 19}, {"groupId": "EG003", "numAffected": 0, "numAtRisk": 20}]}, {"term": "Bradycardia", "organSystem": "Cardiac disorders", "sourceVocabulary": "MedDRA 20.0", "assessmentType": "SYSTEMATIC_ASSESSMENT", "stats": [{"groupId": "EG000", "numAffected": 0, "numAtRisk": 21}, {"groupId": "EG001", "numAffected": 0, "numAtRisk": 21}, {"groupId": "EG002", "numAffected": 1, "numAtRisk": 19}, {"groupId": "EG003", "numAffected": 0, "numAtRisk": 20}]}, {"term": "Cardiac failure congestive", "organSystem": "Cardiac disorders", "sourceVocabulary": "MedDRA 20.0", "assessmentType": "SYSTEMATIC_ASSESSMENT", "stats": [{"groupId": "EG000", "numAffected": 0, "numAtRisk": 21}, {"groupId": "EG001", "numAffected": 0, "numAtRisk": 21}, {"groupId": "EG002", "numAffected": 1, "numAtRisk": 19}, {"groupId": "EG003", "numAffected": 0, "numAtRisk": 20}]}, {"term": "Supraventricular extrasystoles", "organSystem": "Cardiac disorders", "sourceVocabulary": "MedDRA 20.0", "assessmentType": "SYSTEMATIC_ASSESSMENT", "stats": [{"groupId": "EG000", "numAffected": 0, "numAtRisk": 21}, {"groupId": "EG001", "numAffected": 0, "numAtRisk": 21}, {"groupId": "EG002", "numAffected": 1, "numAtRisk": 19}, {"groupId": "EG003", "numAffected": 0, "numAtRisk": 20}]}, {"term": "Ventricular extrasystoles", "organSystem": "Cardiac disorders", "sourceVocabulary": "MedDRA 20.0", "assessmentType": "SYSTEMATIC_ASSESSMENT", "stats": [{"groupId": "EG000", "numAffected": 0, "numAtRisk": 21}, {"groupId": "EG001", "numAffected": 0, "numAtRisk": 21}, {"groupId": "EG002", "numAffected": 1, "numAtRisk": 19}, {"groupId": "EG003", "numAffected": 0, "numAtRisk": 20}]}, {"term": "Chest pain", "organSystem": "General disorders", "sourceVocabulary": "MedDRA 20.0", "assessmentType": "SYSTEMATIC_ASSESSMENT", "stats": [{"groupId": "EG000", "numAffected": 0, "numAtRisk": 21}, {"groupId": "EG001", "numAffected": 1, "numAtRisk": 21}, {"groupId": "EG002", "numAffected": 1, "numAtRisk": 19}, {"groupId": "EG003", "numAffected": 0, "numAtRisk": 20}]}, {"term": "Oedema peripheral", "organSystem": "General disorders", "sourceVocabulary": "MedDRA 20.0", "assessmentType": "SYSTEMATIC_ASSESSMENT", "stats": [{"groupId": "EG000", "numAffected": 0, "numAtRisk": 21}, {"groupId": "EG001", "numAffected": 0, "numAtRisk": 21}, {"groupId": "EG002", "numAffected": 0, "numAtRisk": 19}, {"groupId": "EG003", "numAffected": 1, "numAtRisk": 20}]}, {"term": "Hepatic function abnormal", "organSystem": "Hepatobiliary disorders", "sourceVocabulary": "MedDRA 20.0", "assessmentType": "SYSTEMATIC_ASSESSMENT", "stats": [{"groupId": "EG000", "numAffected": 1, "numAtRisk": 21}, {"groupId": "EG001", "numAffected": 0, "numAtRisk": 21}, {"groupId": "EG002", "numAffected": 1, "numAtRisk": 19}, {"groupId": "EG003", "numAffected": 0, "numAtRisk": 20}]}, {"term": "Seasonal allergy", "organSystem": "Immune system disorders", "sourceVocabulary": "MedDRA 20.0", "assessmentType": "SYSTEMATIC_ASSESSMENT", "stats": [{"groupId": "EG000", "numAffected": 0, "numAtRisk": 21}, {"groupId": "EG001", "numAffected": 0, "numAtRisk": 21}, {"groupId": "EG002", "numAffected": 0, "numAtRisk": 19}, {"groupId": "EG003", "numAffected": 1, "numAtRisk": 20}]}, {"term": "Bronchitis", "organSystem": "Infections and infestations", "sourceVocabulary": "MedDRA 20.0", "assessmentType": "SYSTEMATIC_ASSESSMENT", "stats": [{"groupId": "EG000", "numAffected": 0, "numAtRisk": 21}, {"groupId": "EG001", "numAffected": 1, "numAtRisk": 21}, {"groupId": "EG002", "numAffected": 0, "numAtRisk": 19}, {"groupId": "EG003", "numAffected": 1, "numAtRisk": 20}]}, {"term": "Influenza", "organSystem": "Infections and infestations", "sourceVocabulary": "MedDRA 20.0", "assessmentType": "SYSTEMATIC_ASSESSMENT", "stats": [{"groupId": "EG000", "numAffected": 1, "numAtRisk": 21}, {"groupId": "EG001", "numAffected": 2, "numAtRisk": 21}, {"groupId": "EG002", "numAffected": 0, "numAtRisk": 19}, {"groupId": "EG003", "numAffected": 0, "numAtRisk": 20}]}, {"term": "Periodontitis", "organSystem": "Infections and infestations", "sourceVocabulary": "MedDRA 20.0", "assessmentType": "SYSTEMATIC_ASSESSMENT", "stats": [{"groupId": "EG000", "numAffected": 0, "numAtRisk": 21}, {"groupId": "EG001", "numAffected": 1, "numAtRisk": 21}, {"groupId": "EG002", "numAffected": 2, "numAtRisk": 19}, {"groupId": "EG003", "numAffected": 0, "numAtRisk": 20}]}, {"term": "Pharyngitis", "organSystem": "Infections and infestations", "sourceVocabulary": "MedDRA 20.0", "assessmentType": "SYSTEMATIC_ASSESSMENT", "stats": [{"groupId": "EG000", "numAffected": 1, "numAtRisk": 21}, {"groupId": "EG001", "numAffected": 0, "numAtRisk": 21}, {"groupId": "EG002", "numAffected": 0, "numAtRisk": 19}, {"groupId": "EG003", "numAffected": 1, "numAtRisk": 20}]}, {"term": "Viral upper respiratory tract infection", "organSystem": "Infections and infestations", "sourceVocabulary": "MedDRA 20.0", "assessmentType": "SYSTEMATIC_ASSESSMENT", "stats": [{"groupId": "EG000", "numAffected": 4, "numAtRisk": 21}, {"groupId": "EG001", "numAffected": 1, "numAtRisk": 21}, {"groupId": "EG002", "numAffected": 4, "numAtRisk": 19}, {"groupId": "EG003", "numAffected": 4, "numAtRisk": 20}]}, {"term": "Joint dislocation", "organSystem": "Injury, poisoning and procedural complications", "sourceVocabulary": "MedDRA 20.0", "assessmentType": "SYSTEMATIC_ASSESSMENT", "stats": [{"groupId": "EG000", "numAffected": 0, "numAtRisk": 21}, {"groupId": "EG001", "numAffected": 0, "numAtRisk": 21}, {"groupId": "EG002", "numAffected": 1, "numAtRisk": 19}, {"groupId": "EG003", "numAffected": 0, "numAtRisk": 20}]}, {"term": "Tendon rupture", "organSystem": "Injury, poisoning and procedural complications", "sourceVocabulary": "MedDRA 20.0", "assessmentType": "SYSTEMATIC_ASSESSMENT", "stats": [{"groupId": "EG000", "numAffected": 0, "numAtRisk": 21}, {"groupId": "EG001", "numAffected": 0, "numAtRisk": 21}, {"groupId": "EG002", "numAffected": 1, "numAtRisk": 19}, {"groupId": "EG003", "numAffected": 0, "numAtRisk": 20}]}, {"term": "Blood potassium increased", "organSystem": "Investigations", "sourceVocabulary": "MedDRA 20.0", "assessmentType": "SYSTEMATIC_ASSESSMENT", "stats": [{"groupId": "EG000", "numAffected": 0, "numAtRisk": 21}, {"groupId": "EG001", "numAffected": 0, "numAtRisk": 21}, {"groupId": "EG002", "numAffected": 0, "numAtRisk": 19}, {"groupId": "EG003", "numAffected": 1, "numAtRisk": 20}]}, {"term": "Protein urine", "organSystem": "Investigations", "sourceVocabulary": "MedDRA 20.0", "assessmentType": "SYSTEMATIC_ASSESSMENT", "stats": [{"groupId": "EG000", "numAffected": 0, "numAtRisk": 21}, {"groupId": "EG001", "numAffected": 0, "numAtRisk": 21}, {"groupId": "EG002", "numAffected": 1, "numAtRisk": 19}, {"groupId": "EG003", "numAffected": 0, "numAtRisk": 20}]}, {"term": "Troponin I increased", "organSystem": "Investigations", "sourceVocabulary": "MedDRA 20.0", "assessmentType": "SYSTEMATIC_ASSESSMENT", "stats": [{"groupId": "EG000", "numAffected": 0, "numAtRisk": 21}, {"groupId": "EG001", "numAffected": 0, "numAtRisk": 21}, {"groupId": "EG002", "numAffected": 1, "numAtRisk": 19}, {"groupId": "EG003", "numAffected": 0, "numAtRisk": 20}]}, {"term": "Dehydration", "organSystem": "Metabolism and nutrition disorders", "sourceVocabulary": "MedDRA 20.0", "assessmentType": "SYSTEMATIC_ASSESSMENT", "stats": [{"groupId": "EG000", "numAffected": 0, "numAtRisk": 21}, {"groupId": "EG001", "numAffected": 2, "numAtRisk": 21}, {"groupId": "EG002", "numAffected": 0, "numAtRisk": 19}, {"groupId": "EG003", "numAffected": 0, "numAtRisk": 20}]}, {"term": "Dyslipidaemia", "organSystem": "Metabolism and nutrition disorders", "sourceVocabulary": "MedDRA 20.0", "assessmentType": "SYSTEMATIC_ASSESSMENT", "stats": [{"groupId": "EG000", "numAffected": 1, "numAtRisk": 21}, {"groupId": "EG001", "numAffected": 0, "numAtRisk": 21}, {"groupId": "EG002", "numAffected": 0, "numAtRisk": 19}, {"groupId": "EG003", "numAffected": 1, "numAtRisk": 20}]}, {"term": "Hypoglycaemia", "organSystem": "Metabolism and nutrition disorders", "sourceVocabulary": "MedDRA 20.0", "assessmentType": "SYSTEMATIC_ASSESSMENT", "stats": [{"groupId": "EG000", "numAffected": 0, "numAtRisk": 21}, {"groupId": "EG001", "numAffected": 0, "numAtRisk": 21}, {"groupId": "EG002", "numAffected": 0, "numAtRisk": 19}, {"groupId": "EG003", "numAffected": 1, "numAtRisk": 20}]}, {"term": "Arthralgia", "organSystem": "Musculoskeletal and connective tissue disorders", "sourceVocabulary": "MedDRA 20.0", "assessmentType": "SYSTEMATIC_ASSESSMENT", "stats": [{"groupId": "EG000", "numAffected": 0, "numAtRisk": 21}, {"groupId": "EG001", "numAffected": 0, "numAtRisk": 21}, {"groupId": "EG002", "numAffected": 0, "numAtRisk": 19}, {"groupId": "EG003", "numAffected": 2, "numAtRisk": 20}]}, {"term": "Muscle spasms", "organSystem": "Musculoskeletal and connective tissue disorders", "sourceVocabulary": "MedDRA 20.0", "assessmentType": "SYSTEMATIC_ASSESSMENT", "stats": [{"groupId": "EG000", "numAffected": 0, "numAtRisk": 21}, {"groupId": "EG001", "numAffected": 0, "numAtRisk": 21}, {"groupId": "EG002", "numAffected": 1, "numAtRisk": 19}, {"groupId": "EG003", "numAffected": 0, "numAtRisk": 20}]}, {"term": "Dizziness", "organSystem": "Nervous system disorders", "sourceVocabulary": "MedDRA 20.0", "assessmentType": "SYSTEMATIC_ASSESSMENT", "stats": [{"groupId": "EG000", "numAffected": 1, "numAtRisk": 21}, {"groupId": "EG001", "numAffected": 1, "numAtRisk": 21}, {"groupId": "EG002", "numAffected": 0, "numAtRisk": 19}, {"groupId": "EG003", "numAffected": 2, "numAtRisk": 20}]}, {"term": "Headache", "organSystem": "Nervous system disorders", "sourceVocabulary": "MedDRA 20.0", "assessmentType": "SYSTEMATIC_ASSESSMENT", "stats": [{"groupId": "EG000", "numAffected": 0, "numAtRisk": 21}, {"groupId": "EG001", "numAffected": 0, "numAtRisk": 21}, {"groupId": "EG002", "numAffected": 1, "numAtRisk": 19}, {"groupId": "EG003", "numAffected": 0, "numAtRisk": 20}]}, {"term": "Depression", "organSystem": "Psychiatric disorders", "sourceVocabulary": "MedDRA 20.0", "assessmentType": "SYSTEMATIC_ASSESSMENT", "stats": [{"groupId": "EG000", "numAffected": 0, "numAtRisk": 21}, {"groupId": "EG001", "numAffected": 0, "numAtRisk": 21}, {"groupId": "EG002", "numAffected": 1, "numAtRisk": 19}, {"groupId": "EG003", "numAffected": 0, "numAtRisk": 20}]}, {"term": "Renal impairment", "organSystem": "Renal and urinary disorders", "sourceVocabulary": "MedDRA 20.0", "assessmentType": "SYSTEMATIC_ASSESSMENT", "stats": [{"groupId": "EG000", "numAffected": 1, "numAtRisk": 21}, {"groupId": "EG001", "numAffected": 0, "numAtRisk": 21}, {"groupId": "EG002", "numAffected": 0, "numAtRisk": 19}, {"groupId": "EG003", "numAffected": 1, "numAtRisk": 20}]}, {"term": "Gynaecomastia", "organSystem": "Reproductive system and breast disorders", "sourceVocabulary": "MedDRA 20.0", "assessmentType": "SYSTEMATIC_ASSESSMENT", "stats": [{"groupId": "EG000", "numAffected": 0, "numAtRisk": 21}, {"groupId": "EG001", "numAffected": 0, "numAtRisk": 21}, {"groupId": "EG002", "numAffected": 1, "numAtRisk": 19}, {"groupId": "EG003", "numAffected": 0, "numAtRisk": 20}]}, {"term": "Cough", "organSystem": "Respiratory, thoracic and mediastinal disorders", "sourceVocabulary": "MedDRA 20.0", "assessmentType": "SYSTEMATIC_ASSESSMENT", "stats": [{"groupId": "EG000", "numAffected": 0, "numAtRisk": 21}, {"groupId": "EG001", "numAffected": 0, "numAtRisk": 21}, {"groupId": "EG002", "numAffected": 0, "numAtRisk": 19}, {"groupId": "EG003", "numAffected": 1, "numAtRisk": 20}]}, {"term": "Dermatitis", "organSystem": "Skin and subcutaneous tissue disorders", "sourceVocabulary": "MedDRA 20.0", "assessmentType": "SYSTEMATIC_ASSESSMENT", "stats": [{"groupId": "EG000", "numAffected": 0, "numAtRisk": 21}, {"groupId": "EG001", "numAffected": 2, "numAtRisk": 21}, {"groupId": "EG002", "numAffected": 0, "numAtRisk": 19}, {"groupId": "EG003", "numAffected": 0, "numAtRisk": 20}]}, {"term": "Toxic skin eruption", "organSystem": "Skin and subcutaneous tissue disorders", "sourceVocabulary": "MedDRA 20.0", "assessmentType": "SYSTEMATIC_ASSESSMENT", "stats": [{"groupId": "EG000", "numAffected": 0, "numAtRisk": 21}, {"groupId": "EG001", "numAffected": 0, "numAtRisk": 21}, {"groupId": "EG002", "numAffected": 1, "numAtRisk": 19}, {"groupId": "EG003", "numAffected": 0, "numAtRisk": 20}]}, {"term": "Arteriosclerosis", "organSystem": "Vascular disorders", "sourceVocabulary": "MedDRA 20.0", "assessmentType": "SYSTEMATIC_ASSESSMENT", "stats": [{"groupId": "EG000", "numAffected": 0, "numAtRisk": 21}, {"groupId": "EG001", "numAffected": 0, "numAtRisk": 21}, {"groupId": "EG002", "numAffected": 1, "numAtRisk": 19}, {"groupId": "EG003", "numAffected": 0, "numAtRisk": 20}]}, {"term": "Hypertension", "organSystem": "Vascular disorders", "sourceVocabulary": "MedDRA 20.0", "assessmentType": "SYSTEMATIC_ASSESSMENT", "stats": [{"groupId": "EG000", "numAffected": 0, "numAtRisk": 21}, {"groupId": "EG001", "numAffected": 0, "numAtRisk": 21}, {"groupId": "EG002", "numAffected": 0, "numAtRisk": 19}, {"groupId": "EG003", "numAffected": 1, "numAtRisk": 20}]}, {"term": "Hypotension", "organSystem": "Vascular disorders", "sourceVocabulary": "MedDRA 20.0", "assessmentType": "SYSTEMATIC_ASSESSMENT", "stats": [{"groupId": "EG000", "numAffected": 0, "numAtRisk": 21}, {"groupId": "EG001", "numAffected": 0, "numAtRisk": 21}, {"groupId": "EG002", "numAffected": 2, "numAtRisk": 19}, {"groupId": "EG003", "numAffected": 0, "numAtRisk": 20}]}]}, "moreInfoModule": {"certainAgreement": {"piSponsorEmployee": false, "restrictionType": "OTHER", "restrictiveAgreement": true, "otherDetails": "The Clinical Trial Agreement generally does not restrict an investigator's discussion of trial results after completion. The Agreement permits Amgen a limited period of time to review material discussing trial results (typically up to 45 days and possible extension). Amgen may remove confidential information, but authors have final control and approval of publication content. For multicenter studies, the investigator agrees not to publish any results before the first multi-center publication."}, "pointOfContact": {"title": "Study Director", "organization": "Amgen Inc.", "email": "medinfo@amgen.com", "phone": "866-572-6436"}}}, "documentSection": {"largeDocumentModule": {"largeDocs": [{"typeAbbrev": "Prot", "hasProtocol": true, "hasSap": false, "hasIcf": false, "label": "Study Protocol", "date": "2015-10-23", "uploadDate": "2020-10-01T14:17", "filename": "Prot_002.pdf", "size": 1691168}, {"typeAbbrev": "SAP", "hasProtocol": false, "hasSap": true, "hasIcf": false, "label": "Statistical Analysis Plan", "date": "2016-02-29", "uploadDate": "2020-01-23T07:43", "filename": "SAP_001.pdf", "size": 1039614}]}}, "derivedSection": {"miscInfoModule": {"versionHolder": "2024-06-24"}, "conditionBrowseModule": {"meshes": [{"id": "D000006333", "term": "Heart Failure"}], "ancestors": [{"id": "D000006331", "term": "Heart Diseases"}, {"id": "D000002318", "term": "Cardiovascular Diseases"}], "browseLeaves": [{"id": "M9421", "name": "Heart Failure", "asFound": "Heart Failure", "relevance": "HIGH"}, {"id": "M9419", "name": "Heart Diseases", "relevance": "LOW"}], "browseBranches": [{"abbrev": "BC14", "name": "Heart and Blood Diseases"}, {"abbrev": "All", "name": "All Conditions"}]}}, "hasResults": true}