{"protocolSection": {"identificationModule": {"nctId": "NCT03769090", "orgStudyIdInfo": {"id": "AV003"}, "organization": {"fullName": "Bond Avillion 2 Development LP", "class": "INDUSTRY"}, "briefTitle": "A Study to Assess the Efficacy and Safety of Budesonide/Albuterol Metered-dose Inhaler (BDA MDI/PT027) in Adults and Children 4 Years of Age or Older With Asthma", "officialTitle": "A Long-term, Randomized, Double-blind, Multicenter, Parallel-group, Phase III Study Evaluating the Efficacy and Safety of PT027 Compared to PT007 Administered as Needed in Response to Symptoms in Symptomatic Adults and Children 4 Years of Age or Older With Asthma", "acronym": "MANDALA"}, "statusModule": {"statusVerifiedDate": "2022-09", "overallStatus": "COMPLETED", "expandedAccessInfo": {"hasExpandedAccess": false}, "startDateStruct": {"date": "2018-12-13", "type": "ACTUAL"}, "primaryCompletionDateStruct": {"date": "2021-08-19", "type": "ACTUAL"}, "completionDateStruct": {"date": "2022-02-07", "type": "ACTUAL"}, "studyFirstSubmitDate": "2018-11-30", "studyFirstSubmitQcDate": "2018-12-06", "studyFirstPostDateStruct": {"date": "2018-12-07", "type": "ACTUAL"}, "resultsFirstSubmitDate": "2022-07-29", "resultsFirstSubmitQcDate": "2022-09-01", "resultsFirstPostDateStruct": {"date": "2022-09-28", "type": "ACTUAL"}, "lastUpdateSubmitDate": "2022-09-01", "lastUpdatePostDateStruct": {"date": "2022-09-28", "type": "ACTUAL"}}, "sponsorCollaboratorsModule": {"responsibleParty": {"type": "SPONSOR"}, "leadSponsor": {"name": "Bond Avillion 2 Development LP", "class": "INDUSTRY"}}, "oversightModule": {"oversightHasDmc": true, "isFdaRegulatedDrug": true, "isFdaRegulatedDevice": false}, "descriptionModule": {"briefSummary": "This is a randomized, double-blind, multicenter, parallel-group, variable-length study to compare 2 doses of BDA MDI (PT027) with AS MDI (PT007) on the time to first severe asthma exacerbation in adult, adolescent, and pediatric subjects with moderate to severe asthma."}, "conditionsModule": {"conditions": ["Asthma"]}, "designModule": {"studyType": "INTERVENTIONAL", "phases": ["PHASE3"], "designInfo": {"allocation": "RANDOMIZED", "interventionModel": "PARALLEL", "primaryPurpose": "TREATMENT", "maskingInfo": {"masking": "QUADRUPLE", "whoMasked": ["PARTICIPANT", "CARE_PROVIDER", "INVESTIGATOR", "OUTCOMES_ASSESSOR"]}}, "enrollmentInfo": {"count": 3132, "type": "ACTUAL"}}, "armsInterventionsModule": {"armGroups": [{"label": "BDA MDI (PT027) 160/180 \u03bcg", "type": "EXPERIMENTAL", "description": "Budesonide/albuterol sulfate, BDA MDI, PT027 high dose", "interventionNames": ["Combination Product: Budesonide/albuterol sulfate metered-dose inhaler 160/180 \u03bcg"]}, {"label": "BDA MDI (PT027) 80/180 \u03bcg", "type": "EXPERIMENTAL", "description": "Budesonide/albuterol sulfate, BDA MDI, PT027 low dose", "interventionNames": ["Combination Product: Budesonide/albuterol sulfate metered-dose inhaler 80/180 \u03bcg"]}, {"label": "AS MDI (PT007) 180 \u00b5g", "type": "ACTIVE_COMPARATOR", "description": "Albuterol sulfate MDI, PT007", "interventionNames": ["Drug: Albuterol sulfate metered-dose inhaler 180 \u03bcg"]}], "interventions": [{"type": "COMBINATION_PRODUCT", "name": "Budesonide/albuterol sulfate metered-dose inhaler 160/180 \u03bcg", "description": "Budesonide/albuterol sulfate combination inhalation aerosol", "armGroupLabels": ["BDA MDI (PT027) 160/180 \u03bcg"]}, {"type": "COMBINATION_PRODUCT", "name": "Budesonide/albuterol sulfate metered-dose inhaler 80/180 \u03bcg", "description": "Budesonide/albuterol sulfate combination inhalation aerosol", "armGroupLabels": ["BDA MDI (PT027) 80/180 \u03bcg"]}, {"type": "DRUG", "name": "Albuterol sulfate metered-dose inhaler 180 \u03bcg", "description": "Albuterol sulfate inhalation aerosol", "armGroupLabels": ["AS MDI (PT007) 180 \u00b5g"]}]}, "outcomesModule": {"primaryOutcomes": [{"measure": "Number of Participants With a Severe Asthma Exacerbation Event", "description": "Time to first severe asthma exacerbation will be calculated as the time from randomization until the start date of the first severe asthma exacerbation. An asthma exacerbation will be considered severe if it results in at least one of the following: a temporary bolus/burst of systemic corticosteroids for at least 3 consecutive days to treat symptoms of asthma worsening (a single depo-injectable dose of corticosteroids will be considered equivalent), an emergency room or urgent care visit (\\<24 hours in the facility for evaluation and treatment) due to asthma that required systemic corticosteroids, or an in-patient hospitalization (admission to an in-patient facility and/or \u2265 24 hours in a healthcare facility) due to asthma. The descriptive summary shows the number of participants with a severe exacerbation event, occurring between the date of randomization up to the date of randomized treatment discontinuation or a change in maintenance therapy.", "timeFrame": "From randomization up to a discontinuation of randomized treatment or a change in maintenance therapy. The mean and median reporting period for all participants was 44 and 48 weeks, respectively."}], "secondaryOutcomes": [{"measure": "Annualized Severe Exacerbation Rate", "description": "The annualized severe exacerbation rate (severe exacerbations per year) is estimated from a negative binomial model with treatment, age group, region, and number of severe exacerbations in the last 12 months prior to randomization as categorical covariates. The logarithm of the time at risk is included as an offset variable.", "timeFrame": "From randomization up to discontinuation of randomized treatment or a change in maintenance therapy. The mean and median reporting period for all participants was 44 and 48 weeks, respectively."}, {"measure": "Total Annualized Dose of Systemic Corticosteroid (SCS)", "description": "This endpoint includes all systemic corticosteroids (SCS) taken in response to a severe exacerbation event from randomization up to randomized treatment discontinuation or a change in maintenance therapy. All SCS are standardized to equipotent doses of prednisone before deriving the total dose. The total annualized dose is calculated as the total dose of SCS divided by the duration of the randomized treatment period.", "timeFrame": "From randomization up to discontinuation of randomized treatment or a change in maintenance therapy. The mean and median reporting period for all participants was 44 and 48 weeks, respectively."}, {"measure": "Asthma Control Questionnaire-5 (ACQ-5) - Number of Participants Who Were Responders at Week 24", "description": "The ACQ-5 consists of 5 questions on symptom control, with each scored on a 7-point scale (0 = excellent asthma control; 6 = extremely poor control). The overall score (0 = excellent asthma control; 6 = extremely poor control, so a lower score is the better outcome) is the mean of the 5 symptom items. A responder is defined as a participant with a decrease from baseline to Week 24 overall ACQ-5 score of 0.5 or more. ACQ-5 is not validated for children less than 6 years old, data for participants who were 4 or 5 years old was excluded from the analysis of ACQ-5.", "timeFrame": "From baseline to Week 24"}, {"measure": "Asthma Quality of Life Questionnaire for Participants Aged 12 Years and Older (AQLQ+12) - Number of Participants Who Were Responders at Week 24", "description": "The AQLQ+12 consists of 32 questions in 4 domains and is assessed on separate 7-point Likert scales from 1 to 7, with higher values indicating better health-related quality of life. The overall score is the mean of all responses. A responder is defined as a participant with an increase from baseline to week 24 AQLQ-12 score of at least 0.5.", "timeFrame": "From baseline to 24 weeks"}]}, "eligibilityModule": {"eligibilityCriteria": "Inclusion Criteria:\n\n1. Female or male aged \u22654 years at the time of informed consent\n2. Physician diagnosis of asthma documented for at least 1 year\n3. Receiving 1 of the following scheduled asthma maintenance therapies for 3 months with stable dosing for at least the last 4 weeks before Visit 1:\n\n   * Medium-to-high-dose inhaled corticosteroid (ICS)\n   * Medium-to-high-dose ICS and 1 additional maintenance therapy from the following: leukotriene receptor antagonists (LTRA), long-acting muscarinic antagonists (LAMA), or theophylline\n   * Low-to-high-dose ICS in combination with long-acting \u03b22-adrenoreceptor agonist (LABA) with or without one additional maintenance therapy from the following: LTRA, LAMA, or theophylline\n4. Prebronchodilator forced expiratory volume in 1 second (FEV1) of \u226540 to \\<90% predicted normal value for adults and adolescents, and \u226560 to \\<100% predicted normal value for subjects aged 4 to 11 years after withholding specified medications including short/rapid-acting \u03b22-adrenoreceptor agonist (SABA)\n5. Demonstrate reversibility at Visit 1, with an increase in FEV1 \u226512% (and \u2265200 mL for subjects aged \u226518 years) relative to baseline after administration of sponsor provided Ventolin via central spirometry. One re-test for reversibility testing is allowed within the screening period in advance of Visit 2\n6. Demonstrate acceptable spirometry performance (i.e., meet American Thoracic Society/European Respiratory Society acceptability/repeatability criteria)\n7. A documented history of at least 1 severe asthma exacerbation within 12 months before Visit 1\n8. Able to perform acceptable and reproducible peak expiratory flow (PEF) measurements as assessed by the investigator\n\nExclusion Criteria:\n\n1. Chronic obstructive pulmonary disease or other significant lung disease (e.g., chronic bronchitis, emphysema, bronchiectasis with the need of treatment, cystic fibrosis, or bronchopulmonary dysplasia)\n2. Oral corticosteroid/SCS use (any dose and any indication) within 6 weeks before Visit 1\n3. Chronic use of oral corticosteroids (OCS, \u22653 weeks use in 3 months prior to Visit 1)\n4. Having received any marketed (e.g., omalizumab, mepolizumab, reslizumab, benralizumab) or investigational biologic within 3 months or any other prohibited medication\n5. Current smokers, former smokers with \\>10 pack-years history, or former smokers who stopped smoking \\<6 months before Visit 1 (including all forms of tobacco, e-cigarettes \\[vaping\\], and marijuana)\n6. Life-threatening asthma defined as any history of significant asthma episode(s) requiring intubation associated with hypercapnia, respiratory arrest, hypoxic seizures, or asthma related syncopal episode(s) within 5 years of Visit 1\n7. Historical or current evidence of a clinically significant disease\n8. Cancer not in complete remission for at least 5 years\n9. Hospitalization for psychiatric disorder or attempted suicide within 1 year of Visit 1\n10. History of psychiatric disease, intellectual deficiency, poor motivation, or other conditions if their magnitude is limiting informed consent validity\n11. Significant abuse of alcohol or drugs", "healthyVolunteers": false, "sex": "ALL", "minimumAge": "4 Years", "stdAges": ["CHILD", "ADULT", "OLDER_ADULT"]}, "contactsLocationsModule": {"overallOfficials": [{"name": "Frank Albers, MD, PhD", "affiliation": "Avillion LLP", "role": "STUDY_DIRECTOR"}], "locations": [{"facility": "Research Site", "city": "Birmingham", "state": "Alabama", "zip": "35209", "country": "United States", "geoPoint": {"lat": 33.52066, "lon": -86.80249}}, {"facility": "Research Site", "city": "Huntsville", "state": "Alabama", "zip": "35801", "country": "United States", "geoPoint": {"lat": 34.7304, "lon": -86.58594}}, {"facility": "Research Site", "city": "Mobile", "state": "Alabama", "zip": "36608", "country": "United States", "geoPoint": {"lat": 30.69436, "lon": -88.04305}}, {"facility": "Research Site", "city": "Montgomery", "state": "Alabama", "zip": "36106", "country": "United States", "geoPoint": {"lat": 32.36681, "lon": -86.29997}}, {"facility": "Research Site", "city": "Scottsboro", "state": "Alabama", "zip": "35768", "country": "United States", "geoPoint": {"lat": 34.67231, "lon": -86.03415}}, {"facility": "Research Site", "city": "Sheffield", "state": "Alabama", "zip": "35660", "country": "United States", "geoPoint": {"lat": 34.76509, "lon": -87.69864}}, {"facility": "Research Site", "city": "Tuscumbia", "state": "Alabama", "zip": "35674", "country": "United States", "geoPoint": {"lat": 34.7312, "lon": -87.70253}}, {"facility": "Research Site", "city": "Glendale", "state": "Arizona", "zip": "85306", "country": "United States", "geoPoint": {"lat": 33.53865, "lon": -112.18599}}, {"facility": "Research Site", "city": "Peoria", "state": "Arizona", "zip": "85381", "country": "United States", "geoPoint": {"lat": 33.5806, "lon": -112.23738}}, {"facility": "Research Site", "city": "Scottsdale", "state": "Arizona", "zip": "85251", "country": "United States", "geoPoint": {"lat": 33.50921, "lon": -111.89903}}, {"facility": "Research Site", "city": "Little Rock", "state": "Arkansas", "zip": "72209", "country": "United States", "geoPoint": {"lat": 34.74648, "lon": -92.28959}}, {"facility": "Research Site", "city": "Bakersfield", "state": "California", "zip": "93301", "country": "United States", "geoPoint": {"lat": 35.37329, "lon": -119.01871}}, {"facility": "Research Site", "city": "Bellflower", "state": "California", "zip": "90706", "country": "United States", "geoPoint": {"lat": 33.88168, "lon": -118.11701}}, {"facility": "Research Site", "city": "Canoga Park", "state": "California", "zip": "91304", "country": "United States", "geoPoint": {"lat": 34.20112, "lon": -118.59814}}, {"facility": "Research Site", "city": "Encinitas", "state": "California", "zip": "92024", "country": "United States", "geoPoint": {"lat": 33.03699, "lon": -117.29198}}, {"facility": "Research Site", "city": "Hawthorne", "state": "California", "zip": "90250", "country": "United States", "geoPoint": {"lat": 33.9164, "lon": -118.35257}}, {"facility": "Research Site", "city": "Long Beach", "state": "California", "zip": "90806", "country": "United States", "geoPoint": {"lat": 33.76696, "lon": -118.18923}}, {"facility": "Research Site", "city": "Los Angeles", "state": "California", "zip": "90017", "country": "United States", "geoPoint": {"lat": 34.05223, "lon": -118.24368}}, {"facility": "Research Site", "city": "Los Angeles", "state": "California", "zip": "90025", "country": "United States", "geoPoint": {"lat": 34.05223, "lon": -118.24368}}, {"facility": "Research Site", "city": "Los Angeles", "state": "California", "zip": "90048", "country": "United States", "geoPoint": {"lat": 34.05223, "lon": -118.24368}}, {"facility": "Research Site", "city": "Newport Beach", "state": "California", "zip": "92663", "country": "United States", "geoPoint": {"lat": 33.61891, "lon": -117.92895}}, {"facility": "Research Site", "city": "Rancho Cucamonga", "state": "California", "zip": "91730", "country": "United States", "geoPoint": {"lat": 34.1064, "lon": -117.59311}}, {"facility": "Research Site", "city": "Redwood City", "state": "California", "zip": "94063", "country": "United States", "geoPoint": {"lat": 37.48522, "lon": -122.23635}}, {"facility": "Research Site", "city": "Sacramento", "state": "California", "zip": "95823", "country": "United States", "geoPoint": {"lat": 38.58157, "lon": -121.4944}}, {"facility": "Research Site", "city": "San Diego", "state": "California", "zip": "92120", "country": "United States", "geoPoint": {"lat": 32.71533, "lon": -117.15726}}, {"facility": "Research Site", "city": "San Francisco", "state": "California", "zip": "94102", "country": "United States", "geoPoint": {"lat": 37.77493, "lon": -122.41942}}, {"facility": "Research Site", "city": "San Jose", "state": "California", "zip": "95117", "country": "United States", "geoPoint": {"lat": 37.33939, "lon": -121.89496}}, {"facility": "Research Site", "city": "Westminster", "state": "California", "zip": "92683", "country": "United States", "geoPoint": {"lat": 33.75918, "lon": -118.00673}}, {"facility": "Research Site", "city": "Aurora", "state": "Colorado", "zip": "80045", "country": "United States", "geoPoint": {"lat": 39.72943, "lon": -104.83192}}, {"facility": "Research Site", "city": "Colorado Springs", "state": "Colorado", "zip": "80907", "country": "United States", "geoPoint": {"lat": 38.83388, "lon": -104.82136}}, {"facility": "Research Site", "city": "Colorado Springs", "state": "Colorado", "zip": "80909", "country": "United States", "geoPoint": {"lat": 38.83388, "lon": -104.82136}}, {"facility": "Research Site", "city": "Denver", "state": "Colorado", "zip": "80206", "country": "United States", "geoPoint": {"lat": 39.73915, "lon": -104.9847}}, {"facility": "Research Site", "city": "Denver", "state": "Colorado", "zip": "80230", "country": "United States", "geoPoint": {"lat": 39.73915, "lon": -104.9847}}, {"facility": "Research Site", "city": "Denver", "state": "Colorado", "zip": "80246", "country": "United States", "geoPoint": {"lat": 39.73915, "lon": -104.9847}}, {"facility": "Research Site", "city": "Waterbury", "state": "Connecticut", "zip": "06708", "country": "United States", "geoPoint": {"lat": 41.55815, "lon": -73.0515}}, {"facility": "Research Site", "city": "Aventura", "state": "Florida", "zip": "33180", "country": "United States", "geoPoint": {"lat": 25.95648, "lon": -80.13921}}, {"facility": "Research Site", "city": "Boynton Beach", "state": "Florida", "zip": "33436", "country": "United States", "geoPoint": {"lat": 26.52535, "lon": -80.06643}}, {"facility": "Research Site", "city": "Cape Coral", "state": "Florida", "zip": "33991", "country": "United States", "geoPoint": {"lat": 26.56285, "lon": -81.94953}}, {"facility": "Research Site", "city": "Clearwater", "state": "Florida", "zip": "33756", "country": "United States", "geoPoint": {"lat": 27.96585, "lon": -82.8001}}, {"facility": "Research Site", "city": "Clearwater", "state": "Florida", "zip": "33765", "country": "United States", "geoPoint": {"lat": 27.96585, "lon": -82.8001}}, {"facility": "Research Site", "city": "DeLand", "state": "Florida", "zip": "32720", "country": "United States", "geoPoint": {"lat": 29.02832, "lon": -81.30312}}, {"facility": "Research Site", "city": "Gainesville", "state": "Florida", "zip": "32653", "country": "United States", "geoPoint": {"lat": 29.65163, "lon": -82.32483}}, {"facility": "Research Site", "city": "Greenacres City", "state": "Florida", "zip": "33467", "country": "United States", "geoPoint": {"lat": 26.62368, "lon": -80.12532}}, {"facility": "Research Site", "city": "Hialeah", "state": "Florida", "zip": "33012", "country": "United States", "geoPoint": {"lat": 25.8576, "lon": -80.27811}}, {"facility": "Research Site", "city": "Kissimmee", "state": "Florida", "zip": "34741", "country": "United States", "geoPoint": {"lat": 28.30468, "lon": -81.41667}}, {"facility": "Research Site", "city": "Miami", "state": "Florida", "zip": "33125", "country": "United States", "geoPoint": {"lat": 25.77427, "lon": -80.19366}}, {"facility": "Research Site", "city": "Miami", "state": "Florida", "zip": "33126", "country": "United States", "geoPoint": {"lat": 25.77427, "lon": -80.19366}}, {"facility": "Research Site", "city": "Miami", "state": "Florida", "zip": "33135", "country": "United States", "geoPoint": {"lat": 25.77427, "lon": -80.19366}}, {"facility": "Research Site", "city": "Miami", "state": "Florida", "zip": "33144", "country": "United States", "geoPoint": {"lat": 25.77427, "lon": -80.19366}}, {"facility": "Research Site", "city": "Miami", "state": "Florida", "zip": "33173", "country": "United States", "geoPoint": {"lat": 25.77427, "lon": -80.19366}}, {"facility": "Research Site", "city": "Miami", "state": "Florida", "zip": "33174", "country": "United States", "geoPoint": {"lat": 25.77427, "lon": -80.19366}}, {"facility": "Research Site", "city": "Miami", "state": "Florida", "zip": "33175", "country": "United States", "geoPoint": {"lat": 25.77427, "lon": -80.19366}}, {"facility": "Research Site", "city": "Miami", "state": "Florida", "zip": "33186", "country": "United States", "geoPoint": {"lat": 25.77427, "lon": -80.19366}}, {"facility": "Research Site", "city": "Orlando", "state": "Florida", "zip": "32806", "country": "United States", "geoPoint": {"lat": 28.53834, "lon": -81.37924}}, {"facility": "Research Site", "city": "Orlando", "state": "Florida", "zip": "32819", "country": "United States", "geoPoint": {"lat": 28.53834, "lon": -81.37924}}, {"facility": "Research Site", "city": "Oviedo", "state": "Florida", "zip": "32765", "country": "United States", "geoPoint": {"lat": 28.67, "lon": -81.20812}}, {"facility": "Research Site", "city": "Palmetto Bay", "state": "Florida", "zip": "33157", "country": "United States", "geoPoint": {"lat": 25.62177, "lon": -80.32477}}, {"facility": "Research Site", "city": "Panama City", "state": "Florida", "zip": "32405", "country": "United States", "geoPoint": {"lat": 30.15946, "lon": -85.65983}}, {"facility": "Research Site", "city": "Pembroke Pines", "state": "Florida", "zip": "33024", "country": "United States", "geoPoint": {"lat": 26.00315, "lon": -80.22394}}, {"facility": "Research Site", "city": "Pembroke Pines", "state": "Florida", "zip": "33026", "country": "United States", "geoPoint": {"lat": 26.00315, "lon": -80.22394}}, {"facility": "Research Site", "city": "Saint Petersburg", "state": "Florida", "zip": "33707", "country": "United States", "geoPoint": {"lat": 27.77086, "lon": -82.67927}}, {"facility": "Research Site", "city": "Saint Petersburg", "state": "Florida", "zip": "33710", "country": "United States", "geoPoint": {"lat": 27.77086, "lon": -82.67927}}, {"facility": "Research Site", "city": "Albany", "state": "Georgia", "zip": "31707", "country": "United States", "geoPoint": {"lat": 31.57851, "lon": -84.15574}}, {"facility": "Research Site", "city": "Winder", "state": "Georgia", "zip": "30680", "country": "United States", "geoPoint": {"lat": 33.99261, "lon": -83.72017}}, {"facility": "Research Site", "city": "Meridian", "state": "Idaho", "zip": "83646", "country": "United States", "geoPoint": {"lat": 43.61211, "lon": -116.39151}}, {"facility": "Research Site", "city": "Chicago", "state": "Illinois", "zip": "60644", "country": "United States", "geoPoint": {"lat": 41.85003, "lon": -87.65005}}, {"facility": "Research Site", "city": "Normal", "state": "Illinois", "zip": "61761", "country": "United States", "geoPoint": {"lat": 40.5142, "lon": -88.99063}}, {"facility": "Research Site", "city": "Iowa City", "state": "Iowa", "zip": "52242", "country": "United States", "geoPoint": {"lat": 41.66113, "lon": -91.53017}}, {"facility": "Research Site", "city": "Overland Park", "state": "Kansas", "zip": "66210", "country": "United States", "geoPoint": {"lat": 38.98223, "lon": -94.67079}}, {"facility": "Research Site", "city": "Topeka", "state": "Kansas", "zip": "66606", "country": "United States", "geoPoint": {"lat": 39.04833, "lon": -95.67804}}, {"facility": "Research Site", "city": "Owensboro", "state": "Kentucky", "zip": "42301", "country": "United States", "geoPoint": {"lat": 37.77422, "lon": -87.11333}}, {"facility": "Research Site", "city": "Bangor", "state": "Maine", "zip": "04401", "country": "United States", "geoPoint": {"lat": 44.80118, "lon": -68.77781}}, {"facility": "Research Site", "city": "Baltimore", "state": "Maryland", "zip": "21209", "country": "United States", "geoPoint": {"lat": 39.29038, "lon": -76.61219}}, {"facility": "Research Site", "city": "Chevy Chase", "state": "Maryland", "zip": "20815", "country": "United States", "geoPoint": {"lat": 39.00287, "lon": -77.07115}}, {"facility": "Research Site", "city": "White Marsh", "state": "Maryland", "zip": "21162", "country": "United States", "geoPoint": {"lat": 39.38372, "lon": -76.43218}}, {"facility": "Research Site", "city": "Boston", "state": "Massachusetts", "zip": "02115", "country": "United States", "geoPoint": {"lat": 42.35843, "lon": -71.05977}}, {"facility": "Research Site", "city": "Fall River", "state": "Massachusetts", "zip": "02723", "country": "United States", "geoPoint": {"lat": 41.70149, "lon": -71.15505}}, {"facility": "Research Site", "city": "North Dartmouth", "state": "Massachusetts", "zip": "02747", "country": "United States", "geoPoint": {"lat": 41.63899, "lon": -70.97032}}, {"facility": "Research Site", "city": "Ann Arbor", "state": "Michigan", "zip": "48106", "country": "United States", "geoPoint": {"lat": 42.27756, "lon": -83.74088}}, {"facility": "Research Site", "city": "Ann Arbor", "state": "Michigan", "zip": "48109", "country": "United States", "geoPoint": {"lat": 42.27756, "lon": -83.74088}}, {"facility": "Research Site", "city": "Farmington Hills", "state": "Michigan", "zip": "48336", "country": "United States", "geoPoint": {"lat": 42.48531, "lon": -83.37716}}, {"facility": "Research Site", "city": "Flint", "state": "Michigan", "zip": "48504", "country": "United States", "geoPoint": {"lat": 43.01253, "lon": -83.68746}}, {"facility": "Research Site", "city": "Flint", "state": "Michigan", "zip": "48507", "country": "United States", "geoPoint": {"lat": 43.01253, "lon": -83.68746}}, {"facility": "Research Site", "city": "Hamtramck", "state": "Michigan", "zip": "48212", "country": "United States", "geoPoint": {"lat": 42.39282, "lon": -83.04964}}, {"facility": "Research Site", "city": "Rochester Hills", "state": "Michigan", "zip": "48307", "country": "United States", "geoPoint": {"lat": 42.65837, "lon": -83.14993}}, {"facility": "Research Site", "city": "Rochester", "state": "Michigan", "zip": "48307", "country": "United States", "geoPoint": {"lat": 42.68059, "lon": -83.13382}}, {"facility": "Research Site", "city": "Ypsilanti", "state": "Michigan", "zip": "48197", "country": "United States", "geoPoint": {"lat": 42.24115, "lon": -83.61299}}, {"facility": "Research Site", "city": "Hazelwood", "state": "Missouri", "zip": "63042", "country": "United States", "geoPoint": {"lat": 38.77144, "lon": -90.37095}}, {"facility": "Research Site", "city": "Saint Louis", "state": "Missouri", "zip": "63110", "country": "United States", "geoPoint": {"lat": 38.62727, "lon": -90.19789}}, {"facility": "Research Site", "city": "Saint Louis", "state": "Missouri", "zip": "63141", "country": "United States", "geoPoint": {"lat": 38.62727, "lon": -90.19789}}, {"facility": "Research Site", "city": "Bellevue", "state": "Nebraska", "zip": "68005", "country": "United States", "geoPoint": {"lat": 41.13667, "lon": -95.89084}}, {"facility": "Research Site", "city": "Bellevue", "state": "Nebraska", "zip": "68123", "country": "United States", "geoPoint": {"lat": 41.13667, "lon": -95.89084}}, {"facility": "Research Site", "city": "Lincoln", "state": "Nebraska", "zip": "68505", "country": "United States", "geoPoint": {"lat": 40.8, "lon": -96.66696}}, {"facility": "Research Site", "city": "Las Vegas", "state": "Nevada", "zip": "89106", "country": "United States", "geoPoint": {"lat": 36.17497, "lon": -115.13722}}, {"facility": "Research Site", "city": "Brick", "state": "New Jersey", "zip": "08724", "country": "United States", "geoPoint": {"lat": 40.05928, "lon": -74.13708}}, {"facility": "Research Site", "city": "Marlton", "state": "New Jersey", "zip": "08053", "country": "United States", "geoPoint": {"lat": 39.89122, "lon": -74.92183}}, {"facility": "Research Site", "city": "New Brunswick", "state": "New Jersey", "zip": "08901", "country": "United States", "geoPoint": {"lat": 40.48622, "lon": -74.45182}}, {"facility": "Research Site", "city": "Toms River", "state": "New Jersey", "zip": "08755", "country": "United States", "geoPoint": {"lat": 39.95373, "lon": -74.19792}}, {"facility": "Research Site", "city": "Albuquerque", "state": "New Mexico", "zip": "87131", "country": "United States", "geoPoint": {"lat": 35.08449, "lon": -106.65114}}, {"facility": "Research Site", "city": "Bronx", "state": "New York", "zip": "10461", "country": "United States", "geoPoint": {"lat": 40.84985, "lon": -73.86641}}, {"facility": "Research Site", "city": "Brooklyn", "state": "New York", "zip": "11230", "country": "United States", "geoPoint": {"lat": 40.6501, "lon": -73.94958}}, {"facility": "Research Site", "city": "New Hyde Park", "state": "New York", "zip": "11040", "country": "United States", "geoPoint": {"lat": 40.7351, "lon": -73.68791}}, {"facility": "Research Site", "city": "Potsdam", "state": "New York", "zip": "13676", "country": "United States", "geoPoint": {"lat": 44.66978, "lon": -74.98131}}, {"facility": "Research Site", "city": "Asheville", "state": "North Carolina", "zip": "28801", "country": "United States", "geoPoint": {"lat": 35.60095, "lon": -82.55402}}, {"facility": "Research Site", "city": "Charlotte", "state": "North Carolina", "zip": "28207", "country": "United States", "geoPoint": {"lat": 35.22709, "lon": -80.84313}}, {"facility": "Research Site", "city": "Charlotte", "state": "North Carolina", "zip": "28210", "country": "United States", "geoPoint": {"lat": 35.22709, "lon": -80.84313}}, {"facility": "Research Site", "city": "Charlotte", "state": "North Carolina", "zip": "28277", "country": "United States", "geoPoint": {"lat": 35.22709, "lon": -80.84313}}, {"facility": "Research Site", "city": "Gastonia", "state": "North Carolina", "zip": "28054", "country": "United States", "geoPoint": {"lat": 35.26208, "lon": -81.1873}}, {"facility": "Research Site", "city": "High Point", "state": "North Carolina", "zip": "27262", "country": "United States", "geoPoint": {"lat": 35.95569, "lon": -80.00532}}, {"facility": "Research Site", "city": "Monroe", "state": "North Carolina", "zip": "28112", "country": "United States", "geoPoint": {"lat": 34.98543, "lon": -80.54951}}, {"facility": "Research Site", "city": "Raleigh", "state": "North Carolina", "zip": "27607", "country": "United States", "geoPoint": {"lat": 35.7721, "lon": -78.63861}}, {"facility": "Research Site", "city": "Winston-Salem", "state": "North Carolina", "zip": "27104", "country": "United States", "geoPoint": {"lat": 36.09986, "lon": -80.24422}}, {"facility": "Research Site", "city": "Fargo", "state": "North Dakota", "zip": "58104", "country": "United States", "geoPoint": {"lat": 46.87719, "lon": -96.7898}}, {"facility": "Research Site", "city": "Cincinnati", "state": "Ohio", "zip": "45231", "country": "United States", "geoPoint": {"lat": 39.12713, "lon": -84.51435}}, {"facility": "Research Site", "city": "Cincinnati", "state": "Ohio", "zip": "45242", "country": "United States", "geoPoint": {"lat": 39.12713, "lon": -84.51435}}, {"facility": "Research Site", "city": "Columbus", "state": "Ohio", "zip": "43207", "country": "United States", "geoPoint": {"lat": 39.96118, "lon": -82.99879}}, {"facility": "Research Site", "city": "Dayton", "state": "Ohio", "zip": "45406", "country": "United States", "geoPoint": {"lat": 39.75895, "lon": -84.19161}}, {"facility": "Research Site", "city": "Dayton", "state": "Ohio", "zip": "45459", "country": "United States", "geoPoint": {"lat": 39.75895, "lon": -84.19161}}, {"facility": "Research Site", "city": "Dublin", "state": "Ohio", "zip": "43016", "country": "United States", "geoPoint": {"lat": 40.09923, "lon": -83.11408}}, {"facility": "Research Site", "city": "Mayfield Heights", "state": "Ohio", "zip": "44124", "country": "United States", "geoPoint": {"lat": 41.51922, "lon": -81.4579}}, {"facility": "Research Site", "city": "Edmond", "state": "Oklahoma", "zip": "73034", "country": "United States", "geoPoint": {"lat": 35.65283, "lon": -97.4781}}, {"facility": "Research Site", "city": "Oklahoma City", "state": "Oklahoma", "zip": "73112", "country": "United States", "geoPoint": {"lat": 35.46756, "lon": -97.51643}}, {"facility": "Research Site", "city": "Tulsa", "state": "Oklahoma", "zip": "74136", "country": "United States", "geoPoint": {"lat": 36.15398, "lon": -95.99277}}, {"facility": "Research Site", "city": "Medford", "state": "Oregon", "zip": "97504", "country": "United States", "geoPoint": {"lat": 42.32652, "lon": -122.87559}}, {"facility": "Research Site", "city": "Blue Bell", "state": "Pennsylvania", "zip": "19422", "country": "United States", "geoPoint": {"lat": 40.15233, "lon": -75.26629}}, {"facility": "Research Site", "city": "Erie", "state": "Pennsylvania", "zip": "16508", "country": "United States", "geoPoint": {"lat": 42.12922, "lon": -80.08506}}, {"facility": "Research Site", "city": "Philadelphia", "state": "Pennsylvania", "zip": "19140", "country": "United States", "geoPoint": {"lat": 39.95233, "lon": -75.16379}}, {"facility": "Research Site", "city": "Pittsburgh", "state": "Pennsylvania", "zip": "15241", "country": "United States", "geoPoint": {"lat": 40.44062, "lon": -79.99589}}, {"facility": "Research Site", "city": "East Providence", "state": "Rhode Island", "zip": "02914", "country": "United States", "geoPoint": {"lat": 41.81371, "lon": -71.37005}}, {"facility": "Research Site", "city": "Providence", "state": "Rhode Island", "zip": "02908", "country": "United States", "geoPoint": {"lat": 41.82399, "lon": -71.41283}}, {"facility": "Research Site", "city": "Warwick", "state": "Rhode Island", "zip": "02886", "country": "United States", "geoPoint": {"lat": 41.7001, "lon": -71.41617}}, {"facility": "Research Site", "city": "Anderson", "state": "South Carolina", "zip": "29621", "country": "United States", "geoPoint": {"lat": 34.50344, "lon": -82.65013}}, {"facility": "Research Site", "city": "Clinton", "state": "South Carolina", "zip": "29325", "country": "United States", "geoPoint": {"lat": 34.47263, "lon": -81.88066}}, {"facility": "Research Site", "city": "Columbia", "state": "South Carolina", "zip": "29203", "country": "United States", "geoPoint": {"lat": 34.00071, "lon": -81.03481}}, {"facility": "Research Site", "city": "Gaffney", "state": "South Carolina", "zip": "29341", "country": "United States", "geoPoint": {"lat": 35.07179, "lon": -81.64982}}, {"facility": "Research Site", "city": "Greenville", "state": "South Carolina", "zip": "29607", "country": "United States", "geoPoint": {"lat": 34.85262, "lon": -82.39401}}, {"facility": "Research Site", "city": "Mount Pleasant", "state": "South Carolina", "zip": "29464", "country": "United States", "geoPoint": {"lat": 32.79407, "lon": -79.86259}}, {"facility": "Research Site", "city": "Myrtle Beach", "state": "South Carolina", "zip": "29588", "country": "United States", "geoPoint": {"lat": 33.68906, "lon": -78.88669}}, {"facility": "Research Site", "city": "North Charleston", "state": "South Carolina", "zip": "29420", "country": "United States", "geoPoint": {"lat": 32.85462, "lon": -79.97481}}, {"facility": "Research Site", "city": "Pelzer", "state": "South Carolina", "zip": "29669", "country": "United States", "geoPoint": {"lat": 34.64234, "lon": -82.45596}}, {"facility": "Research Site", "city": "Rock Hill", "state": "South Carolina", "zip": "29732", "country": "United States", "geoPoint": {"lat": 34.92487, "lon": -81.02508}}, {"facility": "Research Site", "city": "Spartanburg", "state": "South Carolina", "zip": "29303", "country": "United States", "geoPoint": {"lat": 34.94957, "lon": -81.93205}}, {"facility": "Research Site", "city": "Austin", "state": "Texas", "zip": "78726", "country": "United States", "geoPoint": {"lat": 30.26715, "lon": -97.74306}}, {"facility": "Research Site", "city": "Austin", "state": "Texas", "zip": "78759", "country": "United States", "geoPoint": {"lat": 30.26715, "lon": -97.74306}}, {"facility": "Research Site", "city": "Beaumont", "state": "Texas", "zip": "77702", "country": "United States", "geoPoint": {"lat": 30.08605, "lon": -94.10185}}, {"facility": "Research Site", "city": "Boerne", "state": "Texas", "zip": "78006", "country": "United States", "geoPoint": {"lat": 29.79466, "lon": -98.73197}}, {"facility": "Research Site", "city": "Conroe", "state": "Texas", "zip": "77384", "country": "United States", "geoPoint": {"lat": 30.31188, "lon": -95.45605}}, {"facility": "Research Site", "city": "Corsicana", "state": "Texas", "zip": "75110", "country": "United States", "geoPoint": {"lat": 32.09543, "lon": -96.46887}}, {"facility": "Research Site", "city": "Dallas", "state": "Texas", "zip": "75225", "country": "United States", "geoPoint": {"lat": 32.78306, "lon": -96.80667}}, {"facility": "Research Site", "city": "Dallas", "state": "Texas", "zip": "75231", "country": "United States", "geoPoint": {"lat": 32.78306, "lon": -96.80667}}, {"facility": "Research Site", "city": "Dallas", "state": "Texas", "zip": "75246", "country": "United States", "geoPoint": {"lat": 32.78306, "lon": -96.80667}}, {"facility": "Research Site", "city": "El Paso", "state": "Texas", "zip": "79903", "country": "United States", "geoPoint": {"lat": 31.75872, "lon": -106.48693}}, {"facility": "Research Site", "city": "Galveston", "state": "Texas", "zip": "77555", "country": "United States", "geoPoint": {"lat": 29.30135, "lon": -94.7977}}, {"facility": "Research Site", "city": "Houston", "state": "Texas", "zip": "77036", "country": "United States", "geoPoint": {"lat": 29.76328, "lon": -95.36327}}, {"facility": "Research Site", "city": "Kerrville", "state": "Texas", "zip": "78028", "country": "United States", "geoPoint": {"lat": 30.04743, "lon": -99.14032}}, {"facility": "Research Site", "city": "Live Oak", "state": "Texas", "zip": "78233", "country": "United States", "geoPoint": {"lat": 29.56523, "lon": -98.3364}}, {"facility": "Research Site", "city": "McKinney", "state": "Texas", "zip": "75069", "country": "United States", "geoPoint": {"lat": 33.19762, "lon": -96.61527}}, {"facility": "Research Site", "city": "Pearland", "state": "Texas", "zip": "77584", "country": "United States", "geoPoint": {"lat": 29.56357, "lon": -95.28605}}, {"facility": "Research Site", "city": "San Antonio", "state": "Texas", "zip": "78229", "country": "United States", "geoPoint": {"lat": 29.42412, "lon": -98.49363}}, {"facility": "Research Site", "city": "San Antonio", "state": "Texas", "zip": "78230", "country": "United States", "geoPoint": {"lat": 29.42412, "lon": -98.49363}}, {"facility": "Research Site", "city": "Sherman", "state": "Texas", "zip": "75092", "country": "United States", "geoPoint": {"lat": 33.63566, "lon": -96.60888}}, {"facility": "Research Site", "city": "The Woodlands", "state": "Texas", "zip": "77380", "country": "United States", "geoPoint": {"lat": 30.15799, "lon": -95.48938}}, {"facility": "Research Site", "city": "Tomball", "state": "Texas", "zip": "77375", "country": "United States", "geoPoint": {"lat": 30.09716, "lon": -95.61605}}, {"facility": "Research Site", "city": "Waco", "state": "Texas", "zip": "76712", "country": "United States", "geoPoint": {"lat": 31.54933, "lon": -97.14667}}, {"facility": "Research Site", "city": "Waxahachie", "state": "Texas", "zip": "75165", "country": "United States", "geoPoint": {"lat": 32.38653, "lon": -96.84833}}, {"facility": "Research Site", "city": "Murray", "state": "Utah", "zip": "84107", "country": "United States", "geoPoint": {"lat": 40.66689, "lon": -111.88799}}, {"facility": "Research Site", "city": "Salt Lake City", "state": "Utah", "zip": "84107", "country": "United States", "geoPoint": {"lat": 40.76078, "lon": -111.89105}}, {"facility": "Research Site", "city": "South Burlington", "state": "Vermont", "zip": "05403", "country": "United States", "geoPoint": {"lat": 44.46699, "lon": -73.17096}}, {"facility": "Research Site", "city": "Morgantown", "state": "West Virginia", "zip": "26505", "country": "United States", "geoPoint": {"lat": 39.62953, "lon": -79.9559}}, {"facility": "Research Site", "city": "Greenfield", "state": "Wisconsin", "zip": "53228", "country": "United States", "geoPoint": {"lat": 42.9614, "lon": -88.01259}}, {"facility": "Research Site", "city": "Buenos Aires", "zip": "C1121ABE", "country": "Argentina", "geoPoint": {"lat": -34.61315, "lon": -58.37723}}, {"facility": "Research Site", "city": "Buenos Aires", "zip": "C1128AAF", "country": "Argentina", "geoPoint": {"lat": -34.61315, "lon": -58.37723}}, {"facility": "Research Site", "city": "Buenos Aires", "zip": "C1414AJF", "country": "Argentina", "geoPoint": {"lat": -34.61315, "lon": -58.37723}}, {"facility": "Research Site", "city": "Buenos Aires", "zip": "C1424CSF", "country": "Argentina", "geoPoint": {"lat": -34.61315, "lon": -58.37723}}, {"facility": "Research Site", "city": "Buenos Aires", "zip": "C1425BEN", "country": "Argentina", "geoPoint": {"lat": -34.61315, "lon": -58.37723}}, {"facility": "Research Site", "city": "Buenos Aires", "zip": "C1425FVH", "country": "Argentina", "geoPoint": {"lat": -34.61315, "lon": -58.37723}}, {"facility": "Research Site", "city": "C\u00f3rdoba", "zip": "X5003DCE", "country": "Argentina", "geoPoint": {"lat": -31.4135, "lon": -64.18105}}, {"facility": "Research Site", "city": "Florencio Varela", "zip": "CP188", "country": "Argentina", "geoPoint": {"lat": -34.82722, "lon": -58.39556}}, {"facility": "Research Site", "city": "Lan\u00fas", "zip": "B1824KAJ", "country": "Argentina", "geoPoint": {"lat": -34.70252, "lon": -58.3955}}, {"facility": "Research Site", "city": "Mar Del Plata", "zip": "B7602DCK", "country": "Argentina", "geoPoint": {"lat": -38.00228, "lon": -57.55754}}, {"facility": "Research Site", "city": "Mendoza", "zip": "5500", "country": "Argentina", "geoPoint": {"lat": -32.89084, "lon": -68.82717}}, {"facility": "Research Site", "city": "Mendoza", "zip": "M5500GPD", "country": "Argentina", "geoPoint": {"lat": -32.89084, "lon": -68.82717}}, {"facility": "Research Site", "city": "Quilmes", "zip": "1878", "country": "Argentina", "geoPoint": {"lat": -34.72904, "lon": -58.26374}}, {"facility": "Research Site", "city": "Rosario", "zip": "S2000DBS", "country": "Argentina", "geoPoint": {"lat": -32.94682, "lon": -60.63932}}, {"facility": "Research Site", "city": "Rosario", "zip": "S2000DEJ", "country": "Argentina", "geoPoint": {"lat": -32.94682, "lon": -60.63932}}, {"facility": "Research Site", "city": "Rosario", "zip": "S2000JKG", "country": "Argentina", "geoPoint": {"lat": -32.94682, "lon": -60.63932}}, {"facility": "Research Site", "city": "Salta", "zip": "A4400", "country": "Argentina", "geoPoint": {"lat": -24.7859, "lon": -65.41166}}, {"facility": "Research Site", "city": "San Fernando", "zip": "B1646EBJ", "country": "Argentina"}, {"facility": "Research Site", "city": "San Miguel De Tucum\u00e1n", "zip": "T4000CBC", "country": "Argentina", "geoPoint": {"lat": -26.82414, "lon": -65.2226}}, {"facility": "Research Site", "city": "San Miguel De Tucum\u00e1n", "zip": "T4000IAQ", "country": "Argentina", "geoPoint": {"lat": -26.82414, "lon": -65.2226}}, {"facility": "Research Site", "city": "San Miguel De Tucum\u00e1n", "zip": "T4000", "country": "Argentina", "geoPoint": {"lat": -26.82414, "lon": -65.2226}}, {"facility": "Research Site", "city": "Santa Fe", "zip": "2000", "country": "Argentina", "geoPoint": {"lat": -31.63333, "lon": -60.7}}, {"facility": "Research Site", "city": "Santa Fe", "zip": "S3000ASF", "country": "Argentina", "geoPoint": {"lat": -31.63333, "lon": -60.7}}, {"facility": "Research Site", "city": "Vancouver", "state": "British Columbia", "zip": "V5Z 4E1", "country": "Canada", "geoPoint": {"lat": 49.24966, "lon": -123.11934}}, {"facility": "Research Site", "city": "Ajax", "state": "Ontario", "zip": "L1S 2J5", "country": "Canada", "geoPoint": {"lat": 43.85012, "lon": -79.03288}}, {"facility": "Research Site", "city": "Burlington", "state": "Ontario", "zip": "L7N 3V2", "country": "Canada", "geoPoint": {"lat": 43.38621, "lon": -79.83713}}, {"facility": "Research Site", "city": "London", "state": "Ontario", "zip": "N5W 6A2", "country": "Canada", "geoPoint": {"lat": 42.98339, "lon": -81.23304}}, {"facility": "Research Site", "city": "Newmarket", "state": "Ontario", "zip": "L3Y5G8", "country": "Canada", "geoPoint": {"lat": 44.05011, "lon": -79.46631}}, {"facility": "Research Site", "city": "Sudbury", "state": "Ontario", "zip": "P3A 1W8", "country": "Canada", "geoPoint": {"lat": 46.49, "lon": -80.99001}}, {"facility": "Research Site", "city": "Toronto", "state": "Ontario", "zip": "M9V 4B4", "country": "Canada", "geoPoint": {"lat": 43.70011, "lon": -79.4163}}, {"facility": "Research Site", "city": "Waterloo", "state": "Ontario", "zip": "N2J 1C4", "country": "Canada", "geoPoint": {"lat": 43.4668, "lon": -80.51639}}, {"facility": "Research Site", "city": "Windsor", "state": "Ontario", "zip": "N8X 1T3", "country": "Canada", "geoPoint": {"lat": 42.30008, "lon": -83.01654}}, {"facility": "Research Site", "city": "Qu\u00e9bec", "state": "Quebec", "zip": "C1G 3Y8", "country": "Canada", "geoPoint": {"lat": 46.81228, "lon": -71.21454}}, {"facility": "Research Site", "city": "Beroun", "country": "Czechia", "geoPoint": {"lat": 49.96382, "lon": 14.072}}, {"facility": "Research Site", "city": "Brand\u00fds Nad Labem", "country": "Czechia", "geoPoint": {"lat": 50.18356, "lon": 14.67244}}, {"facility": "Research Site", "city": "Jind\u0159ich\u016fv Hradec", "country": "Czechia", "geoPoint": {"lat": 49.14404, "lon": 15.00301}}, {"facility": "Research Site", "city": "Kralupy Nad Vltavou", "country": "Czechia", "geoPoint": {"lat": 50.24107, "lon": 14.31149}}, {"facility": "Research Site", "city": "Ku\u0159im", "country": "Czechia", "geoPoint": {"lat": 49.29852, "lon": 16.53144}}, {"facility": "Research Site", "city": "Lovosice", "country": "Czechia", "geoPoint": {"lat": 50.51504, "lon": 14.05103}}, {"facility": "Research Site", "city": "Miroslav", "country": "Czechia", "geoPoint": {"lat": 48.94767, "lon": 16.31252}}, {"facility": "Research Site", "city": "Neratovice", "country": "Czechia", "geoPoint": {"lat": 50.25926, "lon": 14.51759}}, {"facility": "Research Site", "city": "Praha", "zip": "110 00", "country": "Czechia", "geoPoint": {"lat": 50.08804, "lon": 14.42076}}, {"facility": "Research Site", "city": "Praha", "zip": "14 800", "country": "Czechia", "geoPoint": {"lat": 50.08804, "lon": 14.42076}}, {"facility": "Research Site", "city": "Rokycany", "country": "Czechia", "geoPoint": {"lat": 49.7427, "lon": 13.59459}}, {"facility": "Research Site", "city": "Teplice", "country": "Czechia", "geoPoint": {"lat": 50.6404, "lon": 13.82451}}, {"facility": "Research Site", "city": "T\u00e1bor", "country": "Czechia", "geoPoint": {"lat": 49.41441, "lon": 14.6578}}, {"facility": "Research Site", "city": "Varnsdorf", "country": "Czechia", "geoPoint": {"lat": 50.91154, "lon": 14.61824}}, {"facility": "Research Site", "city": "Augsburg", "country": "Germany", "geoPoint": {"lat": 48.37154, "lon": 10.89851}}, {"facility": "Research Site", "city": "Bad W\u00f6rishofen", "country": "Germany", "geoPoint": {"lat": 48.00674, "lon": 10.59666}}, {"facility": "Research Site", "city": "Bamberg", "country": "Germany", "geoPoint": {"lat": 49.89873, "lon": 10.90067}}, {"facility": "Research Site", "city": "Bergisch Gladbach", "country": "Germany", "geoPoint": {"lat": 50.9856, "lon": 7.13298}}, {"facility": "Research Site", "city": "Berlin", "zip": "10119", "country": "Germany", "geoPoint": {"lat": 52.52437, "lon": 13.41053}}, {"facility": "Research Site", "city": "Berlin", "zip": "10367", "country": "Germany", "geoPoint": {"lat": 52.52437, "lon": 13.41053}}, {"facility": "Research Site", "city": "Berlin", "zip": "10627", "country": "Germany", "geoPoint": {"lat": 52.52437, "lon": 13.41053}}, {"facility": "Research Site", "city": "Berlin", "zip": "10717", "country": "Germany", "geoPoint": {"lat": 52.52437, "lon": 13.41053}}, {"facility": "Research Site", "city": "Berlin", "zip": "10787", "country": "Germany", "geoPoint": {"lat": 52.52437, "lon": 13.41053}}, {"facility": "Research Site", "city": "Berlin", "zip": "12157", "country": "Germany", "geoPoint": {"lat": 52.52437, "lon": 13.41053}}, {"facility": "Research Site", "city": "Berlin", "zip": "12159", "country": "Germany", "geoPoint": {"lat": 52.52437, "lon": 13.41053}}, {"facility": "Research Site", "city": "Berlin", "zip": "12203", "country": "Germany", "geoPoint": {"lat": 52.52437, "lon": 13.41053}}, {"facility": "Research Site", "city": "Berlin", "zip": "13187", "country": "Germany", "geoPoint": {"lat": 52.52437, "lon": 13.41053}}, {"facility": "Research Site", "city": "Bonn", "country": "Germany", "geoPoint": {"lat": 50.73438, "lon": 7.09549}}, {"facility": "Research Site", "city": "Cottbus", "country": "Germany", "geoPoint": {"lat": 51.75769, "lon": 14.32888}}, {"facility": "Research Site", "city": "Darmstadt", "country": "Germany", "geoPoint": {"lat": 49.87167, "lon": 8.65027}}, {"facility": "Research Site", "city": "Delitzsch", "country": "Germany", "geoPoint": {"lat": 51.52546, "lon": 12.34284}}, {"facility": "Research Site", "city": "Dortmund", "country": "Germany", "geoPoint": {"lat": 51.51494, "lon": 7.466}}, {"facility": "Research Site", "city": "Essen", "country": "Germany", "geoPoint": {"lat": 51.45657, "lon": 7.01228}}, {"facility": "Research Site", "city": "Frankfurt", "zip": "60389", "country": "Germany", "geoPoint": {"lat": 50.11552, "lon": 8.68417}}, {"facility": "Research Site", "city": "Frankfurt", "zip": "60596", "country": "Germany", "geoPoint": {"lat": 50.11552, "lon": 8.68417}}, {"facility": "Research Site", "city": "Geesthacht", "country": "Germany", "geoPoint": {"lat": 53.43575, "lon": 10.3779}}, {"facility": "Research Site", "city": "Gelsenkirchen", "country": "Germany", "geoPoint": {"lat": 51.50508, "lon": 7.09655}}, {"facility": "Research Site", "city": "Halle", "country": "Germany", "geoPoint": {"lat": 51.48159, "lon": 11.97948}}, {"facility": "Research Site", "city": "Hamburg", "zip": "20354", "country": "Germany", "geoPoint": {"lat": 53.57532, "lon": 10.01534}}, {"facility": "Research Site", "city": "Hamburg", "zip": "22299", "country": "Germany", "geoPoint": {"lat": 53.57532, "lon": 10.01534}}, {"facility": "Research Site", "city": "Hannover", "zip": "30167", "country": "Germany", "geoPoint": {"lat": 52.37052, "lon": 9.73322}}, {"facility": "Research Site", "city": "Hannover", "zip": "30173", "country": "Germany", "geoPoint": {"lat": 52.37052, "lon": 9.73322}}, {"facility": "Research Site", "city": "Homburg", "country": "Germany", "geoPoint": {"lat": 49.32637, "lon": 7.33867}}, {"facility": "Research Site", "city": "Jena", "country": "Germany", "geoPoint": {"lat": 50.92878, "lon": 11.5899}}, {"facility": "Research Site", "city": "K\u00f6ln", "country": "Germany", "geoPoint": {"lat": 50.93333, "lon": 6.95}}, {"facility": "Research Site", "city": "Leipzig", "zip": "04107", "country": "Germany", "geoPoint": {"lat": 51.33962, "lon": 12.37129}}, {"facility": "Research Site", "city": "Leipzig", "zip": "04157", "country": "Germany", "geoPoint": {"lat": 51.33962, "lon": 12.37129}}, {"facility": "Research Site", "city": "Leipzig", "zip": "04207", "country": "Germany", "geoPoint": {"lat": 51.33962, "lon": 12.37129}}, {"facility": "Research Site", "city": "Leipzig", "zip": "04275", "country": "Germany", "geoPoint": {"lat": 51.33962, "lon": 12.37129}}, {"facility": "Research Site", "city": "Leipzig", "zip": "04357", "country": "Germany", "geoPoint": {"lat": 51.33962, "lon": 12.37129}}, {"facility": "Research Site", "city": "L\u00fcbeck", "zip": "23552", "country": "Germany", "geoPoint": {"lat": 53.86893, "lon": 10.68729}}, {"facility": "Research Site", "city": "L\u00fcbeck", "zip": "23558", "country": "Germany", "geoPoint": {"lat": 53.86893, "lon": 10.68729}}, {"facility": "Research Site", "city": "Magdeburg", "country": "Germany", "geoPoint": {"lat": 52.12773, "lon": 11.62916}}, {"facility": "Research Site", "city": "Marburg", "country": "Germany", "geoPoint": {"lat": 50.80904, "lon": 8.77069}}, {"facility": "Research Site", "city": "M\u00fcnchen", "zip": "80809", "country": "Germany", "geoPoint": {"lat": 48.13743, "lon": 11.57549}}, {"facility": "Research Site", "city": "M\u00fcnchen", "zip": "81241", "country": "Germany", "geoPoint": {"lat": 48.13743, "lon": 11.57549}}, {"facility": "Research Site", "city": "Neu Isenburg", "country": "Germany", "geoPoint": {"lat": 50.04832, "lon": 8.69406}}, {"facility": "Research Site", "city": "Peine", "country": "Germany", "geoPoint": {"lat": 52.31928, "lon": 10.2352}}, {"facility": "Research Site", "city": "Potsdam", "country": "Germany", "geoPoint": {"lat": 52.39886, "lon": 13.06566}}, {"facility": "Research Site", "city": "Radebeul", "country": "Germany", "geoPoint": {"lat": 51.10654, "lon": 13.66047}}, {"facility": "Research Site", "city": "Reinfeld", "country": "Germany", "geoPoint": {"lat": 53.83184, "lon": 10.49126}}, {"facility": "Research Site", "city": "Rosenheim", "country": "Germany", "geoPoint": {"lat": 47.85637, "lon": 12.12247}}, {"facility": "Research Site", "city": "Schleswig", "country": "Germany", "geoPoint": {"lat": 54.52156, "lon": 9.5586}}, {"facility": "Research Site", "city": "Wiesbaden", "country": "Germany", "geoPoint": {"lat": 50.08258, "lon": 8.24932}}, {"facility": "Research Site", "city": "Witten", "country": "Germany", "geoPoint": {"lat": 51.44362, "lon": 7.35258}}, {"facility": "Research Site", "city": "Belgrade", "zip": "11000", "country": "Serbia", "geoPoint": {"lat": 44.80401, "lon": 20.46513}}, {"facility": "Research Site", "city": "Kragujevac", "country": "Serbia", "geoPoint": {"lat": 44.01667, "lon": 20.91667}}, {"facility": "Research Site", "city": "Ni\u0161", "country": "Serbia", "geoPoint": {"lat": 43.32472, "lon": 21.90333}}, {"facility": "Research Site", "city": "Sremska Kamenica", "zip": "21204", "country": "Serbia", "geoPoint": {"lat": 45.22158, "lon": 19.84367}}, {"facility": "Research Site", "city": "Valjevo", "country": "Serbia", "geoPoint": {"lat": 44.27513, "lon": 19.89821}}, {"facility": "Research Site", "city": "Bratislava", "country": "Slovakia", "geoPoint": {"lat": 48.14816, "lon": 17.10674}}, {"facility": "Research Site", "city": "Ilava", "country": "Slovakia", "geoPoint": {"lat": 48.99769, "lon": 18.2353}}, {"facility": "Research Site", "city": "Kezmarok", "country": "Slovakia", "geoPoint": {"lat": 49.13571, "lon": 20.43352}}, {"facility": "Research Site", "city": "Ko\u0161ice", "zip": "040 01", "country": "Slovakia", "geoPoint": {"lat": 48.71395, "lon": 21.25808}}, {"facility": "Research Site", "city": "Ko\u0161ice", "zip": "040 22", "country": "Slovakia", "geoPoint": {"lat": 48.71395, "lon": 21.25808}}, {"facility": "Research Site", "city": "Poprad", "country": "Slovakia", "geoPoint": {"lat": 49.06144, "lon": 20.29798}}, {"facility": "Research Site", "city": "Pre\u0161ov", "country": "Slovakia", "geoPoint": {"lat": 48.99839, "lon": 21.23393}}, {"facility": "Research Site", "city": "\u017dilina", "country": "Slovakia", "geoPoint": {"lat": 49.22315, "lon": 18.73941}}, {"facility": "Research Site", "city": "Athlone", "country": "South Africa"}, {"facility": "Research Site", "city": "Bellville", "country": "South Africa", "geoPoint": {"lat": -33.90022, "lon": 18.62847}}, {"facility": "Research Site", "city": "Benoni", "country": "South Africa", "geoPoint": {"lat": -26.18848, "lon": 28.32078}}, {"facility": "Research Site", "city": "Bloemfontein", "country": "South Africa", "geoPoint": {"lat": -29.12107, "lon": 26.214}}, {"facility": "Research Site", "city": "Boksburg", "country": "South Africa", "geoPoint": {"lat": -26.21197, "lon": 28.25958}}, {"facility": "Research Site", "city": "Cape Town", "zip": "7500", "country": "South Africa", "geoPoint": {"lat": -33.92584, "lon": 18.42322}}, {"facility": "Research Site", "city": "Cape Town", "zip": "7505", "country": "South Africa", "geoPoint": {"lat": -33.92584, "lon": 18.42322}}, {"facility": "Research Site", "city": "Durban", "zip": "4001", "country": "South Africa", "geoPoint": {"lat": -29.8579, "lon": 31.0292}}, {"facility": "Research Site", "city": "Durban", "zip": "4091", "country": "South Africa", "geoPoint": {"lat": -29.8579, "lon": 31.0292}}, {"facility": "Research Site", "city": "Gatesville", "country": "South Africa", "geoPoint": {"lat": -33.97558, "lon": 18.52306}}, {"facility": "Research Site", "city": "Johannesburg", "country": "South Africa", "geoPoint": {"lat": -26.20227, "lon": 28.04363}}, {"facility": "Research Site", "city": "Kempton Park", "country": "South Africa", "geoPoint": {"lat": -26.10859, "lon": 28.2377}}, {"facility": "Research Site", "city": "Kraaifontein", "country": "South Africa", "geoPoint": {"lat": -33.84808, "lon": 18.71723}}, {"facility": "Research Site", "city": "Middelburg", "country": "South Africa", "geoPoint": {"lat": -25.77507, "lon": 29.46482}}, {"facility": "Research Site", "city": "Mowbray", "zip": "7700", "country": "South Africa", "geoPoint": {"lat": -33.94802, "lon": 18.47333}}, {"facility": "Research Site", "city": "Newtown", "country": "South Africa", "geoPoint": {"lat": -33.67328, "lon": 19.00318}}, {"facility": "Research Site", "city": "Parktown", "country": "South Africa", "geoPoint": {"lat": -26.18205, "lon": 28.02671}}, {"facility": "Research Site", "city": "Pretoria", "zip": "0002", "country": "South Africa", "geoPoint": {"lat": -25.74486, "lon": 28.18783}}, {"facility": "Research Site", "city": "Pretoria", "zip": "0183", "country": "South Africa", "geoPoint": {"lat": -25.74486, "lon": 28.18783}}, {"facility": "Research Site", "city": "Roodepoort", "country": "South Africa", "geoPoint": {"lat": -26.1625, "lon": 27.8725}}, {"facility": "Research Site", "city": "Umhlanga", "country": "South Africa", "geoPoint": {"lat": -29.72528, "lon": 31.08583}}, {"facility": "Research Site", "city": "Umkomaas", "country": "South Africa", "geoPoint": {"lat": -30.20674, "lon": 30.79776}}, {"facility": "Research Site", "city": "Witbank", "country": "South Africa", "geoPoint": {"lat": -25.87133, "lon": 29.23323}}, {"facility": "Research Site", "city": "Barcelona", "zip": "08006", "country": "Spain", "geoPoint": {"lat": 41.38879, "lon": 2.15899}}, {"facility": "Research Site", "city": "Barcelona", "zip": "08035", "country": "Spain", "geoPoint": {"lat": 41.38879, "lon": 2.15899}}, {"facility": "Research Site", "city": "Barcelona", "zip": "08036", "country": "Spain", "geoPoint": {"lat": 41.38879, "lon": 2.15899}}, {"facility": "Research Site", "city": "Barcelona", "zip": "08916", "country": "Spain", "geoPoint": {"lat": 41.38879, "lon": 2.15899}}, {"facility": "Research Site", "city": "Girona", "country": "Spain", "geoPoint": {"lat": 41.98311, "lon": 2.82493}}, {"facility": "Research Site", "city": "Madrid", "country": "Spain", "geoPoint": {"lat": 40.4165, "lon": -3.70256}}, {"facility": "Research Site", "city": "M\u00e9rida", "country": "Spain", "geoPoint": {"lat": 38.91611, "lon": -6.34366}}, {"facility": "Research Site", "city": "Valencia", "country": "Spain", "geoPoint": {"lat": 39.46975, "lon": -0.37739}}, {"facility": "Research Site", "city": "Cherkasy", "country": "Ukraine", "geoPoint": {"lat": 49.42854, "lon": 32.06207}}, {"facility": "Research Site", "city": "Dnipro", "country": "Ukraine", "geoPoint": {"lat": 48.4593, "lon": 35.03864}}, {"facility": "Research Site", "city": "Ivano-Frankivs'k", "country": "Ukraine", "geoPoint": {"lat": 48.9215, "lon": 24.70972}}, {"facility": "Research Site", "city": "Kharkiv", "zip": "61002", "country": "Ukraine", "geoPoint": {"lat": 49.98081, "lon": 36.25272}}, {"facility": "Research Site", "city": "Kharkiv", "zip": "61039", "country": "Ukraine", "geoPoint": {"lat": 49.98081, "lon": 36.25272}}, {"facility": "Research Site", "city": "Kharkiv", "zip": "61124", "country": "Ukraine", "geoPoint": {"lat": 49.98081, "lon": 36.25272}}, {"facility": "Research Site", "city": "Kherson", "country": "Ukraine", "geoPoint": {"lat": 46.65581, "lon": 32.6178}}, {"facility": "Research Site", "city": "Kyiv", "zip": "02232", "country": "Ukraine", "geoPoint": {"lat": 50.45466, "lon": 30.5238}}, {"facility": "Research Site", "city": "Kyiv", "zip": "03680", "country": "Ukraine", "geoPoint": {"lat": 50.45466, "lon": 30.5238}}, {"facility": "Research Site", "city": "Kyiv", "zip": "04201", "country": "Ukraine", "geoPoint": {"lat": 50.45466, "lon": 30.5238}}, {"facility": "Research Site", "city": "Luts'k", "country": "Ukraine", "geoPoint": {"lat": 50.75932, "lon": 25.34244}}, {"facility": "Research Site", "city": "Vinnytsia", "country": "Ukraine", "geoPoint": {"lat": 49.23278, "lon": 28.48097}}, {"facility": "Research Site", "city": "Zaporizhzhya", "zip": "69035", "country": "Ukraine", "geoPoint": {"lat": 50.60727, "lon": 31.78792}}, {"facility": "Research Site", "city": "Zaporizhzhya", "zip": "69118", "country": "Ukraine", "geoPoint": {"lat": 50.60727, "lon": 31.78792}}, {"facility": "Research Site", "city": "Zaporizhzhya", "zip": "69600", "country": "Ukraine", "geoPoint": {"lat": 50.60727, "lon": 31.78792}}, {"facility": "Research Site", "city": "\u00dazhgorod", "country": "Ukraine", "geoPoint": {"lat": 48.61667, "lon": 22.3}}, {"facility": "Research Site", "city": "Belfast", "country": "United Kingdom", "geoPoint": {"lat": 54.59682, "lon": -5.92541}}, {"facility": "Research Site", "city": "Blackpool", "country": "United Kingdom", "geoPoint": {"lat": 53.81667, "lon": -3.05}}, {"facility": "Research Site", "city": "Bradford", "country": "United Kingdom", "geoPoint": {"lat": 53.79391, "lon": -1.75206}}, {"facility": "Research Site", "city": "Chippenham", "country": "United Kingdom", "geoPoint": {"lat": 51.46, "lon": -2.12472}}, {"facility": "Research Site", "city": "Corby", "zip": "NN17 2UR", "country": "United Kingdom", "geoPoint": {"lat": 52.49637, "lon": -0.68939}}, {"facility": "Research Site", "city": "Corby", "zip": "NN18 9EZ", "country": "United Kingdom", "geoPoint": {"lat": 52.49637, "lon": -0.68939}}, {"facility": "Research Site", "city": "Kenilworth", "country": "United Kingdom", "geoPoint": {"lat": 52.34958, "lon": -1.58276}}, {"facility": "Research Site", "city": "Liverpool", "country": "United Kingdom", "geoPoint": {"lat": 53.41058, "lon": -2.97794}}, {"facility": "Research Site", "city": "London", "country": "United Kingdom", "geoPoint": {"lat": 51.50853, "lon": -0.12574}}, {"facility": "Research Site", "city": "Newcastle Upon Tyne", "country": "United Kingdom", "geoPoint": {"lat": 54.97328, "lon": -1.61396}}, {"facility": "Research Site", "city": "Northwood", "country": "United Kingdom"}, {"facility": "Research Site", "city": "Nottingham", "country": "United Kingdom", "geoPoint": {"lat": 52.9536, "lon": -1.15047}}, {"facility": "Research Site", "city": "Peterborough", "country": "United Kingdom", "geoPoint": {"lat": 52.57364, "lon": -0.24777}}, {"facility": "Research Site", "city": "Romford", "country": "United Kingdom", "geoPoint": {"lat": 51.57515, "lon": 0.18582}}, {"facility": "Research Site", "city": "Shipley", "country": "United Kingdom", "geoPoint": {"lat": 53.83333, "lon": -1.76667}}, {"facility": "Research Site", "city": "Sidcup", "country": "United Kingdom", "geoPoint": {"lat": 51.42619, "lon": 0.1036}}, {"facility": "Research Site", "city": "Wokingham", "country": "United Kingdom", "geoPoint": {"lat": 51.4112, "lon": -0.83565}}]}, "referencesModule": {"references": [{"pmid": "34887317", "type": "BACKGROUND", "citation": "Chipps BE, Albers FC, Reilly L, Johnsson E, Cappelletti C, Papi A. Efficacy and safety of as-needed albuterol/budesonide versus albuterol in adults and children aged >/=4 years with moderate-to-severe asthma: rationale and design of the randomised, double-blind, active-controlled MANDALA study. BMJ Open Respir Res. 2021 Dec;8(1):e001077. doi: 10.1136/bmjresp-2021-001077."}, {"pmid": "35569035", "type": "RESULT", "citation": "Papi A, Chipps BE, Beasley R, Panettieri RA Jr, Israel E, Cooper M, Dunsire L, Jeynes-Ellis A, Johnsson E, Rees R, Cappelletti C, Albers FC. Albuterol-Budesonide Fixed-Dose Combination Rescue Inhaler for Asthma. N Engl J Med. 2022 Jun 2;386(22):2071-2083. doi: 10.1056/NEJMoa2203163. Epub 2022 May 15."}, {"pmid": "36161875", "type": "DERIVED", "citation": "Kew KM, Flemyng E, Quon BS, Leung C. Increased versus stable doses of inhaled corticosteroids for exacerbations of chronic asthma in adults and children. Cochrane Database Syst Rev. 2022 Sep 26;9(9):CD007524. doi: 10.1002/14651858.CD007524.pub5."}]}, "ipdSharingStatementModule": {"ipdSharing": "NO"}}, "resultsSection": {"participantFlowModule": {"preAssignmentDetails": "The randomized treatment phase started after a 2 to 4 week screening period during which participants used sponsor provided Ventolin HFA (albuterol sulfate) as needed. In addition to the 3,132 participants randomized, 2,488 participants were screened but did not participate, of which 2,456 were ineligible (98.7%). The next most frequent reason was withdrawal by the participant, with 18 meeting this criteria.", "recruitmentDetails": "The first subject enrolled on 13 December 2018 and the last subject completed the study on 07 February 2022. Subjects were enrolled at 347 study centers worldwide (Argentina, Canada, Czechia, Germany, Serbia, Slovakia, South Africa, Spain, Ukraine, United Kingdom and the United States).", "groups": [{"id": "FG000", "title": "BDA MDI (PT027) 160/180 \u03bcg", "description": "Budesonide/albuterol sulfate, BDA MDI, PT027 high dose\n\nBudesonide/albuterol sulfate metered-dose inhaler 160/180 \u03bcg: Budesonide/albuterol sulfate combination inhalation aerosol"}, {"id": "FG001", "title": "BDA MDI (PT027) 80/180 \u03bcg", "description": "Budesonide/albuterol sulfate, BDA MDI, PT027 low dose\n\nBudesonide/albuterol sulfate metered-dose inhaler 80/180 \u03bcg: Budesonide/albuterol sulfate combination inhalation aerosol"}, {"id": "FG002", "title": "AS MDI (PT007) 180 \u00b5g", "description": "Albuterol sulfate MDI, PT007\n\nAlbuterol sulfate metered-dose inhaler 180 \u03bcg: Albuterol sulfate inhalation aerosol"}], "periods": [{"title": "Overall Study", "milestones": [{"type": "STARTED", "achievements": [{"groupId": "FG000", "numSubjects": "1016"}, {"groupId": "FG001", "numSubjects": "1057"}, {"groupId": "FG002", "numSubjects": "1059"}]}, {"type": "COMPLETED", "achievements": [{"groupId": "FG000", "numSubjects": "915"}, {"groupId": "FG001", "numSubjects": "933"}, {"groupId": "FG002", "numSubjects": "916"}]}, {"type": "NOT COMPLETED", "achievements": [{"groupId": "FG000", "numSubjects": "101"}, {"groupId": "FG001", "numSubjects": "124"}, {"groupId": "FG002", "numSubjects": "143"}]}], "dropWithdraws": [{"type": "Randomized and did not receive randomized study treatment", "reasons": [{"groupId": "FG000", "numSubjects": "1"}, {"groupId": "FG001", "numSubjects": "2"}, {"groupId": "FG002", "numSubjects": "2"}]}, {"type": "Withdrawal by Subject", "reasons": [{"groupId": "FG000", "numSubjects": "52"}, {"groupId": "FG001", "numSubjects": "62"}, {"groupId": "FG002", "numSubjects": "74"}]}, {"type": "Death", "reasons": [{"groupId": "FG000", "numSubjects": "4"}, {"groupId": "FG001", "numSubjects": "2"}, {"groupId": "FG002", "numSubjects": "2"}]}, {"type": "Adverse Event", "reasons": [{"groupId": "FG000", "numSubjects": "7"}, {"groupId": "FG001", "numSubjects": "7"}, {"groupId": "FG002", "numSubjects": "8"}]}, {"type": "A single severe exacerbation event lasting >20 days", "reasons": [{"groupId": "FG000", "numSubjects": "0"}, {"groupId": "FG001", "numSubjects": "1"}, {"groupId": "FG002", "numSubjects": "2"}]}, {"type": ">= 3 severe exacerbation events within a 3 month period", "reasons": [{"groupId": "FG000", "numSubjects": "1"}, {"groupId": "FG001", "numSubjects": "4"}, {"groupId": "FG002", "numSubjects": "4"}]}, {"type": ">= 5 total severe exacerbation events", "reasons": [{"groupId": "FG000", "numSubjects": "0"}, {"groupId": "FG001", "numSubjects": "1"}, {"groupId": "FG002", "numSubjects": "1"}]}, {"type": "Protocol Violation", "reasons": [{"groupId": "FG000", "numSubjects": "5"}, {"groupId": "FG001", "numSubjects": "6"}, {"groupId": "FG002", "numSubjects": "8"}]}, {"type": "Pregnancy", "reasons": [{"groupId": "FG000", "numSubjects": "1"}, {"groupId": "FG001", "numSubjects": "0"}, {"groupId": "FG002", "numSubjects": "3"}]}, {"type": "Lost to Follow-up", "reasons": [{"groupId": "FG000", "numSubjects": "19"}, {"groupId": "FG001", "numSubjects": "25"}, {"groupId": "FG002", "numSubjects": "21"}]}, {"type": "Condition under investigation worsened", "reasons": [{"groupId": "FG000", "numSubjects": "2"}, {"groupId": "FG001", "numSubjects": "0"}, {"groupId": "FG002", "numSubjects": "1"}]}, {"type": "Lack of Efficacy", "reasons": [{"groupId": "FG000", "numSubjects": "1"}, {"groupId": "FG001", "numSubjects": "2"}, {"groupId": "FG002", "numSubjects": "2"}]}, {"type": "Other reasons", "reasons": [{"groupId": "FG000", "numSubjects": "8"}, {"groupId": "FG001", "numSubjects": "12"}, {"groupId": "FG002", "numSubjects": "15"}]}]}]}, "baselineCharacteristicsModule": {"populationDescription": "Of the 3,132 participants randomized, the full analysis set across all ages comprises 3,127 participants as one participant was randomized and did not receive randomized study treatment, and four participants were randomized in error and did not receive randomized study treatment. These five participants have therefore been excluded from the summaries of baseline characteristics, efficacy and safety.", "groups": [{"id": "BG000", "title": "BDA MDI (PT027) 160/180 \u03bcg", "description": "Budesonide/albuterol sulfate, BDA MDI, PT027 high dose\n\nBudesonide/albuterol sulfate metered-dose inhaler 160/180 \u03bcg: Budesonide/albuterol sulfate combination inhalation aerosol"}, {"id": "BG001", "title": "BDA MDI (PT027) 80/180 \u03bcg", "description": "Budesonide/albuterol sulfate, BDA MDI, PT027 low dose\n\nBudesonide/albuterol sulfate metered-dose inhaler 80/180 \u03bcg: Budesonide/albuterol sulfate combination inhalation aerosol"}, {"id": "BG002", "title": "AS MDI (PT007) 180 \u00b5g", "description": "Albuterol sulfate MDI, PT007\n\nAlbuterol sulfate metered-dose inhaler 180 \u03bcg: Albuterol sulfate inhalation aerosol"}, {"id": "BG003", "title": "Total", "description": "Total of all reporting groups"}], "denoms": [{"units": "Participants", "counts": [{"groupId": "BG000", "value": "1015"}, {"groupId": "BG001", "value": "1055"}, {"groupId": "BG002", "value": "1057"}, {"groupId": "BG003", "value": "3127"}]}], "measures": [{"title": "Age, Continuous", "paramType": "MEAN", "dispersionType": "STANDARD_DEVIATION", "unitOfMeasure": "years", "classes": [{"categories": [{"measurements": [{"groupId": "BG000", "value": "50.6", "spread": "15.05"}, {"groupId": "BG001", "value": "48.5", "spread": "16.71"}, {"groupId": "BG002", "value": "49.1", "spread": "17.22"}, {"groupId": "BG003", "value": "49.4", "spread": "16.39"}]}]}]}, {"title": "Age, Customized", "paramType": "COUNT_OF_PARTICIPANTS", "unitOfMeasure": "Participants", "classes": [{"title": "Children (>=4 to <12 years)", "categories": [{"measurements": [{"groupId": "BG000", "value": "0"}, {"groupId": "BG001", "value": "41"}, {"groupId": "BG002", "value": "42"}, {"groupId": "BG003", "value": "83"}]}]}, {"title": "Adolescents (>=12 to <18 years)", "categories": [{"measurements": [{"groupId": "BG000", "value": "34"}, {"groupId": "BG001", "value": "32"}, {"groupId": "BG002", "value": "34"}, {"groupId": "BG003", "value": "100"}]}]}, {"title": "Adults (>=18 to <65 years)", "categories": [{"measurements": [{"groupId": "BG000", "value": "789"}, {"groupId": "BG001", "value": "805"}, {"groupId": "BG002", "value": "784"}, {"groupId": "BG003", "value": "2378"}]}]}, {"title": "Elderly (>=65 years)", "categories": [{"measurements": [{"groupId": "BG000", "value": "192"}, {"groupId": "BG001", "value": "177"}, {"groupId": "BG002", "value": "197"}, {"groupId": "BG003", "value": "566"}]}]}]}, {"title": "Sex: Female, Male", "paramType": "COUNT_OF_PARTICIPANTS", "unitOfMeasure": "Participants", "classes": [{"categories": [{"title": "Female", "measurements": [{"groupId": "BG000", "value": "647"}, {"groupId": "BG001", "value": "686"}, {"groupId": "BG002", "value": "695"}, {"groupId": "BG003", "value": "2028"}]}, {"title": "Male", "measurements": [{"groupId": "BG000", "value": "368"}, {"groupId": "BG001", "value": "369"}, {"groupId": "BG002", "value": "362"}, {"groupId": "BG003", "value": "1099"}]}]}]}, {"title": "Ethnicity (NIH/OMB)", "paramType": "COUNT_OF_PARTICIPANTS", "unitOfMeasure": "Participants", "classes": [{"categories": [{"title": "Hispanic or Latino", "measurements": [{"groupId": "BG000", "value": "235"}, {"groupId": "BG001", "value": "261"}, {"groupId": "BG002", "value": "316"}, {"groupId": "BG003", "value": "812"}]}, {"title": "Not Hispanic or Latino", "measurements": [{"groupId": "BG000", "value": "780"}, {"groupId": "BG001", "value": "794"}, {"groupId": "BG002", "value": "741"}, {"groupId": "BG003", "value": "2315"}]}, {"title": "Unknown or Not Reported", "measurements": [{"groupId": "BG000", "value": "0"}, {"groupId": "BG001", "value": "0"}, {"groupId": "BG002", "value": "0"}, {"groupId": "BG003", "value": "0"}]}]}]}, {"title": "Race (NIH/OMB)", "paramType": "COUNT_OF_PARTICIPANTS", "unitOfMeasure": "Participants", "classes": [{"categories": [{"title": "American Indian or Alaska Native", "measurements": [{"groupId": "BG000", "value": "1"}, {"groupId": "BG001", "value": "1"}, {"groupId": "BG002", "value": "0"}, {"groupId": "BG003", "value": "2"}]}, {"title": "Asian", "measurements": [{"groupId": "BG000", "value": "29"}, {"groupId": "BG001", "value": "33"}, {"groupId": "BG002", "value": "23"}, {"groupId": "BG003", "value": "85"}]}, {"title": "Native Hawaiian or Other Pacific Islander", "measurements": [{"groupId": "BG000", "value": "0"}, {"groupId": "BG001", "value": "0"}, {"groupId": "BG002", "value": "0"}, {"groupId": "BG003", "value": "0"}]}, {"title": "Black or African American", "measurements": [{"groupId": "BG000", "value": "139"}, {"groupId": "BG001", "value": "141"}, {"groupId": "BG002", "value": "137"}, {"groupId": "BG003", "value": "417"}]}, {"title": "White", "measurements": [{"groupId": "BG000", "value": "820"}, {"groupId": "BG001", "value": "848"}, {"groupId": "BG002", "value": "869"}, {"groupId": "BG003", "value": "2537"}]}, {"title": "More than one race", "measurements": [{"groupId": "BG000", "value": "18"}, {"groupId": "BG001", "value": "20"}, {"groupId": "BG002", "value": "24"}, {"groupId": "BG003", "value": "62"}]}, {"title": "Unknown or Not Reported", "measurements": [{"groupId": "BG000", "value": "8"}, {"groupId": "BG001", "value": "12"}, {"groupId": "BG002", "value": "4"}, {"groupId": "BG003", "value": "24"}]}]}]}, {"title": "Region of Enrollment", "paramType": "COUNT_OF_PARTICIPANTS", "unitOfMeasure": "Participants", "classes": [{"title": "Canada", "categories": [{"measurements": [{"groupId": "BG000", "value": "19"}, {"groupId": "BG001", "value": "11"}, {"groupId": "BG002", "value": "12"}, {"groupId": "BG003", "value": "42"}]}]}, {"title": "Argentina", "categories": [{"measurements": [{"groupId": "BG000", "value": "157"}, {"groupId": "BG001", "value": "200"}, {"groupId": "BG002", "value": "207"}, {"groupId": "BG003", "value": "564"}]}]}, {"title": "United States", "categories": [{"measurements": [{"groupId": "BG000", "value": "274"}, {"groupId": "BG001", "value": "275"}, {"groupId": "BG002", "value": "290"}, {"groupId": "BG003", "value": "839"}]}]}, {"title": "Czechia", "categories": [{"measurements": [{"groupId": "BG000", "value": "74"}, {"groupId": "BG001", "value": "64"}, {"groupId": "BG002", "value": "73"}, {"groupId": "BG003", "value": "211"}]}]}, {"title": "Ukraine", "categories": [{"measurements": [{"groupId": "BG000", "value": "156"}, {"groupId": "BG001", "value": "150"}, {"groupId": "BG002", "value": "128"}, {"groupId": "BG003", "value": "434"}]}]}, {"title": "South Africa", "categories": [{"measurements": [{"groupId": "BG000", "value": "106"}, {"groupId": "BG001", "value": "120"}, {"groupId": "BG002", "value": "115"}, {"groupId": "BG003", "value": "341"}]}]}, {"title": "United Kingdom", "categories": [{"measurements": [{"groupId": "BG000", "value": "9"}, {"groupId": "BG001", "value": "15"}, {"groupId": "BG002", "value": "10"}, {"groupId": "BG003", "value": "34"}]}]}, {"title": "Slovakia", "categories": [{"measurements": [{"groupId": "BG000", "value": "25"}, {"groupId": "BG001", "value": "30"}, {"groupId": "BG002", "value": "28"}, {"groupId": "BG003", "value": "83"}]}]}, {"title": "Serbia", "categories": [{"measurements": [{"groupId": "BG000", "value": "65"}, {"groupId": "BG001", "value": "54"}, {"groupId": "BG002", "value": "57"}, {"groupId": "BG003", "value": "176"}]}]}, {"title": "Germany", "categories": [{"measurements": [{"groupId": "BG000", "value": "109"}, {"groupId": "BG001", "value": "108"}, {"groupId": "BG002", "value": "112"}, {"groupId": "BG003", "value": "329"}]}]}, {"title": "Spain", "categories": [{"measurements": [{"groupId": "BG000", "value": "21"}, {"groupId": "BG001", "value": "28"}, {"groupId": "BG002", "value": "25"}, {"groupId": "BG003", "value": "74"}]}]}]}, {"title": "Height", "paramType": "MEAN", "dispersionType": "STANDARD_DEVIATION", "unitOfMeasure": "Centimeters", "classes": [{"categories": [{"measurements": [{"groupId": "BG000", "value": "166.8", "spread": "9.92"}, {"groupId": "BG001", "value": "165.1", "spread": "11.45"}, {"groupId": "BG002", "value": "164.4", "spread": "11.67"}, {"groupId": "BG003", "value": "165.4", "spread": "11.10"}]}]}]}, {"title": "Weight", "paramType": "MEAN", "dispersionType": "STANDARD_DEVIATION", "unitOfMeasure": "Kilograms", "classes": [{"categories": [{"measurements": [{"groupId": "BG000", "value": "80.5", "spread": "16.88"}, {"groupId": "BG001", "value": "78.2", "spread": "18.93"}, {"groupId": "BG002", "value": "78.8", "spread": "18.47"}, {"groupId": "BG003", "value": "79.2", "spread": "18.15"}]}]}]}, {"title": "Body mass index", "paramType": "MEAN", "dispersionType": "STANDARD_DEVIATION", "unitOfMeasure": "kg/m^2", "classes": [{"categories": [{"measurements": [{"groupId": "BG000", "value": "28.887", "spread": "5.4002"}, {"groupId": "BG001", "value": "28.496", "spread": "5.5886"}, {"groupId": "BG002", "value": "28.948", "spread": "5.6271"}, {"groupId": "BG003", "value": "28.776", "spread": "5.5432"}]}]}]}]}, "outcomeMeasuresModule": {"outcomeMeasures": [{"type": "PRIMARY", "title": "Number of Participants With a Severe Asthma Exacerbation Event", "description": "Time to first severe asthma exacerbation will be calculated as the time from randomization until the start date of the first severe asthma exacerbation. An asthma exacerbation will be considered severe if it results in at least one of the following: a temporary bolus/burst of systemic corticosteroids for at least 3 consecutive days to treat symptoms of asthma worsening (a single depo-injectable dose of corticosteroids will be considered equivalent), an emergency room or urgent care visit (\\<24 hours in the facility for evaluation and treatment) due to asthma that required systemic corticosteroids, or an in-patient hospitalization (admission to an in-patient facility and/or \u2265 24 hours in a healthcare facility) due to asthma. The descriptive summary shows the number of participants with a severe exacerbation event, occurring between the date of randomization up to the date of randomized treatment discontinuation or a change in maintenance therapy.", "populationDescription": "All participants that were randomized, took at least one puff of randomized treatment, and had at least one efficacy assessment, excluding participants confirmed as duplicates (n = 4). As children \\<12 years of age were not randomized to the BDA MDI 160/180\u03bcg dose, comparison was made to the participants \\>=12 years of age within the AS MDI 180\u03bcg arm.", "reportingStatus": "POSTED", "paramType": "COUNT_OF_PARTICIPANTS", "unitOfMeasure": "Participants", "timeFrame": "From randomization up to a discontinuation of randomized treatment or a change in maintenance therapy. The mean and median reporting period for all participants was 44 and 48 weeks, respectively.", "groups": [{"id": "OG000", "title": "BDA MDI 160/180 \u03bcg (Full Analysis Set; >=12 Years)", "description": "All participants who are randomized to BDA MDI 160/180 \u03bcg, are aged \\>=12 years at randomization, take at least one puff of randomized treatment and have at least one efficacy assessment, excluding participants identified as confirmed duplicates."}, {"id": "OG001", "title": "AS MDI 180 \u03bcg (Full Analysis Set; >=12 Years)", "description": "All participants who are randomized to AS MDI 180 \u03bcg, are aged \\>=12 years at randomization, take at least one puff of randomized treatment and have at least one efficacy assessment, excluding participants identified as confirmed duplicates."}, {"id": "OG002", "title": "BDA MDI 80/180 \u03bcg (Full Analysis Set)", "description": "All participants who are randomized to BDA MDI 80/180 \u03bcg, take at least one puff of randomized treatment and have at least one efficacy assessment, excluding participants identified as confirmed duplicates."}, {"id": "OG003", "title": "AS MDI 180 \u03bcg (Full Analysis Set)", "description": "All participants who are randomized to AS MDI 180 \u03bcg, take at least one puff of randomized treatment and have at least one efficacy assessment, excluding participants identified as confirmed duplicates."}], "denoms": [{"units": "Participants", "counts": [{"groupId": "OG000", "value": "1013"}, {"groupId": "OG001", "value": "1014"}, {"groupId": "OG002", "value": "1054"}, {"groupId": "OG003", "value": "1056"}]}], "classes": [{"categories": [{"measurements": [{"groupId": "OG000", "value": "207"}, {"groupId": "OG001", "value": "266"}, {"groupId": "OG002", "value": "241"}, {"groupId": "OG003", "value": "276"}]}]}], "analyses": [{"groupIds": ["OG000", "OG001"], "groupDescription": "H0 = null hypothesis. Hazard ratios, 95% confidence intervals for hazard ratios and p-values are estimated using a Cox regression model with treatment group, age group, region and number of severe exacerbations in the last 12 months prior to randomization as factors. A hazard ratio less than 1 favours BDA MDI treatment.", "nonInferiorityType": "SUPERIORITY", "pValue": "<0.001", "statisticalMethod": "Regression, Cox", "paramType": "Hazard Ratio (HR)", "paramValue": "0.733", "ciPctValue": "95", "ciNumSides": "TWO_SIDED", "ciLowerLimit": "0.611", "ciUpperLimit": "0.879"}, {"groupIds": ["OG002", "OG003"], "groupDescription": "H0 = Null hypothesis. Hazard ratios, 95% confidence intervals for hazard ratios and p-values are estimated using a Cox regression model with treatment group, age group, region and number of severe exacerbations in the last 12 months prior to randomization as factors. A hazard ratio less than 1 favours BDI MDI treatment.", "nonInferiorityType": "SUPERIORITY", "pValue": "0.041", "statisticalMethod": "Regression, Cox", "paramType": "Hazard Ratio (HR)", "paramValue": "0.835", "ciPctValue": "95", "ciNumSides": "TWO_SIDED", "ciLowerLimit": "0.702", "ciUpperLimit": "0.992"}]}, {"type": "SECONDARY", "title": "Annualized Severe Exacerbation Rate", "description": "The annualized severe exacerbation rate (severe exacerbations per year) is estimated from a negative binomial model with treatment, age group, region, and number of severe exacerbations in the last 12 months prior to randomization as categorical covariates. The logarithm of the time at risk is included as an offset variable.", "populationDescription": "All participants that were randomized, took at least one puff of randomized treatment, and had at least one efficacy assessment, excluding participants confirmed as duplicates (n = 4). As children \\<12 years of age were not randomized to the BDA MDI 160/180\u03bcg dose, comparison was made to the participants \\>=12 years of age within the AS MDI 180\u03bcg arm.", "reportingStatus": "POSTED", "paramType": "LEAST_SQUARES_MEAN", "dispersionType": "95% Confidence Interval", "unitOfMeasure": "Severe exacerbations per year", "timeFrame": "From randomization up to discontinuation of randomized treatment or a change in maintenance therapy. The mean and median reporting period for all participants was 44 and 48 weeks, respectively.", "groups": [{"id": "OG000", "title": "BDA MDI 160/180 \u03bcg (Full Analysis Set; >=12 Years)", "description": "All participants who are randomized to BDA MDI 160/180 \u03bcg, are aged \\>=12 years at randomization, take at least one puff of randomized treatment and have at least one efficacy assessment, excluding participants identified as confirmed duplicates."}, {"id": "OG001", "title": "AS MDI 180 \u03bcg (Full Analysis Set; >=12 Years)", "description": "All participants who are randomized to AS MDI 180 \u03bcg, are aged \\>=12 years at randomization, take at least one puff of randomized treatment and have at least one efficacy assessment, excluding participants identified as confirmed duplicates."}, {"id": "OG002", "title": "BDA MDI 80/180 \u03bcg (Full Analysis Set)", "description": "All participants who are randomized to BDA MDI 80/180 \u03bcg, take at least one puff of randomized treatment and have at least one efficacy assessment, excluding participants identified as confirmed duplicates."}, {"id": "OG003", "title": "AS MDI 180 \u03bcg (Full Analysis Set)", "description": "All participants who are randomized to AS MDI 180 \u03bcg, take at least one puff of randomized treatment and have at least one efficacy assessment, excluding participants identified as confirmed duplicates."}], "denoms": [{"units": "Participants", "counts": [{"groupId": "OG000", "value": "1013"}, {"groupId": "OG001", "value": "1014"}, {"groupId": "OG002", "value": "1054"}, {"groupId": "OG003", "value": "1056"}]}], "classes": [{"categories": [{"measurements": [{"groupId": "OG000", "value": "0.45", "lowerLimit": "0.34", "upperLimit": "0.60"}, {"groupId": "OG001", "value": "0.59", "lowerLimit": "0.44", "upperLimit": "0.78"}, {"groupId": "OG002", "value": "0.49", "lowerLimit": "0.37", "upperLimit": "0.64"}, {"groupId": "OG003", "value": "0.61", "lowerLimit": "0.46", "upperLimit": "0.80"}]}]}], "analyses": [{"groupIds": ["OG000", "OG001"], "groupDescription": "Estimated from a negative binomial model with treatment, age group, region, and number of severe exacerbations in the last 12 months prior to randomization as categorical covariates. The logarithm of the time at risk is included as an offset variable. A sequential testing strategy is used for secondary endpoints. A null hypothesis can only be rejected if all preceding null hypotheses are also rejected.", "nonInferiorityType": "SUPERIORITY", "pValue": "0.008", "statisticalMethod": "Negative binomial model", "paramType": "Rate Ratio", "paramValue": "0.76", "ciPctValue": "95", "ciNumSides": "TWO_SIDED", "ciLowerLimit": "0.62", "ciUpperLimit": "0.93"}, {"groupIds": ["OG002", "OG003"], "groupDescription": "Estimated from a negative binomial model with treatment, age group, region, and number of severe exacerbations in the last 12 months prior to randomization as categorical covariates. The logarithm of the time at risk is included as an offset variable. A sequential testing strategy is used for secondary endpoints. A null hypothesis can only be rejected if all preceding null hypotheses are also rejected.", "nonInferiorityType": "SUPERIORITY", "pValue": "0.028", "statisticalMethod": "Negative binomial model", "paramType": "Rate Ratio", "paramValue": "0.8", "ciPctValue": "95", "ciNumSides": "TWO_SIDED", "ciLowerLimit": "0.66", "ciUpperLimit": "0.98"}]}, {"type": "SECONDARY", "title": "Total Annualized Dose of Systemic Corticosteroid (SCS)", "description": "This endpoint includes all systemic corticosteroids (SCS) taken in response to a severe exacerbation event from randomization up to randomized treatment discontinuation or a change in maintenance therapy. All SCS are standardized to equipotent doses of prednisone before deriving the total dose. The total annualized dose is calculated as the total dose of SCS divided by the duration of the randomized treatment period.", "populationDescription": "All participants that were randomized, took at least one puff of randomized treatment, and had at least one efficacy assessment, excluding participants confirmed as duplicates (n = 4). As children \\<12 years of age were not randomized to the BDA MDI 160/180\u03bcg dose, comparison was made to the participants \\>=12 years of age within the AS MDI 180\u03bcg arm.", "reportingStatus": "POSTED", "paramType": "MEAN", "dispersionType": "Full Range", "unitOfMeasure": "Milligram(s)", "timeFrame": "From randomization up to discontinuation of randomized treatment or a change in maintenance therapy. The mean and median reporting period for all participants was 44 and 48 weeks, respectively.", "groups": [{"id": "OG000", "title": "BDA MDI 160/180 \u03bcg (Full Analysis Set; >=12 Years)", "description": "All participants who are randomized to BDA MDI 160/180 \u03bcg, are aged \\>=12 years at randomization, take at least one puff of randomized treatment and have at least one efficacy assessment, excluding participants identified as confirmed duplicates."}, {"id": "OG001", "title": "AS MDI 180 \u03bcg (Full Analysis Set; >=12 Years)", "description": "All participants who are randomized to AS MDI 180 \u03bcg, are aged \\>=12 years at randomization, take at least one puff of randomized treatment and have at least one efficacy assessment, excluding participants identified as confirmed duplicates."}, {"id": "OG002", "title": "BDA MDI 80/180 \u03bcg (Full Analysis Set)", "description": "All participants who are randomized to BDA MDI 80/180 \u03bcg, take at least one puff of randomized treatment and have at least one efficacy assessment, excluding participants identified as confirmed duplicates."}, {"id": "OG003", "title": "AS MDI 180 \u03bcg (Full Analysis Set)", "description": "All participants who are randomized to AS MDI 180 \u03bcg, take at least one puff of randomized treatment and have at least one efficacy assessment, excluding participants identified as confirmed duplicates."}], "denoms": [{"units": "Participants", "counts": [{"groupId": "OG000", "value": "1012"}, {"groupId": "OG001", "value": "1011"}, {"groupId": "OG002", "value": "1052"}, {"groupId": "OG003", "value": "1052"}]}], "classes": [{"categories": [{"measurements": [{"groupId": "OG000", "value": "86.2", "lowerLimit": "0", "upperLimit": "3678"}, {"groupId": "OG001", "value": "129.3", "lowerLimit": "0", "upperLimit": "18941"}, {"groupId": "OG002", "value": "95.5", "lowerLimit": "0", "upperLimit": "4974"}, {"groupId": "OG003", "value": "127.1", "lowerLimit": "0", "upperLimit": "18941"}]}]}], "analyses": [{"groupIds": ["OG000", "OG001"], "groupDescription": "P-values are calculated via a Wilcoxon rank sum test. A sequential testing strategy is used for secondary endpoints. A null hypothesis can only be rejected if all preceding null hypotheses are also rejected.", "nonInferiorityType": "SUPERIORITY", "pValue": "0.002", "statisticalMethod": "Wilcoxon rank sum"}, {"groupIds": ["OG002", "OG003"], "groupDescription": "P-values are calculated via a Wilcoxon rank sum test. A sequential testing strategy is used for secondary endpoints. A null hypothesis can only be rejected if all preceding null hypotheses are also rejected.", "nonInferiorityType": "SUPERIORITY", "pValue": "0.06", "statisticalMethod": "Wilcoxon rank sum"}]}, {"type": "SECONDARY", "title": "Asthma Control Questionnaire-5 (ACQ-5) - Number of Participants Who Were Responders at Week 24", "description": "The ACQ-5 consists of 5 questions on symptom control, with each scored on a 7-point scale (0 = excellent asthma control; 6 = extremely poor control). The overall score (0 = excellent asthma control; 6 = extremely poor control, so a lower score is the better outcome) is the mean of the 5 symptom items. A responder is defined as a participant with a decrease from baseline to Week 24 overall ACQ-5 score of 0.5 or more. ACQ-5 is not validated for children less than 6 years old, data for participants who were 4 or 5 years old was excluded from the analysis of ACQ-5.", "populationDescription": "All participants that were randomized, took at least one puff of randomized treatment, and had at least one efficacy assessment, excluding participants confirmed as duplicates (n = 4). As children \\<12 years of age were not randomized to the BDA MDI 160/180\u03bcg dose, comparison was made to the participants \\>=12 years of age within the AS MDI 180\u03bcg arm.", "reportingStatus": "POSTED", "paramType": "COUNT_OF_PARTICIPANTS", "unitOfMeasure": "Participants", "timeFrame": "From baseline to Week 24", "groups": [{"id": "OG000", "title": "BDA MDI 160/180 \u03bcg (Full Analysis Set; >=12 Years)", "description": "All participants who are randomized to BDA MDI 160/180 \u03bcg, are aged \\>=12 years at randomization, take at least one puff of randomized treatment and have at least one efficacy assessment, excluding participants identified as confirmed duplicates."}, {"id": "OG001", "title": "AS MDI 180 \u03bcg (Full Analysis Set; >=12 Years)", "description": "All participants who are randomized to AS MDI 180 \u03bcg, are aged \\>=12 years at randomization, take at least one puff of randomized treatment and have at least one efficacy assessment, excluding participants identified as confirmed duplicates."}, {"id": "OG002", "title": "BDA MDI 80/180 \u03bcg (Full Analysis Set)", "description": "All participants who are randomized to BDA MDI 80/180 \u03bcg, take at least one puff of randomized treatment and have at least one efficacy assessment, excluding participants identified as confirmed duplicates."}, {"id": "OG003", "title": "AS MDI 180 \u03bcg (Full Analysis Set)", "description": "All participants who are randomized to AS MDI 180 \u03bcg, take at least one puff of randomized treatment and have at least one efficacy assessment, excluding participants identified as confirmed duplicates."}], "denoms": [{"units": "Participants", "counts": [{"groupId": "OG000", "value": "1013"}, {"groupId": "OG001", "value": "1014"}, {"groupId": "OG002", "value": "1052"}, {"groupId": "OG003", "value": "1055"}]}], "classes": [{"categories": [{"measurements": [{"groupId": "OG000", "value": "677"}, {"groupId": "OG001", "value": "630"}, {"groupId": "OG002", "value": "681"}, {"groupId": "OG003", "value": "650"}]}]}], "analyses": [{"groupIds": ["OG000", "OG001"], "groupDescription": "Logistic regression model with baseline ACQ-5 as a continuous covariate and age group, region and number of severe exacerbations in the 12 months prior to randomization as categorical covariates. A sequential testing strategy is used for secondary endpoints. A null hypothesis can only be rejected if all preceding null hypotheses are also rejected.", "nonInferiorityType": "SUPERIORITY", "pValue": "0.033", "statisticalMethod": "Regression, Logistic", "paramType": "Odds Ratio (OR)", "paramValue": "1.221", "ciPctValue": "95", "ciNumSides": "TWO_SIDED", "ciLowerLimit": "1.016", "ciUpperLimit": "1.467"}, {"groupIds": ["OG002", "OG003"], "groupDescription": "Logistic regression model with baseline ACQ-5 as a continuous covariate and age group, region and number of severe exacerbations in the 12 months prior to randomization as categorical covariates. A sequential testing strategy is used for secondary endpoints. A null hypothesis can only be rejected if all preceding null hypotheses are also rejected.", "nonInferiorityType": "SUPERIORITY", "pValue": "0.175", "statisticalMethod": "Regression, Logistic", "paramType": "Odds Ratio (OR)", "paramValue": "1.132", "ciPctValue": "95", "ciNumSides": "TWO_SIDED", "ciLowerLimit": "0.946", "ciUpperLimit": "1.353"}]}, {"type": "SECONDARY", "title": "Asthma Quality of Life Questionnaire for Participants Aged 12 Years and Older (AQLQ+12) - Number of Participants Who Were Responders at Week 24", "description": "The AQLQ+12 consists of 32 questions in 4 domains and is assessed on separate 7-point Likert scales from 1 to 7, with higher values indicating better health-related quality of life. The overall score is the mean of all responses. A responder is defined as a participant with an increase from baseline to week 24 AQLQ-12 score of at least 0.5.", "populationDescription": "All participants that were randomized, took at least one puff of randomized treatment, and had at least one efficacy assessment, excluding participants confirmed as duplicates (n = 4). As children \\<12 years of age were not randomized to the BDA MDI 160/180\u03bcg dose, comparison was made to the participants \\>=12 years of age within the AS MDI 180\u03bcg arm.", "reportingStatus": "POSTED", "paramType": "COUNT_OF_PARTICIPANTS", "unitOfMeasure": "Participants", "timeFrame": "From baseline to 24 weeks", "groups": [{"id": "OG000", "title": "BDA MDI 160/180 \u03bcg (Full Analysis Set; >=12 Years)", "description": "All participants who are randomized to BDA MDI 160/180 \u03bcg, are aged \\>=12 years at randomization, take at least one puff of randomized treatment and have at least one efficacy assessment, excluding participants identified as confirmed duplicates."}, {"id": "OG001", "title": "BDA MDI 80/180 \u03bcg (Full Analysis Set; >=12 Years)", "description": "All participants who are randomized to BDA MDI 80/180 \u03bcg, are aged \\>=12 years at randomization, take at least one puff of randomized treatment and have at least one efficacy assessment, excluding participants identified as confirmed duplicates."}, {"id": "OG002", "title": "AS MDI 180 \u03bcg (Full Analysis Set; >=12 Years)", "description": "All participants who are randomized to AS MDI 180 \u03bcg, are aged \\>=12 years at randomization, take at least one puff of randomized treatment and have at least one efficacy assessment, excluding participants identified as confirmed duplicates."}], "denoms": [{"units": "Participants", "counts": [{"groupId": "OG000", "value": "994"}, {"groupId": "OG001", "value": "987"}, {"groupId": "OG002", "value": "993"}]}], "classes": [{"categories": [{"measurements": [{"groupId": "OG000", "value": "508"}, {"groupId": "OG001", "value": "489"}, {"groupId": "OG002", "value": "461"}]}]}], "analyses": [{"groupIds": ["OG000", "OG002"], "groupDescription": "Logistic regression model with baseline AQLQ-12 as a continuous covariate and age group, region and number of severe exacerbations in the 12 months prior to randomization as categorical covariates. A sequential testing strategy is used for secondary endpoints. A null hypothesis can only be rejected if all preceding null hypotheses are also rejected.", "nonInferiorityType": "SUPERIORITY", "pValue": "0.028", "statisticalMethod": "Regression, Logistic", "paramType": "Odds Ratio (OR)", "paramValue": "1.228", "ciPctValue": "95", "ciNumSides": "TWO_SIDED", "ciLowerLimit": "1.022", "ciUpperLimit": "1.475"}, {"groupIds": ["OG001", "OG002"], "groupDescription": "Logistic regression model with baseline AQLQ-12 as a continuous covariate and age group, region and number of severe exacerbations in the 12 months prior to randomization as categorical covariates. A sequential testing strategy is used for secondary endpoints. A null hypothesis can only be rejected if all preceding null hypotheses are also rejected.", "nonInferiorityType": "SUPERIORITY", "pValue": "0.26", "statisticalMethod": "Regression, Logistic", "paramType": "Odds Ratio (OR)", "paramValue": "1.111", "ciPctValue": "95", "ciNumSides": "TWO_SIDED", "ciLowerLimit": "0.925", "ciUpperLimit": "1.335"}]}]}, "adverseEventsModule": {"frequencyThreshold": "2", "timeFrame": "Adverse events (AEs) were collected from the time of signed informed consent/assent and up to the safety follow up period. Reported AEs are those that occurred from the date of first dose of randomized treatment up to the date of treatment discontinuation, which per protocol, was expected to be at least 24 weeks. The mean and median duration of exposure to randomized treatment for the reporting period for all participants was 44 and 48 weeks, respectively.", "eventGroups": [{"id": "EG000", "title": "BDA MDI (PT027) 160/180 \u03bcg", "description": "Budesonide/albuterol sulfate, BDA MDI, PT027 high dose\n\nBudesonide/albuterol sulfate metered-dose inhaler 160/180 \u03bcg: Budesonide/albuterol sulfate combination inhalation aerosol", "deathsNumAffected": 4, "deathsNumAtRisk": 1015, "seriousNumAffected": 53, "seriousNumAtRisk": 1015, "otherNumAffected": 244, "otherNumAtRisk": 1015}, {"id": "EG001", "title": "BDA MDI (PT027) 80/180 \u03bcg", "description": "Budesonide/albuterol sulfate, BDA MDI, PT027 low dose\n\nBudesonide/albuterol sulfate metered-dose inhaler 80/180 \u03bcg: Budesonide/albuterol sulfate combination inhalation aerosol", "deathsNumAffected": 2, "deathsNumAtRisk": 1055, "seriousNumAffected": 40, "seriousNumAtRisk": 1055, "otherNumAffected": 253, "otherNumAtRisk": 1055}, {"id": "EG002", "title": "AS MDI (PT007) 180 \u00b5g", "description": "Albuterol sulfate MDI, PT007\n\nAlbuterol sulfate metered-dose inhaler 180 \u03bcg: Albuterol sulfate inhalation aerosol", "deathsNumAffected": 2, "deathsNumAtRisk": 1057, "seriousNumAffected": 48, "seriousNumAtRisk": 1057, "otherNumAffected": 243, "otherNumAtRisk": 1057}], "seriousEvents": [{"term": "Accelerated hypertension", "organSystem": "Vascular disorders", "sourceVocabulary": "MedDRA (24.0)", "assessmentType": "SYSTEMATIC_ASSESSMENT", "stats": [{"groupId": "EG000", "numEvents": 1, "numAffected": 1, "numAtRisk": 1015}, {"groupId": "EG001", "numEvents": 0, "numAffected": 0, "numAtRisk": 1055}, {"groupId": "EG002", "numEvents": 0, "numAffected": 0, "numAtRisk": 1057}]}, {"term": "Deep vein thrombosis", "organSystem": "Vascular disorders", "sourceVocabulary": "MedDRA (24.0)", "assessmentType": "SYSTEMATIC_ASSESSMENT", "stats": [{"groupId": "EG000", "numEvents": 1, "numAffected": 1, "numAtRisk": 1015}, {"groupId": "EG001", "numEvents": 0, "numAffected": 0, "numAtRisk": 1055}, {"groupId": "EG002", "numEvents": 0, "numAffected": 0, "numAtRisk": 1057}]}, {"term": "Haematoma", "organSystem": "Vascular disorders", "sourceVocabulary": "MedDRA (24.0)", "assessmentType": "SYSTEMATIC_ASSESSMENT", "stats": [{"groupId": "EG000", "numEvents": 1, "numAffected": 1, "numAtRisk": 1015}, {"groupId": "EG001", "numEvents": 0, "numAffected": 0, "numAtRisk": 1055}, {"groupId": "EG002", "numEvents": 0, "numAffected": 0, "numAtRisk": 1057}]}, {"term": "Hypertensive crisis", "organSystem": "Vascular disorders", "sourceVocabulary": "MedDRA (24.0)", "assessmentType": "SYSTEMATIC_ASSESSMENT", "stats": [{"groupId": "EG000", "numEvents": 1, "numAffected": 1, "numAtRisk": 1015}, {"groupId": "EG001", "numEvents": 0, "numAffected": 0, "numAtRisk": 1055}, {"groupId": "EG002", "numEvents": 3, "numAffected": 1, "numAtRisk": 1057}]}, {"term": "Acute promyelocytic leukaemia", "organSystem": "Neoplasms benign, malignant and unspecified (incl cysts and polyps)", "sourceVocabulary": "MedDRA (24.0)", "assessmentType": "SYSTEMATIC_ASSESSMENT", "stats": [{"groupId": "EG000", "numEvents": 0, "numAffected": 0, "numAtRisk": 1015}, {"groupId": "EG001", "numEvents": 1, "numAffected": 1, "numAtRisk": 1055}, {"groupId": "EG002", "numEvents": 0, "numAffected": 0, "numAtRisk": 1057}]}, {"term": "Adenocarcinoma of colon", "organSystem": "Neoplasms benign, malignant and unspecified (incl cysts and polyps)", "sourceVocabulary": "MedDRA (24.0)", "assessmentType": "SYSTEMATIC_ASSESSMENT", "stats": [{"groupId": "EG000", "numEvents": 0, "numAffected": 0, "numAtRisk": 1015}, {"groupId": "EG001", "numEvents": 1, "numAffected": 1, "numAtRisk": 1055}, {"groupId": "EG002", "numEvents": 0, "numAffected": 0, "numAtRisk": 1057}]}, {"term": "Cholesteatoma", "organSystem": "Neoplasms benign, malignant and unspecified (incl cysts and polyps)", "sourceVocabulary": "MedDRA (24.0)", "assessmentType": "SYSTEMATIC_ASSESSMENT", "stats": [{"groupId": "EG000", "numEvents": 1, "numAffected": 1, "numAtRisk": 1015}, {"groupId": "EG001", "numEvents": 0, "numAffected": 0, "numAtRisk": 1055}, {"groupId": "EG002", "numEvents": 0, "numAffected": 0, "numAtRisk": 1057}]}, {"term": "Haemangioma", "organSystem": "Neoplasms benign, malignant and unspecified (incl cysts and polyps)", "sourceVocabulary": "MedDRA (24.0)", "assessmentType": "SYSTEMATIC_ASSESSMENT", "stats": [{"groupId": "EG000", "numEvents": 0, "numAffected": 0, "numAtRisk": 1015}, {"groupId": "EG001", "numEvents": 1, "numAffected": 1, "numAtRisk": 1055}, {"groupId": "EG002", "numEvents": 0, "numAffected": 0, "numAtRisk": 1057}]}, {"term": "Lung neoplasm malignant", "organSystem": "Neoplasms benign, malignant and unspecified (incl cysts and polyps)", "sourceVocabulary": "MedDRA (24.0)", "assessmentType": "SYSTEMATIC_ASSESSMENT", "stats": [{"groupId": "EG000", "numEvents": 1, "numAffected": 1, "numAtRisk": 1015}, {"groupId": "EG001", "numEvents": 0, "numAffected": 0, "numAtRisk": 1055}, {"groupId": "EG002", "numEvents": 0, "numAffected": 0, "numAtRisk": 1057}]}, {"term": "Metastases to lung", "organSystem": "Neoplasms benign, malignant and unspecified (incl cysts and polyps)", "sourceVocabulary": "MedDRA (24.0)", "assessmentType": "SYSTEMATIC_ASSESSMENT", "stats": [{"groupId": "EG000", "numEvents": 0, "numAffected": 0, "numAtRisk": 1015}, {"groupId": "EG001", "numEvents": 1, "numAffected": 1, "numAtRisk": 1055}, {"groupId": "EG002", "numEvents": 0, "numAffected": 0, "numAtRisk": 1057}]}, {"term": "Neoplasm skin", "organSystem": "Neoplasms benign, malignant and unspecified (incl cysts and polyps)", "sourceVocabulary": "MedDRA (24.0)", "assessmentType": "SYSTEMATIC_ASSESSMENT", "stats": [{"groupId": "EG000", "numEvents": 0, "numAffected": 0, "numAtRisk": 1015}, {"groupId": "EG001", "numEvents": 0, "numAffected": 0, "numAtRisk": 1055}, {"groupId": "EG002", "numEvents": 1, "numAffected": 1, "numAtRisk": 1057}]}, {"term": "Rectal adenoma", "organSystem": "Neoplasms benign, malignant and unspecified (incl cysts and polyps)", "sourceVocabulary": "MedDRA (24.0)", "assessmentType": "SYSTEMATIC_ASSESSMENT", "stats": [{"groupId": "EG000", "numEvents": 1, "numAffected": 1, "numAtRisk": 1015}, {"groupId": "EG001", "numEvents": 0, "numAffected": 0, "numAtRisk": 1055}, {"groupId": "EG002", "numEvents": 0, "numAffected": 0, "numAtRisk": 1057}]}, {"term": "Rectal cancer", "organSystem": "Neoplasms benign, malignant and unspecified (incl cysts and polyps)", "sourceVocabulary": "MedDRA (24.0)", "assessmentType": "SYSTEMATIC_ASSESSMENT", "stats": [{"groupId": "EG000", "numEvents": 1, "numAffected": 1, "numAtRisk": 1015}, {"groupId": "EG001", "numEvents": 0, "numAffected": 0, "numAtRisk": 1055}, {"groupId": "EG002", "numEvents": 0, "numAffected": 0, "numAtRisk": 1057}]}, {"term": "Allergy to arthropod sting", "organSystem": "Immune system disorders", "sourceVocabulary": "MedDRA (24.0)", "assessmentType": "SYSTEMATIC_ASSESSMENT", "stats": [{"groupId": "EG000", "numEvents": 1, "numAffected": 1, "numAtRisk": 1015}, {"groupId": "EG001", "numEvents": 0, "numAffected": 0, "numAtRisk": 1055}, {"groupId": "EG002", "numEvents": 0, "numAffected": 0, "numAtRisk": 1057}]}, {"term": "Anaphylatic shock", "organSystem": "Immune system disorders", "sourceVocabulary": "MedDRA (24.0)", "assessmentType": "SYSTEMATIC_ASSESSMENT", "stats": [{"groupId": "EG000", "numEvents": 1, "numAffected": 1, "numAtRisk": 1015}, {"groupId": "EG001", "numEvents": 0, "numAffected": 0, "numAtRisk": 1055}, {"groupId": "EG002", "numEvents": 0, "numAffected": 0, "numAtRisk": 1057}]}, {"term": "Drug hypersensitivity", "organSystem": "Immune system disorders", "sourceVocabulary": "MedDRA (24.0)", "assessmentType": "SYSTEMATIC_ASSESSMENT", "stats": [{"groupId": "EG000", "numEvents": 0, "numAffected": 0, "numAtRisk": 1015}, {"groupId": "EG001", "numEvents": 0, "numAffected": 0, "numAtRisk": 1055}, {"groupId": "EG002", "numEvents": 1, "numAffected": 1, "numAtRisk": 1057}]}, {"term": "Food allergy", "organSystem": "Immune system disorders", "sourceVocabulary": "MedDRA (24.0)", "assessmentType": "SYSTEMATIC_ASSESSMENT", "stats": [{"groupId": "EG000", "numEvents": 0, "numAffected": 0, "numAtRisk": 1015}, {"groupId": "EG001", "numEvents": 1, "numAffected": 1, "numAtRisk": 1055}, {"groupId": "EG002", "numEvents": 0, "numAffected": 0, "numAtRisk": 1057}]}, {"term": "Chest pain", "organSystem": "General disorders", "sourceVocabulary": "MedDRA (24.0)", "assessmentType": "SYSTEMATIC_ASSESSMENT", "stats": [{"groupId": "EG000", "numEvents": 1, "numAffected": 1, "numAtRisk": 1015}, {"groupId": "EG001", "numEvents": 0, "numAffected": 0, "numAtRisk": 1055}, {"groupId": "EG002", "numEvents": 0, "numAffected": 0, "numAtRisk": 1057}]}, {"term": "Non-cardiac chest pain", "organSystem": "General disorders", "sourceVocabulary": "MedDRA (24.0)", "assessmentType": "SYSTEMATIC_ASSESSMENT", "stats": [{"groupId": "EG000", "numEvents": 0, "numAffected": 0, "numAtRisk": 1015}, {"groupId": "EG001", "numEvents": 1, "numAffected": 1, "numAtRisk": 1055}, {"groupId": "EG002", "numEvents": 0, "numAffected": 0, "numAtRisk": 1057}]}, {"term": "Pyrexia", "organSystem": "General disorders", "sourceVocabulary": "MedDRA (24.0)", "assessmentType": "SYSTEMATIC_ASSESSMENT", "stats": [{"groupId": "EG000", "numEvents": 1, "numAffected": 1, "numAtRisk": 1015}, {"groupId": "EG001", "numEvents": 0, "numAffected": 0, "numAtRisk": 1055}, {"groupId": "EG002", "numEvents": 0, "numAffected": 0, "numAtRisk": 1057}]}, {"term": "Adjustment disorder with depressed mood", "organSystem": "Psychiatric disorders", "sourceVocabulary": "MedDRA (24.0)", "assessmentType": "SYSTEMATIC_ASSESSMENT", "stats": [{"groupId": "EG000", "numEvents": 1, "numAffected": 1, "numAtRisk": 1015}, {"groupId": "EG001", "numEvents": 0, "numAffected": 0, "numAtRisk": 1055}, {"groupId": "EG002", "numEvents": 0, "numAffected": 0, "numAtRisk": 1057}]}, {"term": "Mixed anxiety and depressive disorder", "organSystem": "Psychiatric disorders", "sourceVocabulary": "MedDRA (24.0)", "assessmentType": "SYSTEMATIC_ASSESSMENT", "stats": [{"groupId": "EG000", "numEvents": 1, "numAffected": 1, "numAtRisk": 1015}, {"groupId": "EG001", "numEvents": 0, "numAffected": 0, "numAtRisk": 1055}, {"groupId": "EG002", "numEvents": 0, "numAffected": 0, "numAtRisk": 1057}]}, {"term": "Post-traumatic stress disorder", "organSystem": "Psychiatric disorders", "sourceVocabulary": "MedDRA (24.0)", "assessmentType": "SYSTEMATIC_ASSESSMENT", "stats": [{"groupId": "EG000", "numEvents": 0, "numAffected": 0, "numAtRisk": 1015}, {"groupId": "EG001", "numEvents": 0, "numAffected": 0, "numAtRisk": 1055}, {"groupId": "EG002", "numEvents": 1, "numAffected": 1, "numAtRisk": 1057}]}, {"term": "Cervical dysplasia", "organSystem": "Reproductive system and breast disorders", "sourceVocabulary": "MedDRA (24.0)", "assessmentType": "SYSTEMATIC_ASSESSMENT", "stats": [{"groupId": "EG000", "numEvents": 0, "numAffected": 0, "numAtRisk": 1015}, {"groupId": "EG001", "numEvents": 1, "numAffected": 1, "numAtRisk": 1055}, {"groupId": "EG002", "numEvents": 0, "numAffected": 0, "numAtRisk": 1057}]}, {"term": "Colpocele", "organSystem": "Reproductive system and breast disorders", "sourceVocabulary": "MedDRA (24.0)", "assessmentType": "SYSTEMATIC_ASSESSMENT", "stats": [{"groupId": "EG000", "numEvents": 1, "numAffected": 1, "numAtRisk": 1015}, {"groupId": "EG001", "numEvents": 0, "numAffected": 0, "numAtRisk": 1055}, {"groupId": "EG002", "numEvents": 0, "numAffected": 0, "numAtRisk": 1057}]}, {"term": "Vaginal haemorrhage", "organSystem": "Reproductive system and breast disorders", "sourceVocabulary": "MedDRA (24.0)", "assessmentType": "SYSTEMATIC_ASSESSMENT", "stats": [{"groupId": "EG000", "numEvents": 1, "numAffected": 1, "numAtRisk": 1015}, {"groupId": "EG001", "numEvents": 0, "numAffected": 0, "numAtRisk": 1055}, {"groupId": "EG002", "numEvents": 0, "numAffected": 0, "numAtRisk": 1057}]}, {"term": "Accidental overdose", "organSystem": "Injury, poisoning and procedural complications", "sourceVocabulary": "MedDRA (24.0)", "assessmentType": "SYSTEMATIC_ASSESSMENT", "stats": [{"groupId": "EG000", "numEvents": 0, "numAffected": 0, "numAtRisk": 1015}, {"groupId": "EG001", "numEvents": 1, "numAffected": 1, "numAtRisk": 1055}, {"groupId": "EG002", "numEvents": 0, "numAffected": 0, "numAtRisk": 1057}]}, {"term": "Animal bite", "organSystem": "Injury, poisoning and procedural complications", "sourceVocabulary": "MedDRA (24.0)", "assessmentType": "SYSTEMATIC_ASSESSMENT", "stats": [{"groupId": "EG000", "numEvents": 0, "numAffected": 0, "numAtRisk": 1015}, {"groupId": "EG001", "numEvents": 1, "numAffected": 1, "numAtRisk": 1055}, {"groupId": "EG002", "numEvents": 0, "numAffected": 0, "numAtRisk": 1057}]}, {"term": "Concussion", "organSystem": "Injury, poisoning and procedural complications", "sourceVocabulary": "MedDRA (24.0)", "assessmentType": "SYSTEMATIC_ASSESSMENT", "stats": [{"groupId": "EG000", "numEvents": 0, "numAffected": 0, "numAtRisk": 1015}, {"groupId": "EG001", "numEvents": 1, "numAffected": 1, "numAtRisk": 1055}, {"groupId": "EG002", "numEvents": 0, "numAffected": 0, "numAtRisk": 1057}]}, {"term": "Femur fracture", "organSystem": "Injury, poisoning and procedural complications", "sourceVocabulary": "MedDRA (24.0)", "assessmentType": "SYSTEMATIC_ASSESSMENT", "stats": [{"groupId": "EG000", "numEvents": 0, "numAffected": 0, "numAtRisk": 1015}, {"groupId": "EG001", "numEvents": 1, "numAffected": 1, "numAtRisk": 1055}, {"groupId": "EG002", "numEvents": 0, "numAffected": 0, "numAtRisk": 1057}]}, {"term": "Joint dislocation", "organSystem": "Injury, poisoning and procedural complications", "sourceVocabulary": "MedDRA (24.0)", "assessmentType": "SYSTEMATIC_ASSESSMENT", "stats": [{"groupId": "EG000", "numEvents": 1, "numAffected": 1, "numAtRisk": 1015}, {"groupId": "EG001", "numEvents": 0, "numAffected": 0, "numAtRisk": 1055}, {"groupId": "EG002", "numEvents": 0, "numAffected": 0, "numAtRisk": 1057}]}, {"term": "Limb injury", "organSystem": "Injury, poisoning and procedural complications", "sourceVocabulary": "MedDRA (24.0)", "assessmentType": "SYSTEMATIC_ASSESSMENT", "stats": [{"groupId": "EG000", "numEvents": 1, "numAffected": 1, "numAtRisk": 1015}, {"groupId": "EG001", "numEvents": 0, "numAffected": 0, "numAtRisk": 1055}, {"groupId": "EG002", "numEvents": 0, "numAffected": 0, "numAtRisk": 1057}]}, {"term": "Lumbar vertebral fracture", "organSystem": "Injury, poisoning and procedural complications", "sourceVocabulary": "MedDRA (24.0)", "assessmentType": "SYSTEMATIC_ASSESSMENT", "stats": [{"groupId": "EG000", "numEvents": 0, "numAffected": 0, "numAtRisk": 1015}, {"groupId": "EG001", "numEvents": 1, "numAffected": 1, "numAtRisk": 1055}, {"groupId": "EG002", "numEvents": 0, "numAffected": 0, "numAtRisk": 1057}]}, {"term": "Radius fracture", "organSystem": "Injury, poisoning and procedural complications", "sourceVocabulary": "MedDRA (24.0)", "assessmentType": "SYSTEMATIC_ASSESSMENT", "stats": [{"groupId": "EG000", "numEvents": 0, "numAffected": 0, "numAtRisk": 1015}, {"groupId": "EG001", "numEvents": 1, "numAffected": 1, "numAtRisk": 1055}, {"groupId": "EG002", "numEvents": 0, "numAffected": 0, "numAtRisk": 1057}]}, {"term": "Tendon rupture", "organSystem": "Injury, poisoning and procedural complications", "sourceVocabulary": "MedDRA (24.0)", "assessmentType": "SYSTEMATIC_ASSESSMENT", "stats": [{"groupId": "EG000", "numEvents": 0, "numAffected": 0, "numAtRisk": 1015}, {"groupId": "EG001", "numEvents": 1, "numAffected": 1, "numAtRisk": 1055}, {"groupId": "EG002", "numEvents": 0, "numAffected": 0, "numAtRisk": 1057}]}, {"term": "Urinary retention postoperative", "organSystem": "Injury, poisoning and procedural complications", "sourceVocabulary": "MedDRA (24.0)", "assessmentType": "SYSTEMATIC_ASSESSMENT", "stats": [{"groupId": "EG000", "numEvents": 0, "numAffected": 0, "numAtRisk": 1015}, {"groupId": "EG001", "numEvents": 0, "numAffected": 0, "numAtRisk": 1055}, {"groupId": "EG002", "numEvents": 1, "numAffected": 1, "numAtRisk": 1057}]}, {"term": "Blood glucose increased", "organSystem": "Investigations", "sourceVocabulary": "MedDRA (24.0)", "assessmentType": "SYSTEMATIC_ASSESSMENT", "stats": [{"groupId": "EG000", "numEvents": 1, "numAffected": 1, "numAtRisk": 1015}, {"groupId": "EG001", "numEvents": 0, "numAffected": 0, "numAtRisk": 1055}, {"groupId": "EG002", "numEvents": 0, "numAffected": 0, "numAtRisk": 1057}]}, {"term": "Troponin I increased", "organSystem": "Investigations", "sourceVocabulary": "MedDRA (24.0)", "assessmentType": "SYSTEMATIC_ASSESSMENT", "stats": [{"groupId": "EG000", "numEvents": 0, "numAffected": 0, "numAtRisk": 1015}, {"groupId": "EG001", "numEvents": 0, "numAffected": 0, "numAtRisk": 1055}, {"groupId": "EG002", "numEvents": 1, "numAffected": 1, "numAtRisk": 1057}]}, {"term": "Acute myocardial infarction", "organSystem": "Cardiac disorders", "sourceVocabulary": "MedDRA (24.0)", "assessmentType": "SYSTEMATIC_ASSESSMENT", "stats": [{"groupId": "EG000", "numEvents": 1, "numAffected": 1, "numAtRisk": 1015}, {"groupId": "EG001", "numEvents": 0, "numAffected": 0, "numAtRisk": 1055}, {"groupId": "EG002", "numEvents": 0, "numAffected": 0, "numAtRisk": 1057}]}, {"term": "Atrial fibrillation", "organSystem": "Cardiac disorders", "sourceVocabulary": "MedDRA (24.0)", "assessmentType": "SYSTEMATIC_ASSESSMENT", "stats": [{"groupId": "EG000", "numEvents": 0, "numAffected": 0, "numAtRisk": 1015}, {"groupId": "EG001", "numEvents": 2, "numAffected": 2, "numAtRisk": 1055}, {"groupId": "EG002", "numEvents": 0, "numAffected": 0, "numAtRisk": 1057}]}, {"term": "Atrioventricular block second degree", "organSystem": "Cardiac disorders", "sourceVocabulary": "MedDRA (24.0)", "assessmentType": "SYSTEMATIC_ASSESSMENT", "stats": [{"groupId": "EG000", "numEvents": 0, "numAffected": 0, "numAtRisk": 1015}, {"groupId": "EG001", "numEvents": 0, "numAffected": 0, "numAtRisk": 1055}, {"groupId": "EG002", "numEvents": 1, "numAffected": 1, "numAtRisk": 1057}]}, {"term": "Cardiac arrest", "organSystem": "Cardiac disorders", "sourceVocabulary": "MedDRA (24.0)", "assessmentType": "SYSTEMATIC_ASSESSMENT", "stats": [{"groupId": "EG000", "numEvents": 1, "numAffected": 1, "numAtRisk": 1015}, {"groupId": "EG001", "numEvents": 0, "numAffected": 0, "numAtRisk": 1055}, {"groupId": "EG002", "numEvents": 0, "numAffected": 0, "numAtRisk": 1057}]}, {"term": "Coronary artery stenosis", "organSystem": "Cardiac disorders", "sourceVocabulary": "MedDRA (24.0)", "assessmentType": "SYSTEMATIC_ASSESSMENT", "stats": [{"groupId": "EG000", "numEvents": 0, "numAffected": 0, "numAtRisk": 1015}, {"groupId": "EG001", "numEvents": 1, "numAffected": 1, "numAtRisk": 1055}, {"groupId": "EG002", "numEvents": 0, "numAffected": 0, "numAtRisk": 1057}]}, {"term": "Myocardial infarction", "organSystem": "Cardiac disorders", "sourceVocabulary": "MedDRA (24.0)", "assessmentType": "SYSTEMATIC_ASSESSMENT", "stats": [{"groupId": "EG000", "numEvents": 0, "numAffected": 0, "numAtRisk": 1015}, {"groupId": "EG001", "numEvents": 1, "numAffected": 1, "numAtRisk": 1055}, {"groupId": "EG002", "numEvents": 1, "numAffected": 1, "numAtRisk": 1057}]}, {"term": "Pericardial effusion", "organSystem": "Cardiac disorders", "sourceVocabulary": "MedDRA (24.0)", "assessmentType": "SYSTEMATIC_ASSESSMENT", "stats": [{"groupId": "EG000", "numEvents": 0, "numAffected": 0, "numAtRisk": 1015}, {"groupId": "EG001", "numEvents": 1, "numAffected": 1, "numAtRisk": 1055}, {"groupId": "EG002", "numEvents": 0, "numAffected": 0, "numAtRisk": 1057}]}, {"term": "Supraventricular tachycardia", "organSystem": "Cardiac disorders", "sourceVocabulary": "MedDRA (24.0)", "assessmentType": "SYSTEMATIC_ASSESSMENT", "stats": [{"groupId": "EG000", "numEvents": 0, "numAffected": 0, "numAtRisk": 1015}, {"groupId": "EG001", "numEvents": 1, "numAffected": 1, "numAtRisk": 1055}, {"groupId": "EG002", "numEvents": 0, "numAffected": 0, "numAtRisk": 1057}]}, {"term": "Tachycardia", "organSystem": "Cardiac disorders", "sourceVocabulary": "MedDRA (24.0)", "assessmentType": "SYSTEMATIC_ASSESSMENT", "stats": [{"groupId": "EG000", "numEvents": 0, "numAffected": 0, "numAtRisk": 1015}, {"groupId": "EG001", "numEvents": 1, "numAffected": 1, "numAtRisk": 1055}, {"groupId": "EG002", "numEvents": 0, "numAffected": 0, "numAtRisk": 1057}]}, {"term": "Asthma", "organSystem": "Respiratory, thoracic and mediastinal disorders", "sourceVocabulary": "MedDRA (24.0)", "assessmentType": "SYSTEMATIC_ASSESSMENT", "stats": [{"groupId": "EG000", "numEvents": 7, "numAffected": 7, "numAtRisk": 1015}, {"groupId": "EG001", "numEvents": 9, "numAffected": 8, "numAtRisk": 1055}, {"groupId": "EG002", "numEvents": 20, "numAffected": 20, "numAtRisk": 1057}]}, {"term": "Nasal polyps", "organSystem": "Respiratory, thoracic and mediastinal disorders", "sourceVocabulary": "MedDRA (24.0)", "assessmentType": "SYSTEMATIC_ASSESSMENT", "stats": [{"groupId": "EG000", "numEvents": 1, "numAffected": 1, "numAtRisk": 1015}, {"groupId": "EG001", "numEvents": 0, "numAffected": 0, "numAtRisk": 1055}, {"groupId": "EG002", "numEvents": 0, "numAffected": 0, "numAtRisk": 1057}]}, {"term": "Pneumothorax", "organSystem": "Respiratory, thoracic and mediastinal disorders", "sourceVocabulary": "MedDRA (24.0)", "assessmentType": "SYSTEMATIC_ASSESSMENT", "stats": [{"groupId": "EG000", "numEvents": 0, "numAffected": 0, "numAtRisk": 1015}, {"groupId": "EG001", "numEvents": 3, "numAffected": 1, "numAtRisk": 1055}, {"groupId": "EG002", "numEvents": 0, "numAffected": 0, "numAtRisk": 1057}]}, {"term": "Ataxia", "organSystem": "Nervous system disorders", "sourceVocabulary": "MedDRA (24.0)", "assessmentType": "SYSTEMATIC_ASSESSMENT", "stats": [{"groupId": "EG000", "numEvents": 1, "numAffected": 1, "numAtRisk": 1015}, {"groupId": "EG001", "numEvents": 0, "numAffected": 0, "numAtRisk": 1055}, {"groupId": "EG002", "numEvents": 0, "numAffected": 0, "numAtRisk": 1057}]}, {"term": "Cerebrovascular accident", "organSystem": "Nervous system disorders", "sourceVocabulary": "MedDRA (24.0)", "assessmentType": "SYSTEMATIC_ASSESSMENT", "stats": [{"groupId": "EG000", "numEvents": 0, "numAffected": 0, "numAtRisk": 1015}, {"groupId": "EG001", "numEvents": 0, "numAffected": 0, "numAtRisk": 1055}, {"groupId": "EG002", "numEvents": 1, "numAffected": 1, "numAtRisk": 1057}]}, {"term": "Cervicobrachial syndrome", "organSystem": "Nervous system disorders", "sourceVocabulary": "MedDRA (24.0)", "assessmentType": "SYSTEMATIC_ASSESSMENT", "stats": [{"groupId": "EG000", "numEvents": 0, "numAffected": 0, "numAtRisk": 1015}, {"groupId": "EG001", "numEvents": 0, "numAffected": 0, "numAtRisk": 1055}, {"groupId": "EG002", "numEvents": 1, "numAffected": 1, "numAtRisk": 1057}]}, {"term": "Headache", "organSystem": "Nervous system disorders", "sourceVocabulary": "MedDRA (24.0)", "assessmentType": "SYSTEMATIC_ASSESSMENT", "stats": [{"groupId": "EG000", "numEvents": 0, "numAffected": 0, "numAtRisk": 1015}, {"groupId": "EG001", "numEvents": 0, "numAffected": 0, "numAtRisk": 1055}, {"groupId": "EG002", "numEvents": 1, "numAffected": 1, "numAtRisk": 1057}]}, {"term": "Intensive care unit acquired weakness", "organSystem": "Nervous system disorders", "sourceVocabulary": "MedDRA (24.0)", "assessmentType": "SYSTEMATIC_ASSESSMENT", "stats": [{"groupId": "EG000", "numEvents": 1, "numAffected": 1, "numAtRisk": 1015}, {"groupId": "EG001", "numEvents": 0, "numAffected": 0, "numAtRisk": 1055}, {"groupId": "EG002", "numEvents": 0, "numAffected": 0, "numAtRisk": 1057}]}, {"term": "Migraine", "organSystem": "Nervous system disorders", "sourceVocabulary": "MedDRA (24.0)", "assessmentType": "SYSTEMATIC_ASSESSMENT", "stats": [{"groupId": "EG000", "numEvents": 0, "numAffected": 0, "numAtRisk": 1015}, {"groupId": "EG001", "numEvents": 1, "numAffected": 1, "numAtRisk": 1055}, {"groupId": "EG002", "numEvents": 0, "numAffected": 0, "numAtRisk": 1057}]}, {"term": "Transient ischaemic attack", "organSystem": "Nervous system disorders", "sourceVocabulary": "MedDRA (24.0)", "assessmentType": "SYSTEMATIC_ASSESSMENT", "stats": [{"groupId": "EG000", "numEvents": 0, "numAffected": 0, "numAtRisk": 1015}, {"groupId": "EG001", "numEvents": 0, "numAffected": 0, "numAtRisk": 1055}, {"groupId": "EG002", "numEvents": 1, "numAffected": 1, "numAtRisk": 1057}]}, {"term": "Diplopia", "organSystem": "Eye disorders", "sourceVocabulary": "MedDRA (24.0)", "assessmentType": "SYSTEMATIC_ASSESSMENT", "stats": [{"groupId": "EG000", "numEvents": 1, "numAffected": 1, "numAtRisk": 1015}, {"groupId": "EG001", "numEvents": 0, "numAffected": 0, "numAtRisk": 1055}, {"groupId": "EG002", "numEvents": 0, "numAffected": 0, "numAtRisk": 1057}]}, {"term": "Vertigo", "organSystem": "Ear and labyrinth disorders", "sourceVocabulary": "MedDRA (24.0)", "assessmentType": "SYSTEMATIC_ASSESSMENT", "stats": [{"groupId": "EG000", "numEvents": 0, "numAffected": 0, "numAtRisk": 1015}, {"groupId": "EG001", "numEvents": 0, "numAffected": 0, "numAtRisk": 1055}, {"groupId": "EG002", "numEvents": 1, "numAffected": 1, "numAtRisk": 1057}]}, {"term": "Duodenal ulcer", "organSystem": "Gastrointestinal disorders", "sourceVocabulary": "MedDRA (24.0)", "assessmentType": "SYSTEMATIC_ASSESSMENT", "stats": [{"groupId": "EG000", "numEvents": 1, "numAffected": 1, "numAtRisk": 1015}, {"groupId": "EG001", "numEvents": 0, "numAffected": 0, "numAtRisk": 1055}, {"groupId": "EG002", "numEvents": 0, "numAffected": 0, "numAtRisk": 1057}]}, {"term": "Gastritis", "organSystem": "Gastrointestinal disorders", "sourceVocabulary": "MedDRA (24.0)", "assessmentType": "SYSTEMATIC_ASSESSMENT", "stats": [{"groupId": "EG000", "numEvents": 1, "numAffected": 1, "numAtRisk": 1015}, {"groupId": "EG001", "numEvents": 0, "numAffected": 0, "numAtRisk": 1055}, {"groupId": "EG002", "numEvents": 0, "numAffected": 0, "numAtRisk": 1057}]}, {"term": "Intestinal obstruction", "organSystem": "Gastrointestinal disorders", "sourceVocabulary": "MedDRA (24.0)", "assessmentType": "SYSTEMATIC_ASSESSMENT", "stats": [{"groupId": "EG000", "numEvents": 1, "numAffected": 1, "numAtRisk": 1015}, {"groupId": "EG001", "numEvents": 0, "numAffected": 0, "numAtRisk": 1055}, {"groupId": "EG002", "numEvents": 0, "numAffected": 0, "numAtRisk": 1057}]}, {"term": "Nausea", "organSystem": "Gastrointestinal disorders", "sourceVocabulary": "MedDRA (24.0)", "assessmentType": "SYSTEMATIC_ASSESSMENT", "stats": [{"groupId": "EG000", "numEvents": 0, "numAffected": 0, "numAtRisk": 1015}, {"groupId": "EG001", "numEvents": 0, "numAffected": 0, "numAtRisk": 1055}, {"groupId": "EG002", "numEvents": 1, "numAffected": 1, "numAtRisk": 1057}]}, {"term": "Small intestinal obstruction", "organSystem": "Gastrointestinal disorders", "sourceVocabulary": "MedDRA (24.0)", "assessmentType": "SYSTEMATIC_ASSESSMENT", "stats": [{"groupId": "EG000", "numEvents": 0, "numAffected": 0, "numAtRisk": 1015}, {"groupId": "EG001", "numEvents": 0, "numAffected": 0, "numAtRisk": 1055}, {"groupId": "EG002", "numEvents": 1, "numAffected": 1, "numAtRisk": 1057}]}, {"term": "Umbilical hernia", "organSystem": "Gastrointestinal disorders", "sourceVocabulary": "MedDRA (24.0)", "assessmentType": "SYSTEMATIC_ASSESSMENT", "stats": [{"groupId": "EG000", "numEvents": 0, "numAffected": 0, "numAtRisk": 1015}, {"groupId": "EG001", "numEvents": 0, "numAffected": 0, "numAtRisk": 1055}, {"groupId": "EG002", "numEvents": 1, "numAffected": 1, "numAtRisk": 1057}]}, {"term": "Acute kidney injury", "organSystem": "Renal and urinary disorders", "sourceVocabulary": "MedDRA (24.0)", "assessmentType": "SYSTEMATIC_ASSESSMENT", "stats": [{"groupId": "EG000", "numEvents": 0, "numAffected": 0, "numAtRisk": 1015}, {"groupId": "EG001", "numEvents": 0, "numAffected": 0, "numAtRisk": 1055}, {"groupId": "EG002", "numEvents": 1, "numAffected": 1, "numAtRisk": 1057}]}, {"term": "Haematuria", "organSystem": "Renal and urinary disorders", "sourceVocabulary": "MedDRA (24.0)", "assessmentType": "SYSTEMATIC_ASSESSMENT", "stats": [{"groupId": "EG000", "numEvents": 0, "numAffected": 0, "numAtRisk": 1015}, {"groupId": "EG001", "numEvents": 0, "numAffected": 0, "numAtRisk": 1055}, {"groupId": "EG002", "numEvents": 1, "numAffected": 1, "numAtRisk": 1057}]}, {"term": "Nephrolithiasis", "organSystem": "Renal and urinary disorders", "sourceVocabulary": "MedDRA (24.0)", "assessmentType": "SYSTEMATIC_ASSESSMENT", "stats": [{"groupId": "EG000", "numEvents": 0, "numAffected": 0, "numAtRisk": 1015}, {"groupId": "EG001", "numEvents": 0, "numAffected": 0, "numAtRisk": 1055}, {"groupId": "EG002", "numEvents": 1, "numAffected": 1, "numAtRisk": 1057}]}, {"term": "Cholecystitis", "organSystem": "Hepatobiliary disorders", "sourceVocabulary": "MedDRA (24.0)", "assessmentType": "SYSTEMATIC_ASSESSMENT", "stats": [{"groupId": "EG000", "numEvents": 1, "numAffected": 1, "numAtRisk": 1015}, {"groupId": "EG001", "numEvents": 0, "numAffected": 0, "numAtRisk": 1055}, {"groupId": "EG002", "numEvents": 0, "numAffected": 0, "numAtRisk": 1057}]}, {"term": "Cholecystitis acute", "organSystem": "Hepatobiliary disorders", "sourceVocabulary": "MedDRA (24.0)", "assessmentType": "SYSTEMATIC_ASSESSMENT", "stats": [{"groupId": "EG000", "numEvents": 3, "numAffected": 3, "numAtRisk": 1015}, {"groupId": "EG001", "numEvents": 0, "numAffected": 0, "numAtRisk": 1055}, {"groupId": "EG002", "numEvents": 0, "numAffected": 0, "numAtRisk": 1057}]}, {"term": "Cholelithiasis", "organSystem": "Hepatobiliary disorders", "sourceVocabulary": "MedDRA (24.0)", "assessmentType": "SYSTEMATIC_ASSESSMENT", "stats": [{"groupId": "EG000", "numEvents": 1, "numAffected": 1, "numAtRisk": 1015}, {"groupId": "EG001", "numEvents": 0, "numAffected": 0, "numAtRisk": 1055}, {"groupId": "EG002", "numEvents": 1, "numAffected": 1, "numAtRisk": 1057}]}, {"term": "Cirrhosis alcoholic", "organSystem": "Hepatobiliary disorders", "sourceVocabulary": "MedDRA (24.0)", "assessmentType": "SYSTEMATIC_ASSESSMENT", "stats": [{"groupId": "EG000", "numEvents": 0, "numAffected": 0, "numAtRisk": 1015}, {"groupId": "EG001", "numEvents": 1, "numAffected": 1, "numAtRisk": 1055}, {"groupId": "EG002", "numEvents": 0, "numAffected": 0, "numAtRisk": 1057}]}, {"term": "Dermatitis", "organSystem": "Skin and subcutaneous tissue disorders", "sourceVocabulary": "MedDRA (24.0)", "assessmentType": "SYSTEMATIC_ASSESSMENT", "stats": [{"groupId": "EG000", "numEvents": 0, "numAffected": 0, "numAtRisk": 1015}, {"groupId": "EG001", "numEvents": 1, "numAffected": 1, "numAtRisk": 1055}, {"groupId": "EG002", "numEvents": 0, "numAffected": 0, "numAtRisk": 1057}]}, {"term": "Foot deformity", "organSystem": "Musculoskeletal and connective tissue disorders", "sourceVocabulary": "MedDRA (24.0)", "assessmentType": "SYSTEMATIC_ASSESSMENT", "stats": [{"groupId": "EG000", "numEvents": 1, "numAffected": 1, "numAtRisk": 1015}, {"groupId": "EG001", "numEvents": 0, "numAffected": 0, "numAtRisk": 1055}, {"groupId": "EG002", "numEvents": 0, "numAffected": 0, "numAtRisk": 1057}]}, {"term": "Intervertebral disc protrusion", "organSystem": "Musculoskeletal and connective tissue disorders", "sourceVocabulary": "MedDRA (24.0)", "assessmentType": "SYSTEMATIC_ASSESSMENT", "stats": [{"groupId": "EG000", "numEvents": 0, "numAffected": 0, "numAtRisk": 1015}, {"groupId": "EG001", "numEvents": 0, "numAffected": 0, "numAtRisk": 1055}, {"groupId": "EG002", "numEvents": 1, "numAffected": 1, "numAtRisk": 1057}]}, {"term": "Osteoarthritis", "organSystem": "Musculoskeletal and connective tissue disorders", "sourceVocabulary": "MedDRA (24.0)", "assessmentType": "SYSTEMATIC_ASSESSMENT", "stats": [{"groupId": "EG000", "numEvents": 1, "numAffected": 1, "numAtRisk": 1015}, {"groupId": "EG001", "numEvents": 1, "numAffected": 1, "numAtRisk": 1055}, {"groupId": "EG002", "numEvents": 1, "numAffected": 1, "numAtRisk": 1057}]}, {"term": "Polyarthritis", "organSystem": "Musculoskeletal and connective tissue disorders", "sourceVocabulary": "MedDRA (24.0)", "assessmentType": "SYSTEMATIC_ASSESSMENT", "stats": [{"groupId": "EG000", "numEvents": 0, "numAffected": 0, "numAtRisk": 1015}, {"groupId": "EG001", "numEvents": 1, "numAffected": 1, "numAtRisk": 1055}, {"groupId": "EG002", "numEvents": 0, "numAffected": 0, "numAtRisk": 1057}]}, {"term": "Diabetes mellitus inadequate control", "organSystem": "Metabolism and nutrition disorders", "sourceVocabulary": "MedDRA (24.0)", "assessmentType": "SYSTEMATIC_ASSESSMENT", "stats": [{"groupId": "EG000", "numEvents": 1, "numAffected": 1, "numAtRisk": 1015}, {"groupId": "EG001", "numEvents": 0, "numAffected": 0, "numAtRisk": 1055}, {"groupId": "EG002", "numEvents": 0, "numAffected": 0, "numAtRisk": 1057}]}, {"term": "Vitamin D deficiency", "organSystem": "Metabolism and nutrition disorders", "sourceVocabulary": "MedDRA (24.0)", "assessmentType": "SYSTEMATIC_ASSESSMENT", "stats": [{"groupId": "EG000", "numEvents": 0, "numAffected": 0, "numAtRisk": 1015}, {"groupId": "EG001", "numEvents": 0, "numAffected": 0, "numAtRisk": 1055}, {"groupId": "EG002", "numEvents": 1, "numAffected": 1, "numAtRisk": 1057}]}, {"term": "Appendicitis", "organSystem": "Infections and infestations", "sourceVocabulary": "MedDRA (24.0)", "assessmentType": "SYSTEMATIC_ASSESSMENT", "stats": [{"groupId": "EG000", "numEvents": 0, "numAffected": 0, "numAtRisk": 1015}, {"groupId": "EG001", "numEvents": 0, "numAffected": 0, "numAtRisk": 1055}, {"groupId": "EG002", "numEvents": 1, "numAffected": 1, "numAtRisk": 1057}]}, {"term": "COVID-19", "organSystem": "Infections and infestations", "sourceVocabulary": "MedDRA (24.0)", "assessmentType": "SYSTEMATIC_ASSESSMENT", "stats": [{"groupId": "EG000", "numEvents": 12, "numAffected": 11, "numAtRisk": 1015}, {"groupId": "EG001", "numEvents": 5, "numAffected": 5, "numAtRisk": 1055}, {"groupId": "EG002", "numEvents": 8, "numAffected": 8, "numAtRisk": 1057}]}, {"term": "COVID-19 pneumonia", "organSystem": "Infections and infestations", "sourceVocabulary": "MedDRA (24.0)", "assessmentType": "SYSTEMATIC_ASSESSMENT", "stats": [{"groupId": "EG000", "numEvents": 3, "numAffected": 3, "numAtRisk": 1015}, {"groupId": "EG001", "numEvents": 4, "numAffected": 4, "numAtRisk": 1055}, {"groupId": "EG002", "numEvents": 5, "numAffected": 5, "numAtRisk": 1057}]}, {"term": "Clostridium difficile colitis", "organSystem": "Infections and infestations", "sourceVocabulary": "MedDRA (24.0)", "assessmentType": "SYSTEMATIC_ASSESSMENT", "stats": [{"groupId": "EG000", "numEvents": 0, "numAffected": 0, "numAtRisk": 1015}, {"groupId": "EG001", "numEvents": 0, "numAffected": 0, "numAtRisk": 1055}, {"groupId": "EG002", "numEvents": 1, "numAffected": 1, "numAtRisk": 1057}]}, {"term": "Diverticulitis", "organSystem": "Infections and infestations", "sourceVocabulary": "MedDRA (24.0)", "assessmentType": "SYSTEMATIC_ASSESSMENT", "stats": [{"groupId": "EG000", "numEvents": 1, "numAffected": 1, "numAtRisk": 1015}, {"groupId": "EG001", "numEvents": 0, "numAffected": 0, "numAtRisk": 1055}, {"groupId": "EG002", "numEvents": 1, "numAffected": 1, "numAtRisk": 1057}]}, {"term": "Gastroenteritis", "organSystem": "Infections and infestations", "sourceVocabulary": "MedDRA (24.0)", "assessmentType": "SYSTEMATIC_ASSESSMENT", "stats": [{"groupId": "EG000", "numEvents": 0, "numAffected": 0, "numAtRisk": 1015}, {"groupId": "EG001", "numEvents": 1, "numAffected": 1, "numAtRisk": 1055}, {"groupId": "EG002", "numEvents": 0, "numAffected": 0, "numAtRisk": 1057}]}, {"term": "Infection", "organSystem": "Infections and infestations", "sourceVocabulary": "MedDRA (24.0)", "assessmentType": "SYSTEMATIC_ASSESSMENT", "stats": [{"groupId": "EG000", "numEvents": 0, "numAffected": 0, "numAtRisk": 1015}, {"groupId": "EG001", "numEvents": 0, "numAffected": 0, "numAtRisk": 1055}, {"groupId": "EG002", "numEvents": 1, "numAffected": 1, "numAtRisk": 1057}]}, {"term": "Influenza", "organSystem": "Infections and infestations", "sourceVocabulary": "MedDRA (24.0)", "assessmentType": "SYSTEMATIC_ASSESSMENT", "stats": [{"groupId": "EG000", "numEvents": 0, "numAffected": 0, "numAtRisk": 1015}, {"groupId": "EG001", "numEvents": 3, "numAffected": 3, "numAtRisk": 1055}, {"groupId": "EG002", "numEvents": 0, "numAffected": 0, "numAtRisk": 1057}]}, {"term": "Lower respiratory tract infection", "organSystem": "Infections and infestations", "sourceVocabulary": "MedDRA (24.0)", "assessmentType": "SYSTEMATIC_ASSESSMENT", "stats": [{"groupId": "EG000", "numEvents": 0, "numAffected": 0, "numAtRisk": 1015}, {"groupId": "EG001", "numEvents": 1, "numAffected": 1, "numAtRisk": 1055}, {"groupId": "EG002", "numEvents": 0, "numAffected": 0, "numAtRisk": 1057}]}, {"term": "Pneumonia", "organSystem": "Infections and infestations", "sourceVocabulary": "MedDRA (24.0)", "assessmentType": "SYSTEMATIC_ASSESSMENT", "stats": [{"groupId": "EG000", "numEvents": 5, "numAffected": 5, "numAtRisk": 1015}, {"groupId": "EG001", "numEvents": 4, "numAffected": 4, "numAtRisk": 1055}, {"groupId": "EG002", "numEvents": 2, "numAffected": 2, "numAtRisk": 1057}]}, {"term": "Pneumonia viral", "organSystem": "Infections and infestations", "sourceVocabulary": "MedDRA (24.0)", "assessmentType": "SYSTEMATIC_ASSESSMENT", "stats": [{"groupId": "EG000", "numEvents": 1, "numAffected": 1, "numAtRisk": 1015}, {"groupId": "EG001", "numEvents": 0, "numAffected": 0, "numAtRisk": 1055}, {"groupId": "EG002", "numEvents": 0, "numAffected": 0, "numAtRisk": 1057}]}, {"term": "Sepsis", "organSystem": "Infections and infestations", "sourceVocabulary": "MedDRA (24.0)", "assessmentType": "SYSTEMATIC_ASSESSMENT", "stats": [{"groupId": "EG000", "numEvents": 0, "numAffected": 0, "numAtRisk": 1015}, {"groupId": "EG001", "numEvents": 0, "numAffected": 0, "numAtRisk": 1055}, {"groupId": "EG002", "numEvents": 1, "numAffected": 1, "numAtRisk": 1057}]}, {"term": "Suspected COVID-19", "organSystem": "Infections and infestations", "sourceVocabulary": "MedDRA (24.0)", "assessmentType": "SYSTEMATIC_ASSESSMENT", "stats": [{"groupId": "EG000", "numEvents": 0, "numAffected": 0, "numAtRisk": 1015}, {"groupId": "EG001", "numEvents": 0, "numAffected": 0, "numAtRisk": 1055}, {"groupId": "EG002", "numEvents": 1, "numAffected": 1, "numAtRisk": 1057}]}, {"term": "Urinary tract infection", "organSystem": "Infections and infestations", "sourceVocabulary": "MedDRA (24.0)", "assessmentType": "SYSTEMATIC_ASSESSMENT", "stats": [{"groupId": "EG000", "numEvents": 0, "numAffected": 0, "numAtRisk": 1015}, {"groupId": "EG001", "numEvents": 0, "numAffected": 0, "numAtRisk": 1055}, {"groupId": "EG002", "numEvents": 3, "numAffected": 3, "numAtRisk": 1057}]}], "otherEvents": [{"term": "Hypertension", "organSystem": "Vascular disorders", "sourceVocabulary": "MedDRA (24.0)", "assessmentType": "SYSTEMATIC_ASSESSMENT", "stats": [{"groupId": "EG000", "numEvents": 23, "numAffected": 22, "numAtRisk": 1015}, {"groupId": "EG001", "numEvents": 27, "numAffected": 27, "numAtRisk": 1055}, {"groupId": "EG002", "numEvents": 27, "numAffected": 26, "numAtRisk": 1057}]}, {"term": "Headache", "organSystem": "Nervous system disorders", "sourceVocabulary": "MedDRA (24.0)", "assessmentType": "SYSTEMATIC_ASSESSMENT", "stats": [{"groupId": "EG000", "numEvents": 71, "numAffected": 44, "numAtRisk": 1015}, {"groupId": "EG001", "numEvents": 77, "numAffected": 50, "numAtRisk": 1055}, {"groupId": "EG002", "numEvents": 76, "numAffected": 49, "numAtRisk": 1057}]}, {"term": "Back pain", "organSystem": "Musculoskeletal and connective tissue disorders", "sourceVocabulary": "MedDRA (24.0)", "assessmentType": "SYSTEMATIC_ASSESSMENT", "stats": [{"groupId": "EG000", "numEvents": 29, "numAffected": 27, "numAtRisk": 1015}, {"groupId": "EG001", "numEvents": 23, "numAffected": 23, "numAtRisk": 1055}, {"groupId": "EG002", "numEvents": 20, "numAffected": 20, "numAtRisk": 1057}]}, {"term": "Nasopharyngitis", "organSystem": "Infections and infestations", "sourceVocabulary": "MedDRA (24.0)", "assessmentType": "SYSTEMATIC_ASSESSMENT", "stats": [{"groupId": "EG000", "numEvents": 95, "numAffected": 76, "numAtRisk": 1015}, {"groupId": "EG001", "numEvents": 68, "numAffected": 61, "numAtRisk": 1055}, {"groupId": "EG002", "numEvents": 67, "numAffected": 54, "numAtRisk": 1057}]}, {"term": "COVID-19", "organSystem": "Infections and infestations", "sourceVocabulary": "MedDRA (24.0)", "assessmentType": "SYSTEMATIC_ASSESSMENT", "stats": [{"groupId": "EG000", "numEvents": 33, "numAffected": 33, "numAtRisk": 1015}, {"groupId": "EG001", "numEvents": 47, "numAffected": 47, "numAtRisk": 1055}, {"groupId": "EG002", "numEvents": 38, "numAffected": 38, "numAtRisk": 1057}]}, {"term": "Upper respiratory tract infection", "organSystem": "Infections and infestations", "sourceVocabulary": "MedDRA (24.0)", "assessmentType": "SYSTEMATIC_ASSESSMENT", "stats": [{"groupId": "EG000", "numEvents": 31, "numAffected": 26, "numAtRisk": 1015}, {"groupId": "EG001", "numEvents": 35, "numAffected": 31, "numAtRisk": 1055}, {"groupId": "EG002", "numEvents": 28, "numAffected": 26, "numAtRisk": 1057}]}, {"term": "Bronchitis", "organSystem": "Infections and infestations", "sourceVocabulary": "MedDRA (24.0)", "assessmentType": "SYSTEMATIC_ASSESSMENT", "stats": [{"groupId": "EG000", "numEvents": 27, "numAffected": 25, "numAtRisk": 1015}, {"groupId": "EG001", "numEvents": 30, "numAffected": 27, "numAtRisk": 1055}, {"groupId": "EG002", "numEvents": 32, "numAffected": 28, "numAtRisk": 1057}]}, {"term": "Sinusitis", "organSystem": "Infections and infestations", "sourceVocabulary": "MedDRA (24.0)", "assessmentType": "SYSTEMATIC_ASSESSMENT", "stats": [{"groupId": "EG000", "numEvents": 16, "numAffected": 15, "numAtRisk": 1015}, {"groupId": "EG001", "numEvents": 17, "numAffected": 17, "numAtRisk": 1055}, {"groupId": "EG002", "numEvents": 28, "numAffected": 25, "numAtRisk": 1057}]}, {"term": "Influenza", "organSystem": "Infections and infestations", "sourceVocabulary": "MedDRA (24.0)", "assessmentType": "SYSTEMATIC_ASSESSMENT", "stats": [{"groupId": "EG000", "numEvents": 23, "numAffected": 21, "numAtRisk": 1015}, {"groupId": "EG001", "numEvents": 22, "numAffected": 20, "numAtRisk": 1055}, {"groupId": "EG002", "numEvents": 16, "numAffected": 14, "numAtRisk": 1057}]}]}, "moreInfoModule": {"certainAgreement": {"piSponsorEmployee": false, "restrictionType": "OTHER", "restrictiveAgreement": true, "otherDetails": "Data or results obtained from this study must not be published without prior approval from the Sponsor."}, "pointOfContact": {"title": "Chief Medical Officer", "organization": "Avillion LLP", "email": "avillion@avillionllp.com", "phone": "+44 (0)203 764 9530"}}}, "documentSection": {"largeDocumentModule": {"largeDocs": [{"typeAbbrev": "Prot", "hasProtocol": true, "hasSap": false, "hasIcf": false, "label": "Study Protocol", "date": "2021-04-08", "uploadDate": "2022-07-19T04:24", "filename": "Prot_000.pdf", "size": 17673952}, {"typeAbbrev": "SAP", "hasProtocol": false, "hasSap": true, "hasIcf": false, "label": "Statistical Analysis Plan", "date": "2021-07-30", "uploadDate": "2022-07-19T04:26", "filename": "SAP_001.pdf", "size": 11215521}]}}, "derivedSection": {"miscInfoModule": {"versionHolder": "2024-06-24", "submissionTracking": {"firstMcpInfo": {"postDateStruct": {"date": "2022-08-29", "type": "ACTUAL"}}}}, "conditionBrowseModule": {"meshes": [{"id": "D000001249", "term": "Asthma"}], "ancestors": [{"id": "D000001982", "term": "Bronchial Diseases"}, {"id": "D000012140", "term": "Respiratory Tract Diseases"}, {"id": "D000008173", "term": "Lung Diseases, Obstructive"}, {"id": "D000008171", "term": "Lung Diseases"}, {"id": "D000012130", "term": "Respiratory Hypersensitivity"}, {"id": "D000006969", "term": "Hypersensitivity, Immediate"}, {"id": "D000006967", "term": "Hypersensitivity"}, {"id": "D000007154", "term": "Immune System Diseases"}], "browseLeaves": [{"id": "M4556", "name": "Asthma", "asFound": "Asthma", "relevance": "HIGH"}, {"id": "M5258", "name": "Bronchial Diseases", "relevance": "LOW"}, {"id": "M14977", "name": "Respiratory Tract Diseases", "relevance": "LOW"}, {"id": "M11168", "name": "Lung Diseases", "relevance": "LOW"}, {"id": "M11170", "name": "Lung Diseases, Obstructive", "relevance": "LOW"}, {"id": "M10018", "name": "Hypersensitivity", "relevance": "LOW"}, {"id": "M14967", "name": "Respiratory Hypersensitivity", "relevance": "LOW"}, {"id": "M10020", "name": "Hypersensitivity, Immediate", "relevance": "LOW"}, {"id": "M10200", "name": "Immune System Diseases", "relevance": "LOW"}], "browseBranches": [{"abbrev": "BC08", "name": "Respiratory Tract (Lung and Bronchial) Diseases"}, {"abbrev": "BC20", "name": "Immune System Diseases"}, {"abbrev": "All", "name": "All Conditions"}]}, "interventionBrowseModule": {"meshes": [{"id": "D000019819", "term": "Budesonide"}, {"id": "D000000420", "term": "Albuterol"}], "ancestors": [{"id": "D000000893", "term": "Anti-Inflammatory Agents"}, {"id": "D000001993", "term": "Bronchodilator Agents"}, {"id": "D000001337", "term": "Autonomic Agents"}, {"id": "D000018373", "term": "Peripheral Nervous System Agents"}, {"id": "D000045505", "term": "Physiological Effects of Drugs"}, {"id": "D000018927", "term": "Anti-Asthmatic Agents"}, {"id": "D000019141", "term": "Respiratory System Agents"}, {"id": "D000005938", "term": "Glucocorticoids"}, {"id": "D000006728", "term": "Hormones"}, {"id": "D000006730", "term": "Hormones, Hormone Substitutes, and Hormone Antagonists"}, {"id": "D000015149", "term": "Tocolytic Agents"}, {"id": "D000012102", "term": "Reproductive Control Agents"}, {"id": "D000058666", "term": "Adrenergic beta-2 Receptor Agonists"}, {"id": "D000000318", "term": "Adrenergic beta-Agonists"}, {"id": "D000000322", "term": "Adrenergic Agonists"}, {"id": "D000018663", "term": "Adrenergic Agents"}, {"id": "D000018377", "term": "Neurotransmitter Agents"}, {"id": "D000045504", "term": "Molecular Mechanisms of Pharmacological Action"}], "browseLeaves": [{"id": "M21711", "name": "Budesonide", "asFound": "Of 1", "relevance": "HIGH"}, {"id": "M3767", "name": "Albuterol", "asFound": "Diameter", "relevance": "HIGH"}, {"id": "M4217", "name": "Anti-Inflammatory Agents", "relevance": "LOW"}, {"id": "M5269", "name": "Bronchodilator Agents", "relevance": "LOW"}, {"id": "M20963", "name": "Anti-Asthmatic Agents", "relevance": "LOW"}, {"id": "M21137", "name": "Respiratory System Agents", "relevance": "LOW"}, {"id": "M9047", "name": "Glucocorticoids", "relevance": "LOW"}, {"id": "M9789", "name": "Hormones", "relevance": "LOW"}, {"id": "M9788", "name": "Hormone Antagonists", "relevance": "LOW"}, {"id": "M17869", "name": "Tocolytic Agents", "relevance": "LOW"}, {"id": "M20746", "name": "Adrenergic Agents", "relevance": "LOW"}, {"id": "M3670", "name": "Adrenergic beta-Agonists", "relevance": "LOW"}, {"id": "M3673", "name": "Adrenergic Agonists", "relevance": "LOW"}, {"id": "M20504", "name": "Neurotransmitter Agents", "relevance": "LOW"}], "browseBranches": [{"abbrev": "Infl", "name": "Anti-Inflammatory Agents"}, {"abbrev": "Resp", "name": "Respiratory System Agents"}, {"abbrev": "All", "name": "All Drugs and Chemicals"}, {"abbrev": "Repr", "name": "Reproductive Control Agents"}]}}, "hasResults": true}