{"protocolSection": {"identificationModule": {"nctId": "NCT03237858", "orgStudyIdInfo": {"id": "92125179"}, "organization": {"fullName": "Boston Scientific Corporation", "class": "INDUSTRY"}, "briefTitle": "Multiple Cardiac Sensors for the Management of Heart Failure", "officialTitle": "Multiple Cardiac Sensors for the Management of Heart Failure", "acronym": "MANAGE-HF"}, "statusModule": {"statusVerifiedDate": "2023-11", "overallStatus": "COMPLETED", "expandedAccessInfo": {"hasExpandedAccess": false}, "startDateStruct": {"date": "2017-08-30", "type": "ACTUAL"}, "primaryCompletionDateStruct": {"date": "2020-07-21", "type": "ACTUAL"}, "completionDateStruct": {"date": "2020-07-21", "type": "ACTUAL"}, "studyFirstSubmitDate": "2017-07-20", "studyFirstSubmitQcDate": "2017-07-31", "studyFirstPostDateStruct": {"date": "2017-08-03", "type": "ACTUAL"}, "resultsFirstSubmitDate": "2023-11-21", "resultsFirstSubmitQcDate": "2024-02-29", "resultsFirstPostDateStruct": {"date": "2024-03-27", "type": "ACTUAL"}, "lastUpdateSubmitDate": "2024-02-29", "lastUpdatePostDateStruct": {"date": "2024-03-27", "type": "ACTUAL"}}, "sponsorCollaboratorsModule": {"responsibleParty": {"type": "SPONSOR"}, "leadSponsor": {"name": "Boston Scientific Corporation", "class": "INDUSTRY"}}, "oversightModule": {"oversightHasDmc": true, "isFdaRegulatedDrug": false, "isFdaRegulatedDevice": true, "isUsExport": true}, "descriptionModule": {"briefSummary": "The MANAGE-HF study is a multi-center, global, prospective, open label, multi-phase trial intended to evaluate the clinical efficacy of the HeartLogic heart failure diagnostic feature.", "detailedDescription": "Phase I of the MANAGE-HF trial is not randomized, and is intended to evaluate the clinical integration of HeartLogic for managing patients with heart failure. There are no endpoints.\n\nPhase II of the MANAGE-HF trial will assess the clinical effectiveness of remote monitoring of heart failure patients with implanted CRT-D or ICD cardiac devices that contain the diagnostic feature HeartLogic. This feature uses S1 and S3 heart sounds, night time heart rate, thoracic impedance, and respiration to alert clinicians when a patient's heart failure is worsening. The MANAGE-HF study will compare remote monitoring using HeartLogic alerts to drive heart failure care against patients with remote monitoring but without HeartLogic alerts."}, "conditionsModule": {"conditions": ["Heart Failure, Congestive"], "keywords": ["heart failure", "diagnostics", "heart sounds", "CRT-D", "ICD", "remote monitoring"]}, "designModule": {"studyType": "INTERVENTIONAL", "phases": ["NA"], "designInfo": {"allocation": "RANDOMIZED", "interventionModel": "PARALLEL", "primaryPurpose": "DIAGNOSTIC", "maskingInfo": {"masking": "NONE"}}, "enrollmentInfo": {"count": 200, "type": "ACTUAL"}}, "armsInterventionsModule": {"armGroups": [{"label": "HeartLogic ON", "type": "ACTIVE_COMPARATOR", "description": "ICD and CRT-D devices with HeartLogic alerts turned ON", "interventionNames": ["Device: HeartLogic ON"]}, {"label": "HeartLogic OFF", "type": "PLACEBO_COMPARATOR", "description": "ICD and CRT-D devices with HeartLogic alerts turned OFF", "interventionNames": ["Device: HeartLogic OFF"]}], "interventions": [{"type": "DEVICE", "name": "HeartLogic ON", "description": "Remote management of patients with CRT-D or ICD devices and the HeartLogic diagnostic feature turned OFF", "armGroupLabels": ["HeartLogic ON"]}, {"type": "DEVICE", "name": "HeartLogic OFF", "description": "Remote management of patients with CRT-D or ICD devices and the HeartLogic diagnostic feature turned ON", "armGroupLabels": ["HeartLogic OFF"]}]}, "outcomesModule": {"primaryOutcomes": [{"measure": "Manage-HF Phase I", "description": "Phase-I was a single arm non-randomized study used to evaluate and optimize HeartLogic clinical integration and alert management. Phase-I had no outcome measures.", "timeFrame": "Data was collected from the time of consent until the last Phase I subject had completed their 12-month visit"}]}, "eligibilityModule": {"eligibilityCriteria": "Inclusion Criteria:\n\n1. Subject is age 18 or above, or of legal age to give informed consent\n2. Implanted with an cardiac resynchronization therapy defibrillator (CRT-D) or implantable cardioverter-defibrillator (ICD) device that has HeartLogic\n3. Current symptomatic heart failure or New York Heart Association Class II or III at the time of enrollment\n4. Remotely monitored by LATITUDE 5.0 (or future versions)\n5. Willing and capable of participating in all study visits and complying with medication/treatment requirements associated with this clinical study at an approved clinical study center.\n6. Meet at least one of the three following conditions:\n\n   * At least one documented hospitalization with a primary diagnosis of worsening for heart failure during the 12 months prior to enrollment; or\n   * Unscheduled outpatient visit with IV diuretic therapy for acute worsening of HF during 90 days prior to enrollment; or\n   * N-terminal-pro brain natriuretic peptide (NT-proBNP) greater than 600 pg/mL or brain natriuretic peptide (BNP) greater than 150 pg/mL at any time during 90 days prior to enrollment\n\nExclusion Criteria:\n\n1. The subject is unable to sign or refuses to sign the patient informed consent\n2. Symptomatic heart failure at rest or New York Heart Association Class IV at the time of enrollment\n3. The subject is implanted with unipolar right atrial or right ventricular leads\n4. Subject has received or is scheduled to receive a heart transplant or ventricular assist device within the next 6 months\n5. Subject is pregnant or planning to become pregnant during the study\n6. Subject is enrolled in any other concurrent study (without prior written approval from Boston Scientific, excluding registries)\n7. Glomerular filtration rate \\<25 mL/min who are non-responsive to diuretic therapy or are on chronic renal dialysis\n8. Regularly scheduled intravenous heart failure therapy (for example inotropes or diuretics)\n9. A life expectancy of less than 12 months per clinician discretion\n10. APPLICABLE TO PHASE II ONLY: Subject enrolled in Phase I of MANAGE-HF\n11. APPLICABLE TO PHASE II ONLY: Subject has been managed with HeartLogic Alerts ON at anytime within the past 6 months.", "healthyVolunteers": false, "sex": "ALL", "minimumAge": "18 Years", "stdAges": ["ADULT", "OLDER_ADULT"]}, "contactsLocationsModule": {"overallOfficials": [{"name": "Adrian Hernandez, MD", "affiliation": "Duke University", "role": "PRINCIPAL_INVESTIGATOR"}], "locations": [{"facility": "Heart Center Research, LLC", "city": "Huntsville", "state": "Alabama", "zip": "35801", "country": "United States", "geoPoint": {"lat": 34.7304, "lon": -86.58594}}, {"facility": "Cardiology Associates of Northeast Arkansas", "city": "Jonesboro", "state": "Arkansas", "zip": "72401", "country": "United States", "geoPoint": {"lat": 35.8423, "lon": -90.70428}}, {"facility": "University of Southern California Hospital", "city": "Los Angeles", "state": "California", "zip": "90033", "country": "United States", "geoPoint": {"lat": 34.05223, "lon": -118.24368}}, {"facility": "Cardiovascular Consultants", "city": "Oakland", "state": "California", "zip": "94609", "country": "United States", "geoPoint": {"lat": 37.80437, "lon": -122.2708}}, {"facility": "Sharp Memorial Hospital", "city": "San Diego", "state": "California", "zip": "92123", "country": "United States", "geoPoint": {"lat": 32.71533, "lon": -117.15726}}, {"facility": "University of California, San Francisco", "city": "San Francisco", "state": "California", "zip": "94143", "country": "United States", "geoPoint": {"lat": 37.77493, "lon": -122.41942}}, {"facility": "University of Colorado", "city": "Aurora", "state": "Colorado", "zip": "80045", "country": "United States", "geoPoint": {"lat": 39.72943, "lon": -104.83192}}, {"facility": "Emory University Hospital", "city": "Atlanta", "state": "Georgia", "zip": "30322", "country": "United States", "geoPoint": {"lat": 33.749, "lon": -84.38798}}, {"facility": "Parkview Hospital, Inc.", "city": "Fort Wayne", "state": "Indiana", "zip": "46805", "country": "United States", "geoPoint": {"lat": 41.1306, "lon": -85.12886}}, {"facility": "Community Health Network", "city": "Indianapolis", "state": "Indiana", "zip": "46250", "country": "United States", "geoPoint": {"lat": 39.76838, "lon": -86.15804}}, {"facility": "Advanced Cardiovascular Specialists", "city": "Shreveport", "state": "Louisiana", "zip": "71105", "country": "United States", "geoPoint": {"lat": 32.52515, "lon": -93.75018}}, {"facility": "Centra Care Heart and Vascular Center", "city": "Cold Spring", "state": "Minnesota", "zip": "56320", "country": "United States", "geoPoint": {"lat": 45.4558, "lon": -94.42888}}, {"facility": "United Heart and Vascular", "city": "Saint Paul", "state": "Minnesota", "zip": "55102", "country": "United States", "geoPoint": {"lat": 44.94441, "lon": -93.09327}}, {"facility": "Catholic Medical Center", "city": "Manchester", "state": "New Hampshire", "zip": "03102", "country": "United States", "geoPoint": {"lat": 42.99564, "lon": -71.45479}}, {"facility": "Montefiore Medical Center", "city": "Bronx", "state": "New York", "zip": "10467", "country": "United States", "geoPoint": {"lat": 40.84985, "lon": -73.86641}}, {"facility": "Strong Memorial Hospital of the University of Rochester", "city": "Rochester", "state": "New York", "zip": "14642", "country": "United States", "geoPoint": {"lat": 43.15478, "lon": -77.61556}}, {"facility": "Duke University Medical Center", "city": "Durham", "state": "North Carolina", "zip": "27705", "country": "United States", "geoPoint": {"lat": 35.99403, "lon": -78.89862}}, {"facility": "Rex Hospital", "city": "Raleigh", "state": "North Carolina", "zip": "27607", "country": "United States", "geoPoint": {"lat": 35.7721, "lon": -78.63861}}, {"facility": "Lindner Center for Research and Education at Christ Hosp", "city": "Cincinnati", "state": "Ohio", "zip": "45219", "country": "United States", "geoPoint": {"lat": 39.12713, "lon": -84.51435}}, {"facility": "Bethesda North Hospital", "city": "Cincinnati", "state": "Ohio", "zip": "45220", "country": "United States", "geoPoint": {"lat": 39.12713, "lon": -84.51435}}, {"facility": "PeaceHealth Sacred Heart Medical Center", "city": "Springfield", "state": "Oregon", "zip": "97477", "country": "United States", "geoPoint": {"lat": 44.04624, "lon": -123.02203}}, {"facility": "Penn State Milton S Hershey Medical Center", "city": "Hershey", "state": "Pennsylvania", "zip": "17033", "country": "United States", "geoPoint": {"lat": 40.28592, "lon": -76.65025}}, {"facility": "Cardiology Consultants of Philadelphia", "city": "Yardley", "state": "Pennsylvania", "zip": "19067", "country": "United States", "geoPoint": {"lat": 40.24566, "lon": -74.846}}, {"facility": "Medical University of South Carolina", "city": "Charleston", "state": "South Carolina", "zip": "29425", "country": "United States", "geoPoint": {"lat": 32.77657, "lon": -79.93092}}, {"facility": "Stern Cardiovascular", "city": "Germantown", "state": "Tennessee", "zip": "38138", "country": "United States", "geoPoint": {"lat": 35.08676, "lon": -89.81009}}, {"facility": "Southeast Texas Clinical Research Center", "city": "Beaumont", "state": "Texas", "zip": "77702", "country": "United States", "geoPoint": {"lat": 30.08605, "lon": -94.10185}}, {"facility": "Sentara Norfolk General Hospital", "city": "Norfolk", "state": "Virginia", "zip": "23507", "country": "United States", "geoPoint": {"lat": 36.84681, "lon": -76.28522}}, {"facility": "L'H\u00f4pital priv\u00e9 du Confluent", "city": "Nantes", "zip": "44277", "country": "France", "geoPoint": {"lat": 47.21725, "lon": -1.55336}}, {"facility": "CHU Pontchaillou", "city": "Rennes", "zip": "35033", "country": "France", "geoPoint": {"lat": 48.11198, "lon": -1.67429}}, {"facility": "Universit\u00e4tsklinikum W\u00fcrzburg A\u00f6R", "city": "W\u00fcrzburg", "zip": "97080", "country": "Germany", "geoPoint": {"lat": 49.79391, "lon": 9.95121}}]}, "referencesModule": {"references": [{"pmid": "35460884", "type": "DERIVED", "citation": "Hernandez AF, Albert NM, Allen LA, Ahmed R, Averina V, Boehmer JP, Cowie MR, Chien CV, Galvao M, Klein L, Kwan B, Lam CSP, Ruble SB, Stolen CM, Stein K; MANAGE-HF Study. Multiple cArdiac seNsors for mAnaGEment of Heart Failure (MANAGE-HF) - Phase I Evaluation of the Integration and Safety of the HeartLogic Multisensor Algorithm in Patients With Heart Failure. J Card Fail. 2022 Aug;28(8):1245-1254. doi: 10.1016/j.cardfail.2022.03.349. Epub 2022 Apr 21."}, {"pmid": "35129007", "type": "DERIVED", "citation": "Heggermont WA, Van Bockstal K. HeartlogicTM: ready for prime time? Expert Rev Med Devices. 2022 Feb;19(2):107-111. doi: 10.1080/17434440.2022.2038133. Epub 2022 Feb 12. No abstract available."}], "seeAlsoLinks": [{"label": "Multiple cArdiac seNsors for mAnaGEment of Heart Failure (MANAGE-HF) - Phase I Evaluation of the Integration and Safety of the HeartLogic Multisensor Algorithm in Patients With Heart Failure", "url": "https://pubmed.ncbi.nlm.nih.gov/35460884/"}]}, "ipdSharingStatementModule": {"ipdSharing": "NO"}}, "resultsSection": {"participantFlowModule": {"recruitmentDetails": "Manage-HF Phase I began recruitment in August of 2017 and completed recruitment in May of 2019. Last Patient Last visit for Phase I occurred in July of 2020. MANAGE HF Phase I was determined to be sufficient by FDA on January 31, 2023, and phase II was not started.", "groups": [{"id": "FG000", "title": "MANAGE-HF Phase I", "description": "Two hundred subjects were enrolled in Phase I of MANAGE-HF. One hundred forty-four subjects were followed until the last patient enrolled completed his or her12-month visit.\n\nThirty-seven subjects withdrew and 19 subjects died."}], "periods": [{"title": "Overall Study", "milestones": [{"type": "STARTED", "achievements": [{"groupId": "FG000", "numSubjects": "200"}]}, {"type": "COMPLETED", "achievements": [{"groupId": "FG000", "numSubjects": "144"}]}, {"type": "NOT COMPLETED", "achievements": [{"groupId": "FG000", "numSubjects": "56"}]}], "dropWithdraws": [{"type": "Death", "reasons": [{"groupId": "FG000", "numSubjects": "19"}]}, {"type": "Withdrawal by Subject", "reasons": [{"groupId": "FG000", "numSubjects": "37"}]}]}]}, "baselineCharacteristicsModule": {"populationDescription": "There were 200 subjects enrolled and 191 completed the baseline visit. Demographics, medical history, physical assessment, heart failure assessment, and blood labs were taken at the baseline visit.", "groups": [{"id": "BG000", "title": "MANAGE-HF Phase I", "description": "Two hundred subjects were enrolled in Phase I of MANAGE-HF. One hundred forty-four subjects were followed until the last patient enrolled completed his or her12-month visit.\n\nThirty-seven subjects withdrew and 19 subjects died."}], "denoms": [{"units": "Participants", "counts": [{"groupId": "BG000", "value": "191"}]}], "measures": [{"title": "Age, Continuous", "paramType": "MEAN", "dispersionType": "STANDARD_DEVIATION", "unitOfMeasure": "years", "classes": [{"categories": [{"measurements": [{"groupId": "BG000", "value": "67", "spread": "12"}]}]}]}, {"title": "Sex: Female, Male", "paramType": "COUNT_OF_PARTICIPANTS", "unitOfMeasure": "Participants", "classes": [{"categories": [{"title": "Female", "measurements": [{"groupId": "BG000", "value": "62"}]}, {"title": "Male", "measurements": [{"groupId": "BG000", "value": "129"}]}]}]}, {"title": "Race (NIH/OMB)", "paramType": "COUNT_OF_PARTICIPANTS", "unitOfMeasure": "Participants", "classes": [{"categories": [{"title": "American Indian or Alaska Native", "measurements": [{"groupId": "BG000", "value": "1"}]}, {"title": "Asian", "measurements": [{"groupId": "BG000", "value": "1"}]}, {"title": "Native Hawaiian or Other Pacific Islander", "measurements": [{"groupId": "BG000", "value": "0"}]}, {"title": "Black or African American", "measurements": [{"groupId": "BG000", "value": "28"}]}, {"title": "White", "measurements": [{"groupId": "BG000", "value": "142"}]}, {"title": "More than one race", "measurements": [{"groupId": "BG000", "value": "0"}]}, {"title": "Unknown or Not Reported", "measurements": [{"groupId": "BG000", "value": "19"}]}]}]}, {"title": "Region of Enrollment", "paramType": "NUMBER", "unitOfMeasure": "participants", "classes": [{"title": "United States", "categories": [{"measurements": [{"groupId": "BG000", "value": "171"}]}]}, {"title": "France", "categories": [{"measurements": [{"groupId": "BG000", "value": "14"}]}]}, {"title": "Germany", "categories": [{"measurements": [{"groupId": "BG000", "value": "6"}]}]}]}, {"title": "Heart Failure Hospitalization", "paramType": "COUNT_OF_PARTICIPANTS", "unitOfMeasure": "Participants", "classes": [{"categories": [{"measurements": [{"groupId": "BG000", "value": "112"}]}]}]}, {"title": "Ischemic Heart Disease", "paramType": "COUNT_OF_PARTICIPANTS", "unitOfMeasure": "Participants", "classes": [{"categories": [{"measurements": [{"groupId": "BG000", "value": "90"}]}]}]}, {"title": "Dilated Cardiomyopathy", "paramType": "COUNT_OF_PARTICIPANTS", "unitOfMeasure": "Participants", "classes": [{"categories": [{"measurements": [{"groupId": "BG000", "value": "75"}]}]}]}, {"title": "Idiopathic Cardiomyopathy", "paramType": "COUNT_OF_PARTICIPANTS", "unitOfMeasure": "Participants", "classes": [{"categories": [{"measurements": [{"groupId": "BG000", "value": "20"}]}]}]}, {"title": "Valvular disease", "paramType": "COUNT_OF_PARTICIPANTS", "unitOfMeasure": "Participants", "classes": [{"categories": [{"measurements": [{"groupId": "BG000", "value": "48"}]}]}]}, {"title": "Valvular surgery", "paramType": "COUNT_OF_PARTICIPANTS", "unitOfMeasure": "Participants", "classes": [{"categories": [{"measurements": [{"groupId": "BG000", "value": "17"}]}]}]}, {"title": "Thoracic surgery", "paramType": "COUNT_OF_PARTICIPANTS", "unitOfMeasure": "Participants", "classes": [{"categories": [{"measurements": [{"groupId": "BG000", "value": "18"}]}]}]}, {"title": "Previous Myocardial Infarction", "paramType": "COUNT_OF_PARTICIPANTS", "unitOfMeasure": "Participants", "classes": [{"categories": [{"measurements": [{"groupId": "BG000", "value": "73"}]}]}]}, {"title": "CABG", "paramType": "COUNT_OF_PARTICIPANTS", "unitOfMeasure": "Participants", "classes": [{"categories": [{"measurements": [{"groupId": "BG000", "value": "49"}]}]}]}, {"title": "QRS duration (ms)", "paramType": "MEAN", "dispersionType": "STANDARD_DEVIATION", "unitOfMeasure": "ms", "classes": [{"categories": [{"measurements": [{"groupId": "BG000", "value": "135", "spread": "31"}]}]}]}, {"title": "LVEF (%)", "paramType": "MEAN", "dispersionType": "STANDARD_DEVIATION", "unitOfMeasure": "%", "classes": [{"categories": [{"measurements": [{"groupId": "BG000", "value": "25.6", "spread": "9.5"}]}]}]}, {"title": "RVEF (%)", "paramType": "MEAN", "dispersionType": "STANDARD_DEVIATION", "unitOfMeasure": "%", "classes": [{"categories": [{"measurements": [{"groupId": "BG000", "value": "49.3", "spread": "12.5"}]}]}]}, {"title": "Chronic Obstructive Pulmonary Disease", "paramType": "NUMBER", "unitOfMeasure": "participants", "classes": [{"categories": [{"measurements": [{"groupId": "BG000", "value": "28"}]}]}]}, {"title": "Asthma", "paramType": "COUNT_OF_PARTICIPANTS", "unitOfMeasure": "Participants", "classes": [{"categories": [{"measurements": [{"groupId": "BG000", "value": "12"}]}]}]}, {"title": "Pulmonary hypertension", "paramType": "COUNT_OF_PARTICIPANTS", "unitOfMeasure": "Participants", "classes": [{"categories": [{"measurements": [{"groupId": "BG000", "value": "14"}]}]}]}, {"title": "Pulmonary diseases other", "paramType": "COUNT_OF_PARTICIPANTS", "unitOfMeasure": "Participants", "classes": [{"categories": [{"measurements": [{"groupId": "BG000", "value": "13"}]}]}]}, {"title": "Peripheral Vascular Disease", "paramType": "COUNT_OF_PARTICIPANTS", "unitOfMeasure": "Participants", "classes": [{"categories": [{"measurements": [{"groupId": "BG000", "value": "25"}]}]}]}, {"title": "Renal dysfunction", "paramType": "COUNT_OF_PARTICIPANTS", "unitOfMeasure": "Participants", "classes": [{"categories": [{"measurements": [{"groupId": "BG000", "value": "50"}]}]}]}, {"title": "Hypertension", "paramType": "COUNT_OF_PARTICIPANTS", "unitOfMeasure": "Participants", "classes": [{"categories": [{"measurements": [{"groupId": "BG000", "value": "144"}]}]}]}, {"title": "Diabetes", "paramType": "COUNT_OF_PARTICIPANTS", "unitOfMeasure": "Participants", "classes": [{"categories": [{"measurements": [{"groupId": "BG000", "value": "69"}]}]}]}]}, "outcomeMeasuresModule": {"outcomeMeasures": [{"type": "PRIMARY", "title": "Manage-HF Phase I", "description": "Phase-I was a single arm non-randomized study used to evaluate and optimize HeartLogic clinical integration and alert management. Phase-I had no outcome measures.", "populationDescription": "Manage-HF Phase II was not started, the trial was closed after phase I", "reportingStatus": "POSTED", "paramType": "COUNT_OF_PARTICIPANTS", "unitOfMeasure": "Participants", "timeFrame": "Data was collected from the time of consent until the last Phase I subject had completed their 12-month visit", "groups": [{"id": "OG000", "title": "MANAGE-HF Phase I", "description": "Number of participants contributing to the knowledge of the clinical integration of HeartLogic and the alert management process"}], "denoms": [{"units": "Participants", "counts": [{"groupId": "OG000", "value": "191"}]}], "classes": [{"categories": [{"measurements": [{"groupId": "OG000", "value": "191"}]}]}]}]}, "adverseEventsModule": {"frequencyThreshold": "0", "timeFrame": "Adverse Events were collected for all enrolled subjects from the time of consent until the last Phase I subject had completed their 12-month visit", "description": "Manage-HF Phase II was not started, the study was closed after Phase I", "eventGroups": [{"id": "EG000", "title": "MANAGE-HF Phase I", "description": "MANAGE-HF Phase I was an open label, non-randomized single arm study", "deathsNumAffected": 19, "deathsNumAtRisk": 200, "seriousNumAffected": 100, "seriousNumAtRisk": 200, "otherNumAffected": 104, "otherNumAtRisk": 200}], "seriousEvents": [{"term": "Pulse Generator", "organSystem": "Cardiac disorders", "assessmentType": "NON_SYSTEMATIC_ASSESSMENT", "stats": [{"groupId": "EG000", "numEvents": 0, "numAffected": 0, "numAtRisk": 200}]}, {"term": "RA Lead", "organSystem": "Cardiac disorders", "assessmentType": "NON_SYSTEMATIC_ASSESSMENT", "stats": [{"groupId": "EG000", "numEvents": 0, "numAffected": 0, "numAtRisk": 200}]}, {"term": "RV Lead", "organSystem": "Cardiac disorders", "assessmentType": "NON_SYSTEMATIC_ASSESSMENT", "stats": [{"groupId": "EG000", "numEvents": 0, "numAffected": 0, "numAtRisk": 200}]}, {"term": "Cardiovascular-HF", "organSystem": "Cardiac disorders", "assessmentType": "NON_SYSTEMATIC_ASSESSMENT", "stats": [{"groupId": "EG000", "numEvents": 92, "numAffected": 50, "numAtRisk": 200}]}, {"term": "Cardiovascular-Non-HF", "organSystem": "Cardiac disorders", "assessmentType": "NON_SYSTEMATIC_ASSESSMENT", "stats": [{"groupId": "EG000", "numEvents": 79, "numAffected": 55, "numAtRisk": 200}]}, {"term": "Non-cardiovascular", "organSystem": "Cardiac disorders", "assessmentType": "NON_SYSTEMATIC_ASSESSMENT", "stats": [{"groupId": "EG000", "numEvents": 130, "numAffected": 63, "numAtRisk": 200}]}], "otherEvents": [{"term": "Pulse Generator", "organSystem": "Cardiac disorders", "assessmentType": "NON_SYSTEMATIC_ASSESSMENT", "stats": [{"groupId": "EG000", "numEvents": 0, "numAffected": 0, "numAtRisk": 200}]}, {"term": "RA Lead", "organSystem": "Cardiac disorders", "assessmentType": "NON_SYSTEMATIC_ASSESSMENT", "stats": [{"groupId": "EG000", "numEvents": 0, "numAffected": 0, "numAtRisk": 200}]}, {"term": "RV Lead", "organSystem": "Cardiac disorders", "assessmentType": "NON_SYSTEMATIC_ASSESSMENT", "stats": [{"groupId": "EG000", "numEvents": 0, "numAffected": 0, "numAtRisk": 200}]}, {"term": "Cardiovascular-HF", "organSystem": "Cardiac disorders", "assessmentType": "NON_SYSTEMATIC_ASSESSMENT", "stats": [{"groupId": "EG000", "numEvents": 227, "numAffected": 82, "numAtRisk": 200}]}, {"term": "Cardiovascular-Non-HF", "organSystem": "Cardiac disorders", "assessmentType": "NON_SYSTEMATIC_ASSESSMENT", "stats": [{"groupId": "EG000", "numEvents": 83, "numAffected": 51, "numAtRisk": 200}]}, {"term": "Non-cardiovascular", "organSystem": "Cardiac disorders", "assessmentType": "NON_SYSTEMATIC_ASSESSMENT", "stats": [{"groupId": "EG000", "numEvents": 59, "numAffected": 30, "numAtRisk": 200}]}]}, "moreInfoModule": {"limitationsAndCaveats": {"description": "Patients that were included in Phase I of MANAGE-HF were required to meet inclusion and exclusion criteria. This included evidence of worsened heart failure prior to enrollment, patients with severe kidney impairment or short life expectancy were excluded. Thus, the results are limited to the population that was studied. Furthermore, the small sample size and lack of a control group severely limits the interpretation of the results."}, "certainAgreement": {"piSponsorEmployee": false, "restrictiveAgreement": false}, "pointOfContact": {"title": "Joe Hobbs, Clinical Trial Manager", "organization": "Boston Scientific", "email": "JOE.HOBBS@BSCI.COM", "phone": "612-206-4703"}}}, "documentSection": {"largeDocumentModule": {"largeDocs": [{"typeAbbrev": "Prot_SAP", "hasProtocol": true, "hasSap": true, "hasIcf": false, "label": "Study Protocol and Statistical Analysis Plan", "date": "2018-02-01", "uploadDate": "2023-11-06T13:25", "filename": "Prot_SAP_000.pdf", "size": 1051538}]}}, "derivedSection": {"miscInfoModule": {"versionHolder": "2024-06-24", "submissionTracking": {"firstMcpInfo": {"postDateStruct": {"date": "2023-12-14", "type": "ACTUAL"}}}}, "conditionBrowseModule": {"meshes": [{"id": "D000006333", "term": "Heart Failure"}], "ancestors": [{"id": "D000006331", "term": "Heart Diseases"}, {"id": "D000002318", "term": "Cardiovascular Diseases"}], "browseLeaves": [{"id": "M9421", "name": "Heart Failure", "asFound": "Heart Failure", "relevance": "HIGH"}, {"id": "M9419", "name": "Heart Diseases", "relevance": "LOW"}], "browseBranches": [{"abbrev": "BC14", "name": "Heart and Blood Diseases"}, {"abbrev": "All", "name": "All Conditions"}]}}, "hasResults": true}