{"protocolSection": {"identificationModule": {"nctId": "NCT00277524", "orgStudyIdInfo": {"id": "601"}, "organization": {"fullName": "Medtronic Cardiac Rhythm and Heart Failure", "class": "INDUSTRY"}, "briefTitle": "OMNI Study--Assessing Therapies in Medtronic Pacemaker, Defibrillator, and Cardiac Resynchronization Therapy Devices.", "officialTitle": "OMNI Study--Assessing Therapies in Medtronic Pacemaker, Defibrillator, and Cardiac Resynchronization Therapy Devices.", "acronym": "OMNI"}, "statusModule": {"statusVerifiedDate": "2013-05", "overallStatus": "TERMINATED", "whyStopped": "Ended follow-up after four years", "expandedAccessInfo": {"hasExpandedAccess": false}, "startDateStruct": {"date": "2005-08"}, "primaryCompletionDateStruct": {"date": "2010-11", "type": "ACTUAL"}, "completionDateStruct": {"date": "2010-11", "type": "ACTUAL"}, "studyFirstSubmitDate": "2006-01-12", "studyFirstSubmitQcDate": "2006-01-12", "studyFirstPostDateStruct": {"date": "2006-01-16", "type": "ESTIMATED"}, "resultsFirstSubmitDate": "2012-07-13", "resultsFirstSubmitQcDate": "2013-05-21", "resultsFirstPostDateStruct": {"date": "2013-08-28", "type": "ESTIMATED"}, "lastUpdateSubmitDate": "2013-05-21", "lastUpdatePostDateStruct": {"date": "2013-08-28", "type": "ESTIMATED"}}, "sponsorCollaboratorsModule": {"responsibleParty": {"type": "SPONSOR"}, "leadSponsor": {"name": "Medtronic Cardiac Rhythm and Heart Failure", "class": "INDUSTRY"}, "collaborators": [{"name": "Medtronic", "class": "INDUSTRY"}]}, "oversightModule": {"oversightHasDmc": false}, "descriptionModule": {"briefSummary": "The purpose of the OMNI study is to characterize therapy and diagnostic utilization in study participants implanted with study devices and to describe Implantable Cardioverter Defibrillator(ICD)therapy utilization for life threatening arrhythmias in primary and secondary prevention study participants. This study will assess therapies in Medtronic pacemaker, defibrillator, and cardiac resynchronization therapy devices.\n\nThe first therapy is for reducing unnecessary pacing in pacemaker patients. The second therapy provides pacing therapy in an attempt to stop fast or life threatening ventricular arrhythmias in lieu of delivering a defibrillation shock. The third therapy is a diagnostic measurement of a patient's fluid status and provides the physician information on the patient's heart failure status.\n\nThe study will also assess the time to a patient's first defibrillation shock and will verify that the shock was for a fast or life threatening ventricular rhythm.", "detailedDescription": "The OMNI results demonstrate the importance of Medtronic's ongoing efforts to increase adoption of evidence based shock-reduction programming strategies. Longer VF NID (number of intervals to detect in the VF zone) should be utilized with the Anti-tachycardia Pacing (ATP) During Charging Feature. ATP during Charging allows physicians to treat with ATP without delay to shock. Therefore, VF NID may be extended to allow episodes the chance to self-terminate immediately to shock by use of the ATP during the charging feature."}, "conditionsModule": {"conditions": ["Tachycardia, Ventricular", "Heart Failure, Congestive", "Ventricular Fibrillation", "Ventricular Dysfunction", "Bradycardia"], "keywords": ["Pacemaker", "Defibrillator", "Cardiac Resynchronization", "Dysynchrony", "Heart failure", "Arrhythmia", "Tachycardia", "Bradycardia"]}, "designModule": {"studyType": "OBSERVATIONAL", "patientRegistry": false, "designInfo": {"timePerspective": "PROSPECTIVE"}, "enrollmentInfo": {"count": 3032, "type": "ACTUAL"}}, "armsInterventionsModule": {"armGroups": [{"label": "Overall", "description": "All patients enrolled in OMNI. Patient sub-groups include device type, history of atrial fibrillation (AF), history of investigate atrioventricular (AV) block, implant indication, and managed ventricular pacing (MVP) enabled."}]}, "outcomesModule": {"primaryOutcomes": [{"measure": "Implanted Systems Frequencies", "description": "Frequencies of implanted systems were measured among patients who were implanted with a device (IPT, ICD or CRT-D).", "timeFrame": "Baseline"}, {"measure": "Implantable Pulse Generator (IPG) Device Baseline Programming Frequencies.", "description": "Pacing mode is based on the NASPE/BPEG Generic (NBG) Pacemake coding which includes: I, the chambers paced (V= Ventricle, A=Atrium, D=Dual (A\\&V), O=None); II, the chambers sensed (V= Ventricle, A=Atrium, D=Dual (A\\&V), O=None); III, the mode of response (T=Triggered, I=Inhibited, D=Dual Triggered/Inhibited, O=None); IV, the programmable functions(R=Rate Modulated, C=Communicating, M=Multiprogrammable, P=Simple Programmable, O=None); V, the antitachycardia functions (O=None, P=Paced, S=Shocks, D=Dual (P\\&S)). In addition, MVP (managed ventricular pacing) is a mode that promotes AV conduction by reducing or eliminating unnecessary RV pacing but maintains dual chamber ventricular support in the event that AV conduction is lost.", "timeFrame": "Baseline"}, {"measure": "ICD/CRT-D Device Baseline Programming Frequencies", "description": "ICD/CRT-D baseline programming, pacing mode and detection. Pacing mode is based on the NASPE/BPEG Generic (NBG) Pacemake coding which includes: I, the chambers paced (V= Ventricle, A=Atrium, D=Dual (A\\&V), O=None); II, the chambers sensed (V= Ventricle, A=Atrium, D=Dual (A\\&V), O=None); III, the mode of response (T=Triggered, I=Inhibited, D=Dual Triggered/Inhibited, O=None); IV, the programmable functions(R=Rate Modulated, C=Communicating, M=Multiprogrammable, P=Simple Programmable, O=None); V, the antitachycardia functions (O=None, P=Paced, S=Shocks, D=Dual (P\\&S)). In addition, MVP (managed ventricular pacing) is a mode that promotes AV conduction by reducing or eliminating unnecessary RV pacing but maintains dual chamber ventricular support in the event that AV conduction is lost.", "timeFrame": "Baseline"}, {"measure": "ICD/CRT-D Device Baseline Programming Measurements", "description": "ICD/CRT-D baseline programming measurements, detection interval. Implanted Cardioverter/Defibrillator paces a patient's heart in a tachyarrhythmia prevention-pacing mode.\n\nDetection intervals are used to detect atrial tachyarrhythmia. Detection Intervals are programmable heart rate thresholds. R-R intervals that are less than the VT or VF detection intervals (in ms) are considered evidence of VT or VF, respectively. R-R intervals that are between the FVT and the VF detection intervals are considered evidence of FVT. Thus, these detection interval thresholds demarcate rate zones of detection. The rate zones are used to determine the type of therapy applied once detection occurs.", "timeFrame": "Baseline"}], "secondaryOutcomes": [{"measure": "AV Block Status by Device Type at 6 and 12 Months.", "description": "Frequencies of subject with AV block over time between ICD and Implantable Pulse Generator(IPG) study participants.", "timeFrame": "12 months post enrollment"}, {"measure": "AV Block Status by Severity of Historical AV Block", "description": "Frequencies of Subjects with AV Block Over Time by Severity of Historical AV Block", "timeFrame": "4 years post implant"}, {"measure": "Summary of ATP Episodes Within All Treated Episodes", "description": "Evaluate the utility of the Antitachycardia Pacing (ATP) During Charging feature of the device.", "timeFrame": "4 years post enrollment"}, {"measure": "Compare First Shock Rate Between Medtronic \"PainFREE\" Programming and \"SCD-HeFT\" Programming in Primary Prevention Study Participants.", "description": "First shock rate for VF and FVT zones was estimated using Kaplan-Meier method.\n\nOMNI \"PainFREE\" definition: programming combinations that result in ATP therapy for ventricular tachycardia (VT) at cycle lengths \\<320 ms. Programming at cycle lengths \u2265320 ms were not mandated.\n\nOMNI \"SCD-HeFT\" definition: programming combinations that result in shock therapy only for arrhythmias at cycle lengths of \\<320 ms or faster and no therapy for arrhythmias at cycle lengths \u2265320 ms.", "timeFrame": "4 years post implant"}, {"measure": "Frequencies of Subjects With OptiVol Trends and Disease Progression.", "description": "Estimate the correlation between OptiVol trends and disease progression.\n\nA subject's disease status was said to have progressed if:\n\n1. The NYHA classification number increases (example: I to II), or\n2. The LVEF decreases by at least 20% (relative difference) and by at least a 5% absolute difference, or\n3. The subject expires\n\nA subject who crossed OptiVol threshold since last visit was regarded as 'crossed threshold'.", "timeFrame": "4 years post implant"}]}, "eligibilityModule": {"eligibilityCriteria": "Inclusion Criteria:\n\n* Implant of new or replacement study device. Enrollment must occur no later than 40 days post-implant.\n* Study participants must be 18 years of age or older.\n\nExclusion Criteria:\n\n* Study participants enrolled or intend to participate in another clinical device trial during the course of this study that required specific treatment or programming.\n* Study participants unwilling and unable to comply with follow-up schedule.", "healthyVolunteers": false, "sex": "ALL", "minimumAge": "18 Years", "stdAges": ["ADULT", "OLDER_ADULT"], "studyPopulation": "Patients receiving a specified Medtronic Implantable Pulse Generator(IPG), Implantable Cardioverter Defibrillator(ICD), or Cardiac Resynchronization Therapy-Defibrillator(CRT-D) device where informed consent and/or authorization to use and disclose health information permission has been granted.", "samplingMethod": "NON_PROBABILITY_SAMPLE"}, "contactsLocationsModule": {"overallOfficials": [{"name": "Michael O. Sweeney", "affiliation": "Cardiovascular Division Brigham and Womens", "role": "PRINCIPAL_INVESTIGATOR"}], "locations": [{"facility": "Southern Arizona Health Care System", "city": "Tucson", "state": "Arizona", "zip": "85712-2836", "country": "United States", "geoPoint": {"lat": 32.22174, "lon": -110.92648}}, {"facility": "Arkansas Cardiology PA (Little Rock AR)", "city": "Little Rock", "state": "Arkansas", "zip": "72205-6231", "country": "United States", "geoPoint": {"lat": 34.74648, "lon": -92.28959}}, {"facility": "California Heart Medical Associates", "city": "Fresno", "state": "California", "zip": "93720", "country": "United States", "geoPoint": {"lat": 36.74773, "lon": -119.77237}}, {"facility": "Apex Cardiology", "city": "Inglewood", "state": "California", "zip": "90301-4057", "country": "United States", "geoPoint": {"lat": 33.96168, "lon": -118.35313}}, {"facility": "Scripps Green Hospital Scripps Clinic Torrey Pines", "city": "La Jolla", "state": "California", "zip": "92037-1027", "country": "United States", "geoPoint": {"lat": 32.84727, "lon": -117.2742}}, {"facility": "Northern California Heart Care", "city": "Larkspur", "state": "California", "zip": "94939", "country": "United States", "geoPoint": {"lat": 37.93409, "lon": -122.53525}}, {"facility": "Mission Internal Medical Group", "city": "Mission Viejo", "state": "California", "zip": "92691-6384", "country": "United States", "geoPoint": {"lat": 33.60002, "lon": -117.672}}, {"facility": "Orange County Heart Institute & Research Center", "city": "Orange", "state": "California", "zip": "92868", "country": "United States", "geoPoint": {"lat": 33.78779, "lon": -117.85311}}, {"facility": "Foothill Cardiology", "city": "Pasadena", "state": "California", "zip": "91105", "country": "United States", "geoPoint": {"lat": 34.14778, "lon": -118.14452}}, {"facility": "Desert Cardiology Center / Desert Cardiology Medical Group Consultants", "city": "Rancho Mirage", "state": "California", "zip": "92270", "country": "United States", "geoPoint": {"lat": 33.73974, "lon": -116.41279}}, {"facility": "Brett Berman Cardiology & Cardiac Electrophysiology", "city": "San Diego", "state": "California", "zip": "92103", "country": "United States", "geoPoint": {"lat": 32.71533, "lon": -117.15726}}, {"facility": "Dwain L Coggins MD FACC", "city": "San Jose", "state": "California", "zip": "95124", "country": "United States", "geoPoint": {"lat": 37.33939, "lon": -121.89496}}, {"facility": "Cardiology Clinic of San Antonio", "city": "Tarzana", "state": "California", "zip": "91356", "country": "United States", "geoPoint": {"lat": 34.17334, "lon": -118.55397}}, {"facility": "Erol Kosar MD Inc", "city": "Torrance", "state": "California", "zip": "90503", "country": "United States", "geoPoint": {"lat": 33.83585, "lon": -118.34063}}, {"facility": "Rocky Mountain Cardiology PC", "city": "Boulder", "state": "Colorado", "zip": "80304", "country": "United States", "geoPoint": {"lat": 40.01499, "lon": -105.27055}}, {"facility": "Pikes Peak Cardiology", "city": "Colorado Springs", "state": "Colorado", "zip": "80909", "country": "United States", "geoPoint": {"lat": 38.83388, "lon": -104.82136}}, {"facility": "Daytona Heart", "city": "Daytona Beach", "state": "Florida", "zip": "32114", "country": "United States", "geoPoint": {"lat": 29.21081, "lon": -81.02283}}, {"facility": "Florida Arrhythmia Consultants", "city": "Fort Lauderdale", "state": "Florida", "zip": "33308", "country": "United States", "geoPoint": {"lat": 26.12231, "lon": -80.14338}}, {"facility": "Clark & Daughtrey Medical Group PA", "city": "Lakeland", "state": "Florida", "zip": "33803", "country": "United States", "geoPoint": {"lat": 28.03947, "lon": -81.9498}}, {"facility": "Melbourne Internal Medicine Associates / Century Research Associates", "city": "Melbourne", "state": "Florida", "zip": "32901", "country": "United States", "geoPoint": {"lat": 28.08363, "lon": -80.60811}}, {"facility": "C. Raghavan MD PA", "city": "Orlando", "state": "Florida", "zip": "32819", "country": "United States", "geoPoint": {"lat": 28.53834, "lon": -81.37924}}, {"facility": "Northwest Florida Heart Group PA", "city": "Pensacola", "state": "Florida", "zip": "32514", "country": "United States", "geoPoint": {"lat": 30.42131, "lon": -87.21691}}, {"facility": "Heart & Vascular Institute of Florida", "city": "Safety Harbor", "state": "Florida", "zip": "34695-6604", "country": "United States", "geoPoint": {"lat": 27.99085, "lon": -82.69316}}, {"facility": "Florida Cardiovascular Institute PA", "city": "Tampa", "state": "Florida", "zip": "33609", "country": "United States", "geoPoint": {"lat": 27.94752, "lon": -82.45843}}, {"facility": "Interventional Cardiac Consultants PLC", "city": "Trinity", "state": "Florida", "zip": "34655", "country": "United States", "geoPoint": {"lat": 28.18085, "lon": -82.68177}}, {"facility": "Emory University Hospital", "city": "Atlanta", "state": "Georgia", "zip": "30322", "country": "United States", "geoPoint": {"lat": 33.749, "lon": -84.38798}}, {"facility": "Northeast Georgia Heart Center PC", "city": "Gainesville", "state": "Georgia", "zip": "30501", "country": "United States", "geoPoint": {"lat": 34.29788, "lon": -83.82407}}, {"facility": "Macon Electrophysiology Associates PC", "city": "Macon", "state": "Georgia", "zip": "31201", "country": "United States", "geoPoint": {"lat": 32.84069, "lon": -83.6324}}, {"facility": "Cardiovascular Consultants (Savannah GA)", "city": "Savannah", "state": "Georgia", "zip": "31404", "country": "United States", "geoPoint": {"lat": 32.08354, "lon": -81.09983}}, {"facility": "Edward N Shen MD Inc", "city": "Honolulu", "state": "Hawaii", "zip": "96813", "country": "United States", "geoPoint": {"lat": 21.30694, "lon": -157.85833}}, {"facility": "Midwest Cardiology PC", "city": "Belleville", "state": "Illinois", "zip": "62226", "country": "United States", "geoPoint": {"lat": 38.52005, "lon": -89.98399}}, {"facility": "Cardiovascular Associates", "city": "Elk Grove Village", "state": "Illinois", "zip": "60007", "country": "United States", "geoPoint": {"lat": 42.00392, "lon": -87.97035}}, {"facility": "The Heart Group PC", "city": "Evansville", "state": "Indiana", "zip": "47710-1656", "country": "United States", "geoPoint": {"lat": 37.97476, "lon": -87.55585}}, {"facility": "Saint Mary Medical Center (Community Healthcare System)", "city": "Hobart", "state": "Indiana", "zip": "46342", "country": "United States", "geoPoint": {"lat": 41.53226, "lon": -87.25504}}, {"facility": "Cardiologists PC", "city": "Cedar Rapids", "state": "Iowa", "zip": "52403", "country": "United States", "geoPoint": {"lat": 42.00833, "lon": -91.64407}}, {"facility": "King's Daughters Medical Center", "city": "Ashland", "state": "Kentucky", "zip": "41101-2843", "country": "United States", "geoPoint": {"lat": 38.47841, "lon": -82.63794}}, {"facility": "University Medical Associates", "city": "Louisville", "state": "Kentucky", "zip": "40202-1901", "country": "United States", "geoPoint": {"lat": 38.25424, "lon": -85.75941}}, {"facility": "Cardiovascular Associates LLC", "city": "Covington", "state": "Louisiana", "zip": "70433", "country": "United States", "geoPoint": {"lat": 30.47549, "lon": -90.10042}}, {"facility": "Cardiology Associates PC", "city": "Annapolis", "state": "Maryland", "zip": "21401", "country": "United States", "geoPoint": {"lat": 38.97845, "lon": -76.49218}}, {"facility": "Cardiovascular Specialists of Frederick", "city": "Frederick", "state": "Maryland", "zip": "21702", "country": "United States", "geoPoint": {"lat": 39.41427, "lon": -77.41054}}, {"facility": "The Heart Center", "city": "Glen Burnie", "state": "Maryland", "zip": "21061-5613", "country": "United States", "geoPoint": {"lat": 39.16261, "lon": -76.62469}}, {"facility": "Baltimore Heart Associates (Randallstown MD)", "city": "Randallstown", "state": "Maryland", "zip": "21133-4707", "country": "United States", "geoPoint": {"lat": 39.36733, "lon": -76.79525}}, {"facility": "Shady Grove Adventist Hospital", "city": "Rockville", "state": "Maryland", "zip": "20850", "country": "United States", "geoPoint": {"lat": 39.084, "lon": -77.15276}}, {"facility": "Peninsula Cardiology Associates", "city": "Salisbury", "state": "Maryland", "zip": "21804", "country": "United States", "geoPoint": {"lat": 38.36067, "lon": -75.59937}}, {"facility": "Internal Medicine & Cardiology Associates of Southeastern New England PC", "city": "Fall River", "state": "Massachusetts", "zip": "02720", "country": "United States", "geoPoint": {"lat": 41.70149, "lon": -71.15505}}, {"facility": "New Bedford Medical Associates", "city": "New Bedford", "state": "Massachusetts", "zip": "02740", "country": "United States", "geoPoint": {"lat": 41.63622, "lon": -70.93421}}, {"facility": "North Shore Cardiology Associates", "city": "Salem", "state": "Massachusetts", "zip": "01970", "country": "United States", "geoPoint": {"lat": 42.51954, "lon": -70.89672}}, {"facility": "University of Massachusetts Memorial Medical Center", "city": "Worcester", "state": "Massachusetts", "zip": "01655-0002", "country": "United States", "geoPoint": {"lat": 42.26259, "lon": -71.80229}}, {"facility": "University of Michigan Health System (UMHS) VA Medical Center", "city": "Ann Arbor", "state": "Michigan", "zip": "48105-2303", "country": "United States", "geoPoint": {"lat": 42.27756, "lon": -83.74088}}, {"facility": "Genesys Regional Medical Center", "city": "Grand Blanc", "state": "Michigan", "zip": "48439", "country": "United States", "geoPoint": {"lat": 42.92753, "lon": -83.62995}}, {"facility": "Borgess Medical Center", "city": "Kalamazoo", "state": "Michigan", "zip": "49048", "country": "United States", "geoPoint": {"lat": 42.29171, "lon": -85.58723}}, {"facility": "Cardiology Consultants of East Michigan", "city": "Lapeer", "state": "Michigan", "zip": "48446", "country": "United States", "geoPoint": {"lat": 43.05142, "lon": -83.31883}}, {"facility": "Cardiovascular Clinical Associates PC", "city": "Southfield", "state": "Michigan", "zip": "48034", "country": "United States", "geoPoint": {"lat": 42.47337, "lon": -83.22187}}, {"facility": "Great Lakes Heart and Vascular Institute PC", "city": "St. Joseph", "state": "Michigan", "zip": "49085", "country": "United States", "geoPoint": {"lat": 42.10976, "lon": -86.48002}}, {"facility": "University of Minnesota", "city": "Minneapolis", "state": "Minnesota", "zip": "55455-0368", "country": "United States", "geoPoint": {"lat": 44.97997, "lon": -93.26384}}, {"facility": "Mayo Clinic", "city": "Rochester", "state": "Minnesota", "zip": "55905-0001", "country": "United States", "geoPoint": {"lat": 44.02163, "lon": -92.4699}}, {"facility": "Saint Paul Cardiology", "city": "St. Paul", "state": "Minnesota", "zip": "55102-1036", "country": "United States", "geoPoint": {"lat": 44.94441, "lon": -93.09327}}, {"facility": "Hattiesburg Clinic/Forrest General", "city": "Hattiesburg", "state": "Mississippi", "zip": "39401", "country": "United States", "geoPoint": {"lat": 31.32712, "lon": -89.29034}}, {"facility": "Cardiovascular Consultants (Cape Giradeau MO)", "city": "Cape Girardeau", "state": "Missouri", "zip": "63703", "country": "United States", "geoPoint": {"lat": 37.30588, "lon": -89.51815}}, {"facility": "Saint Louis Heart & Vascular PC", "city": "Saint Louis", "state": "Missouri", "zip": "63136-6111", "country": "United States", "geoPoint": {"lat": 38.62727, "lon": -90.19789}}, {"facility": "Cardiology Consultants of Saint Louis County PC", "city": "St. Louis", "state": "Missouri", "zip": "63128", "country": "United States", "geoPoint": {"lat": 38.62727, "lon": -90.19789}}, {"facility": "Heart Consultants PC", "city": "Omaha", "state": "Nebraska", "zip": "68122", "country": "United States", "geoPoint": {"lat": 41.25626, "lon": -95.94043}}, {"facility": "Reno Heart Physicians", "city": "Reno", "state": "Nevada", "zip": "89503-4541", "country": "United States", "geoPoint": {"lat": 39.52963, "lon": -119.8138}}, {"facility": "New Jersey Heart (Elizabeth NJ)", "city": "Elizabeth", "state": "New Jersey", "zip": "07202", "country": "United States", "geoPoint": {"lat": 40.66399, "lon": -74.2107}}, {"facility": "Englewood Hospital & Medical Center", "city": "Englewood", "state": "New Jersey", "zip": "07631", "country": "United States", "geoPoint": {"lat": 40.89288, "lon": -73.97264}}, {"facility": "Saint Joseph's Regional Medical Center", "city": "Paterson", "state": "New Jersey", "zip": "07503", "country": "United States", "geoPoint": {"lat": 40.91677, "lon": -74.17181}}, {"facility": "Cardiology Associates", "city": "West Paterson", "state": "New Jersey", "zip": "07424", "country": "United States"}, {"facility": "Albany Associates in Cardiology", "city": "Albany", "state": "New York", "zip": "12205-1438", "country": "United States", "geoPoint": {"lat": 42.65258, "lon": -73.75623}}, {"facility": "Cardio Research of New York Inc", "city": "Bayside", "state": "New York", "zip": "11361", "country": "United States", "geoPoint": {"lat": 40.76844, "lon": -73.77708}}, {"facility": "New York Medical Center of Queens", "city": "New York City", "state": "New York", "zip": "10001", "country": "United States", "geoPoint": {"lat": 40.71427, "lon": -74.00597}}, {"facility": "Heartwise Cardiology", "city": "New York", "state": "New York", "zip": "10016", "country": "United States", "geoPoint": {"lat": 40.71427, "lon": -74.00597}}, {"facility": "Arrhythmia Associates of New York", "city": "New York", "state": "New York", "zip": "10028-1802", "country": "United States", "geoPoint": {"lat": 40.71427, "lon": -74.00597}}, {"facility": "University Cardiovascular Associates (UCVA)", "city": "Rochester", "state": "New York", "zip": "14618-2663", "country": "United States", "geoPoint": {"lat": 43.15478, "lon": -77.61556}}, {"facility": "Cardiology Associates of Schenectady PC", "city": "Schenectady", "state": "New York", "zip": "12304", "country": "United States", "geoPoint": {"lat": 42.81424, "lon": -73.93957}}, {"facility": "Saint Catherine of Sienna Medical Center", "city": "Smithtown", "state": "New York", "zip": "11787-1628", "country": "United States", "geoPoint": {"lat": 40.85593, "lon": -73.20067}}, {"facility": "Sanger Heart and Vascular Institute-Charlotte", "city": "Charlotte", "state": "North Carolina", "zip": "28203", "country": "United States", "geoPoint": {"lat": 35.22709, "lon": -80.84313}}, {"facility": "Heart Rhythm Associates PLLC", "city": "Greenville", "state": "North Carolina", "zip": "27834", "country": "United States", "geoPoint": {"lat": 35.61266, "lon": -77.36635}}, {"facility": "High Point Regional Health System", "city": "High Point", "state": "North Carolina", "zip": "27262", "country": "United States", "geoPoint": {"lat": 35.95569, "lon": -80.00532}}, {"facility": "Wake Heart & Vascular Associates", "city": "Raleigh", "state": "North Carolina", "zip": "27610-1231", "country": "United States", "geoPoint": {"lat": 35.7721, "lon": -78.63861}}, {"facility": "Wilmington Cardiology LLC", "city": "Wilmington", "state": "North Carolina", "zip": "28403-5345", "country": "United States", "geoPoint": {"lat": 34.22573, "lon": -77.94471}}, {"facility": "Forsyth Medical Center", "city": "Winston-Salem", "state": "North Carolina", "zip": "27103", "country": "United States", "geoPoint": {"lat": 36.09986, "lon": -80.24422}}, {"facility": "Altru Hospital", "city": "Grand Forks", "state": "North Dakota", "zip": "58201-4032", "country": "United States", "geoPoint": {"lat": 47.92526, "lon": -97.03285}}, {"facility": "TriHealth Good Samaritan Hos", "city": "Cincinnati", "state": "Ohio", "zip": "45220-2475", "country": "United States", "geoPoint": {"lat": 39.12713, "lon": -84.51435}}, {"facility": "EMH Elyria Medical Center", "city": "Elyria", "state": "Ohio", "zip": "44035", "country": "United States", "geoPoint": {"lat": 41.36838, "lon": -82.10765}}, {"facility": "Heart Care Inc", "city": "Gahanna", "state": "Ohio", "zip": "43230", "country": "United States", "geoPoint": {"lat": 40.01923, "lon": -82.87934}}, {"facility": "Stark Medical Specialties Inc", "city": "Massillon", "state": "Ohio", "zip": "44646", "country": "United States", "geoPoint": {"lat": 40.79672, "lon": -81.52151}}, {"facility": "Ohio Institute of Cardiac Care Inc", "city": "Springfield", "state": "Ohio", "zip": "45504", "country": "United States", "geoPoint": {"lat": 39.92423, "lon": -83.80882}}, {"facility": "The Toledo Clinic", "city": "Toledo", "state": "Ohio", "zip": "43623-4231", "country": "United States", "geoPoint": {"lat": 41.66394, "lon": -83.55521}}, {"facility": "Bluestem Cardiology PC", "city": "Bartlesville", "state": "Oklahoma", "zip": "74006", "country": "United States", "geoPoint": {"lat": 36.74731, "lon": -95.98082}}, {"facility": "Heart Consultants", "city": "Midwest City", "state": "Oklahoma", "zip": "73110", "country": "United States", "geoPoint": {"lat": 35.44951, "lon": -97.3967}}, {"facility": "Terrance Khastgir MD PC", "city": "Oklahoma City", "state": "Oklahoma", "zip": "73112-4457", "country": "United States", "geoPoint": {"lat": 35.46756, "lon": -97.51643}}, {"facility": "Pacific Heart Associates", "city": "Portland", "state": "Oregon", "zip": "97227", "country": "United States", "geoPoint": {"lat": 45.52345, "lon": -122.67621}}, {"facility": "Altoona Regional Health Center", "city": "Altoona", "state": "Pennsylvania", "zip": "16601-4804", "country": "United States", "geoPoint": {"lat": 40.51868, "lon": -78.39474}}, {"facility": "Arrhythmia Institute", "city": "Newtown", "state": "Pennsylvania", "zip": "18940-1885", "country": "United States", "geoPoint": {"lat": 40.22928, "lon": -74.93683}}, {"facility": "Cardiology Consultants of Philadelphia", "city": "Philadelphia", "state": "Pennsylvania", "zip": "19107", "country": "United States", "geoPoint": {"lat": 39.95233, "lon": -75.16379}}, {"facility": "Marshall-Rismiller & Associates", "city": "Pottsville", "state": "Pennsylvania", "zip": "17901", "country": "United States", "geoPoint": {"lat": 40.68565, "lon": -76.1955}}, {"facility": "Columbia Heart Clinic PA", "city": "Columbia", "state": "South Carolina", "zip": "29203", "country": "United States", "geoPoint": {"lat": 34.00071, "lon": -81.03481}}, {"facility": "Pee Dee Cardiology", "city": "Florence", "state": "South Carolina", "zip": "29506", "country": "United States", "geoPoint": {"lat": 34.19543, "lon": -79.76256}}, {"facility": "Piedmont Cardiology Associates (Greenwood SC)", "city": "Greenwood", "state": "South Carolina", "zip": "29646", "country": "United States", "geoPoint": {"lat": 34.1954, "lon": -82.16179}}, {"facility": "Memphis Heart Clinic", "city": "Memphis", "state": "Tennessee", "zip": "38120", "country": "United States", "geoPoint": {"lat": 35.14953, "lon": -90.04898}}, {"facility": "James H Quillen VA Medical Center", "city": "Mountain Home", "state": "Tennessee", "zip": "37604", "country": "United States", "geoPoint": {"lat": 36.31066, "lon": -82.3732}}, {"facility": "Amarillo Heart Group", "city": "Amarillo", "state": "Texas", "zip": "79106-2430", "country": "United States", "geoPoint": {"lat": 35.222, "lon": -101.8313}}, {"facility": "Dallas VA Medical Center", "city": "Dallas", "state": "Texas", "zip": "75216", "country": "United States", "geoPoint": {"lat": 32.78306, "lon": -96.80667}}, {"facility": "Hall Garcia Cardiology Associates", "city": "Houston", "state": "Texas", "zip": "77030-2309", "country": "United States", "geoPoint": {"lat": 29.76328, "lon": -95.36327}}, {"facility": "Heart Clinic PLLC", "city": "McAllen", "state": "Texas", "zip": "78503", "country": "United States", "geoPoint": {"lat": 26.20341, "lon": -98.23001}}, {"facility": "Medical Center Hospital Odessa", "city": "Odessa", "state": "Texas", "zip": "76761", "country": "United States", "geoPoint": {"lat": 31.84568, "lon": -102.36764}}, {"facility": "Cardiology Clinic of San Antonio", "city": "San Antonio", "state": "Texas", "zip": "78229", "country": "United States", "geoPoint": {"lat": 29.42412, "lon": -98.49363}}, {"facility": "Cardiovascular Associates of East Texas PA", "city": "Tyler", "state": "Texas", "zip": "75701", "country": "United States", "geoPoint": {"lat": 32.35126, "lon": -95.30106}}, {"facility": "Utah Cardiology (Ogden UT)", "city": "Ogden", "state": "Utah", "zip": "84405-7420", "country": "United States", "geoPoint": {"lat": 41.223, "lon": -111.97383}}, {"facility": "Virginia Cardiovascular Specialists PC", "city": "Richmond", "state": "Virginia", "zip": "23226-1928", "country": "United States", "geoPoint": {"lat": 37.55376, "lon": -77.46026}}, {"facility": "CAMC Institute Clinical Trials Center", "city": "Charleston", "state": "West Virginia", "zip": "25304", "country": "United States", "geoPoint": {"lat": 38.34982, "lon": -81.63262}}, {"facility": "Wisconsin Heart SC", "city": "Madison", "state": "Wisconsin", "zip": "53713-2319", "country": "United States", "geoPoint": {"lat": 43.07305, "lon": -89.40123}}, {"facility": "Arrhythmia Consultants of Milwaukee SC", "city": "Wauwatosa", "state": "Wisconsin", "zip": "53226-4362", "country": "United States", "geoPoint": {"lat": 43.04946, "lon": -88.00759}}]}, "referencesModule": {"references": [{"pmid": "15492306", "type": "BACKGROUND", "citation": "Wathen MS, DeGroot PJ, Sweeney MO, Stark AJ, Otterness MF, Adkisson WO, Canby RC, Khalighi K, Machado C, Rubenstein DS, Volosin KJ; PainFREE Rx II Investigators. Prospective randomized multicenter trial of empirical antitachycardia pacing versus shocks for spontaneous rapid ventricular tachycardia in patients with implantable cardioverter-defibrillators: Pacing Fast Ventricular Tachycardia Reduces Shock Therapies (PainFREE Rx II) trial results. Circulation. 2004 Oct 26;110(17):2591-6. doi: 10.1161/01.CIR.0000145610.64014.E4. Epub 2004 Oct 18."}, {"pmid": "10952831", "type": "BACKGROUND", "citation": "Alpert JS. Are data from clinical registries of any value? Eur Heart J. 2000 Sep;21(17):1399-401. doi: 10.1053/euhj.2000.2265. No abstract available."}, {"pmid": "12950512", "type": "BACKGROUND", "citation": "Lamas GA, Williams A. Have the results of randomized clinical trials of pacing altered the practice of cardiac pacing? J Cardiovasc Electrophysiol. 2003 Sep;14(9 Suppl):S15-9. doi: 10.1046/j.1540-8167.14.s9.14.x."}, {"pmid": "15659722", "type": "BACKGROUND", "citation": "Bardy GH, Lee KL, Mark DB, Poole JE, Packer DL, Boineau R, Domanski M, Troutman C, Anderson J, Johnson G, McNulty SE, Clapp-Channing N, Davidson-Ray LD, Fraulo ES, Fishbein DP, Luceri RM, Ip JH; Sudden Cardiac Death in Heart Failure Trial (SCD-HeFT) Investigators. Amiodarone or an implantable cardioverter-defibrillator for congestive heart failure. N Engl J Med. 2005 Jan 20;352(3):225-37. doi: 10.1056/NEJMoa043399. Erratum In: N Engl J Med. 2005 May 19;352(20):2146."}, {"type": "BACKGROUND", "citation": "Liang KY, Zeger S. Longitudinal data analysis using generalized linear models. Biometrika, 1986, 73:13-22."}]}}, "resultsSection": {"participantFlowModule": {"preAssignmentDetails": "This is a post-market prospective study. No group assignment is given. Subjects implanted with IPGs were enrolled and followed at 6 and 12 months. Subjects implanted with ICDs or CRT-Ds were enrolled and followed at six, 12, 24, 36, 48, and 60 months.", "recruitmentDetails": "The study included 147 outpatient cardiology practices in the United States. Inclusion criteria were(1) implant of an implantable pulse generator (IPG), implantable cardioverter defibrillator (ICD) or cardiac resynchronization therapy defibrillator (CRT-D); and (2) age 18 years or older. Enrollment period was from Aug 2005 to Jun 2006.", "groups": [{"id": "FG000", "title": "Subjects With IPG", "description": "Subjects implanted with an implantable pulse generator (IPG)."}, {"id": "FG001", "title": "Subjects With Single Chamber ICD", "description": "Subjects implanted with a single chamber implantable cardioverter defibrillator (ICD)."}, {"id": "FG002", "title": "Subjects With Dual Chamber ICD", "description": "Subjects implanted with a dual chamber implantable cardioverter defibrillator (ICD)."}, {"id": "FG003", "title": "Subjects With CRT-D", "description": "Subjects implanted with a cardiac resynchronization therapy defibrillator (CRT-D)."}], "periods": [{"title": "Overall Study", "milestones": [{"type": "STARTED", "achievements": [{"groupId": "FG000", "numSubjects": "621"}, {"groupId": "FG001", "numSubjects": "324"}, {"groupId": "FG002", "numSubjects": "1088"}, {"groupId": "FG003", "numSubjects": "850"}]}, {"type": "COMPLETED", "achievements": [{"groupId": "FG000", "numSubjects": "621"}, {"groupId": "FG001", "numSubjects": "324"}, {"groupId": "FG002", "numSubjects": "1088"}, {"groupId": "FG003", "numSubjects": "850"}]}, {"type": "NOT COMPLETED", "achievements": [{"groupId": "FG000", "numSubjects": "0"}, {"groupId": "FG001", "numSubjects": "0"}, {"groupId": "FG002", "numSubjects": "0"}, {"groupId": "FG003", "numSubjects": "0"}]}]}]}, "baselineCharacteristicsModule": {"populationDescription": "Subjects implanted with an IPG, ICD or CRT-D and age 18 years or older were eligible for the OMNI study. Clinical data and device programming at baseline from all subjects was summarized for categorical and continuous variables using descriptive statistics.", "groups": [{"id": "BG000", "title": "Overall", "description": "All patients enrolled in OMNI."}], "denoms": [{"units": "Participants", "counts": [{"groupId": "BG000", "value": "2883"}]}], "measures": [{"title": "Age, Categorical", "paramType": "COUNT_OF_PARTICIPANTS", "unitOfMeasure": "Participants", "classes": [{"categories": [{"title": "<=18 years", "measurements": [{"groupId": "BG000", "value": "0"}]}, {"title": "Between 18 and 65 years", "measurements": [{"groupId": "BG000", "value": "988"}]}, {"title": ">=65 years", "measurements": [{"groupId": "BG000", "value": "1895"}]}]}]}, {"title": "Age Continuous", "paramType": "MEAN", "dispersionType": "STANDARD_DEVIATION", "unitOfMeasure": "years", "classes": [{"categories": [{"measurements": [{"groupId": "BG000", "value": "68.7", "spread": "12.5"}]}]}]}, {"title": "Sex: Female, Male", "paramType": "COUNT_OF_PARTICIPANTS", "unitOfMeasure": "Participants", "classes": [{"categories": [{"title": "Female", "measurements": [{"groupId": "BG000", "value": "907"}]}, {"title": "Male", "measurements": [{"groupId": "BG000", "value": "1976"}]}]}]}, {"title": "Race/Ethnicity, Customized", "description": "2817 subjects had information on race or ethnic origin.", "paramType": "NUMBER", "unitOfMeasure": "participants", "classes": [{"title": "American Indian", "categories": [{"measurements": [{"groupId": "BG000", "value": "7"}]}]}, {"title": "Asian", "categories": [{"measurements": [{"groupId": "BG000", "value": "38"}]}]}, {"title": "Black", "categories": [{"measurements": [{"groupId": "BG000", "value": "335"}]}]}, {"title": "Hispanic", "categories": [{"measurements": [{"groupId": "BG000", "value": "206"}]}]}, {"title": "Native Hawaiian", "categories": [{"measurements": [{"groupId": "BG000", "value": "8"}]}]}, {"title": "White", "categories": [{"measurements": [{"groupId": "BG000", "value": "2217"}]}]}, {"title": "Other", "categories": [{"measurements": [{"groupId": "BG000", "value": "6"}]}]}]}, {"title": "Region of Enrollment", "paramType": "NUMBER", "unitOfMeasure": "participants", "classes": [{"title": "United States", "categories": [{"measurements": [{"groupId": "BG000", "value": "2883"}]}]}]}, {"title": "Weight", "description": "2781 subjects had information on weight.", "paramType": "MEAN", "dispersionType": "STANDARD_DEVIATION", "unitOfMeasure": "lbs", "classes": [{"categories": [{"measurements": [{"groupId": "BG000", "value": "188", "spread": "45.3"}]}]}]}, {"title": "QRS duration", "description": "2132 subjects had information on QRS duration.", "paramType": "MEAN", "dispersionType": "STANDARD_DEVIATION", "unitOfMeasure": "ms", "classes": [{"categories": [{"measurements": [{"groupId": "BG000", "value": "119.9", "spread": "34.0"}]}]}]}, {"title": "PR interval", "description": "1829 subjects had information on PR interval.", "paramType": "MEAN", "dispersionType": "STANDARD_DEVIATION", "unitOfMeasure": "ms", "classes": [{"categories": [{"measurements": [{"groupId": "BG000", "value": "182.6", "spread": "45.5"}]}]}]}, {"title": "LVEF(%)", "description": "2487 subjects had information on left ventricular ejection fraction (LVEF, %).", "paramType": "MEAN", "dispersionType": "STANDARD_DEVIATION", "unitOfMeasure": "participants", "classes": [{"categories": [{"measurements": [{"groupId": "BG000", "value": "33.4", "spread": "15.7"}]}]}]}, {"title": "New York Heart Association (NYHA) classification", "description": "New York Heart Association (NYHA) classification is used to classify the extent of heart failure. It has four classes: Class I (Mild), Class II (Mild), Class III (Moderate), and Class IV (Severe).", "paramType": "NUMBER", "unitOfMeasure": "participants", "classes": [{"title": "I", "categories": [{"measurements": [{"groupId": "BG000", "value": "104"}]}]}, {"title": "II", "categories": [{"measurements": [{"groupId": "BG000", "value": "627"}]}]}, {"title": "III", "categories": [{"measurements": [{"groupId": "BG000", "value": "857"}]}]}, {"title": "IV", "categories": [{"measurements": [{"groupId": "BG000", "value": "72"}]}]}, {"title": "No Heart Failure", "categories": [{"measurements": [{"groupId": "BG000", "value": "600"}]}]}, {"title": "Missing", "categories": [{"measurements": [{"groupId": "BG000", "value": "5"}]}]}]}, {"title": "Heart failure (HF) stage", "description": "This is a new classification heart failure (HF) which include four stages:\n\nStage A - At high risk for HF but without structural heart disease or symptoms of HF; Stage B - Structural heart disease but without signs or symptoms of HF; Stage C - Structural heart disease with prior or current symptoms of HF; Stage D - Refractory HF requiring specialized interventions.", "paramType": "NUMBER", "unitOfMeasure": "participants", "classes": [{"title": "A", "categories": [{"measurements": [{"groupId": "BG000", "value": "44"}]}]}, {"title": "B", "categories": [{"measurements": [{"groupId": "BG000", "value": "229"}]}]}, {"title": "C", "categories": [{"measurements": [{"groupId": "BG000", "value": "713"}]}]}, {"title": "D", "categories": [{"measurements": [{"groupId": "BG000", "value": "44"}]}]}, {"title": "No HF", "categories": [{"measurements": [{"groupId": "BG000", "value": "578"}]}]}, {"title": "NA", "categories": [{"measurements": [{"groupId": "BG000", "value": "1275"}]}]}]}, {"title": "Number of patients implanted", "paramType": "NUMBER", "unitOfMeasure": "participants", "classes": [{"categories": [{"measurements": [{"groupId": "BG000", "value": "2882"}]}]}]}]}, "outcomeMeasuresModule": {"outcomeMeasures": [{"type": "PRIMARY", "title": "Implanted Systems Frequencies", "description": "Frequencies of implanted systems were measured among patients who were implanted with a device (IPT, ICD or CRT-D).", "reportingStatus": "POSTED", "paramType": "NUMBER", "unitOfMeasure": "participants", "timeFrame": "Baseline", "groups": [{"id": "OG000", "title": "Implanted Subjects", "description": "All patients enrolled in OMNI."}], "denoms": [{"units": "Participants", "counts": [{"groupId": "OG000", "value": "2882"}]}], "classes": [{"title": "EnRhythm (P1501DR)", "categories": [{"measurements": [{"groupId": "OG000", "value": "620"}]}]}, {"title": "EnTrust AT (D154ATG)", "categories": [{"measurements": [{"groupId": "OG000", "value": "820"}]}]}, {"title": "EnTrust VR (D154VRC)", "categories": [{"measurements": [{"groupId": "OG000", "value": "321"}]}]}, {"title": "InSync Sentry (7297)", "categories": [{"measurements": [{"groupId": "OG000", "value": "30"}]}]}, {"title": "InSync Sentry (7299)", "categories": [{"measurements": [{"groupId": "OG000", "value": "820"}]}]}, {"title": "Intrinsic DR (7288)", "categories": [{"measurements": [{"groupId": "OG000", "value": "271"}]}]}]}, {"type": "PRIMARY", "title": "Implantable Pulse Generator (IPG) Device Baseline Programming Frequencies.", "description": "Pacing mode is based on the NASPE/BPEG Generic (NBG) Pacemake coding which includes: I, the chambers paced (V= Ventricle, A=Atrium, D=Dual (A\\&V), O=None); II, the chambers sensed (V= Ventricle, A=Atrium, D=Dual (A\\&V), O=None); III, the mode of response (T=Triggered, I=Inhibited, D=Dual Triggered/Inhibited, O=None); IV, the programmable functions(R=Rate Modulated, C=Communicating, M=Multiprogrammable, P=Simple Programmable, O=None); V, the antitachycardia functions (O=None, P=Paced, S=Shocks, D=Dual (P\\&S)). In addition, MVP (managed ventricular pacing) is a mode that promotes AV conduction by reducing or eliminating unnecessary RV pacing but maintains dual chamber ventricular support in the event that AV conduction is lost.", "reportingStatus": "POSTED", "paramType": "NUMBER", "unitOfMeasure": "participants", "timeFrame": "Baseline", "groups": [{"id": "OG000", "title": "IPG Group", "description": "Subjects implanted with IPG"}], "denoms": [{"units": "Participants", "counts": [{"groupId": "OG000", "value": "620"}]}], "classes": [{"title": "Pacing Mode, DDD/DDDR", "categories": [{"measurements": [{"groupId": "OG000", "value": "81"}]}]}, {"title": "Pacing Mode, DDI/DDIR", "categories": [{"measurements": [{"groupId": "OG000", "value": "4"}]}]}, {"title": "Pacing Mode, MVP_AAIR_DD", "categories": [{"measurements": [{"groupId": "OG000", "value": "380"}]}]}, {"title": "Pacing Mode, MVP_AAI_DDD", "categories": [{"measurements": [{"groupId": "OG000", "value": "148"}]}]}, {"title": "Pacing Mode, VVI/VVIR", "categories": [{"measurements": [{"groupId": "OG000", "value": "7"}]}]}]}, {"type": "PRIMARY", "title": "ICD/CRT-D Device Baseline Programming Frequencies", "description": "ICD/CRT-D baseline programming, pacing mode and detection. Pacing mode is based on the NASPE/BPEG Generic (NBG) Pacemake coding which includes: I, the chambers paced (V= Ventricle, A=Atrium, D=Dual (A\\&V), O=None); II, the chambers sensed (V= Ventricle, A=Atrium, D=Dual (A\\&V), O=None); III, the mode of response (T=Triggered, I=Inhibited, D=Dual Triggered/Inhibited, O=None); IV, the programmable functions(R=Rate Modulated, C=Communicating, M=Multiprogrammable, P=Simple Programmable, O=None); V, the antitachycardia functions (O=None, P=Paced, S=Shocks, D=Dual (P\\&S)). In addition, MVP (managed ventricular pacing) is a mode that promotes AV conduction by reducing or eliminating unnecessary RV pacing but maintains dual chamber ventricular support in the event that AV conduction is lost.", "reportingStatus": "POSTED", "paramType": "NUMBER", "unitOfMeasure": "participants", "timeFrame": "Baseline", "typeUnitsAnalyzed": "ICD/CRT-D Devices", "denomUnitsSelected": "Participants", "groups": [{"id": "OG000", "title": "ICD/CRT-D Group", "description": "Subjects implanted with ICD/CRT-D"}], "denoms": [{"units": "Participants", "counts": [{"groupId": "OG000", "value": "2262"}]}, {"units": "ICD/CRT-D Devices", "counts": [{"groupId": "OG000", "value": "2262"}]}], "classes": [{"title": "Pacing Mode, DDD/DDDR", "categories": [{"measurements": [{"groupId": "OG000", "value": "804"}]}]}, {"title": "Pacing Mode, DDI/DDIR", "categories": [{"measurements": [{"groupId": "OG000", "value": "21"}]}]}, {"title": "Pacing Mode, MVP_AAIR_DD", "categories": [{"measurements": [{"groupId": "OG000", "value": "525"}]}]}, {"title": "Pacing Mode, MVP_AAI_DDD", "categories": [{"measurements": [{"groupId": "OG000", "value": "481"}]}]}, {"title": "Pacing Mode, VVI/VVIR", "categories": [{"measurements": [{"groupId": "OG000", "value": "424"}]}]}, {"title": "ATP Status, Before Charging", "categories": [{"measurements": [{"groupId": "OG000", "value": "23"}]}]}, {"title": "ATP Status, During Charging", "categories": [{"measurements": [{"groupId": "OG000", "value": "1089"}]}]}, {"title": "ATP Status, Off", "categories": [{"measurements": [{"groupId": "OG000", "value": "26"}]}]}, {"title": "VF Detection Enable, On", "categories": [{"measurements": [{"groupId": "OG000", "value": "2234"}]}]}, {"title": "VT Detection Enable, On", "categories": [{"measurements": [{"groupId": "OG000", "value": "1283"}]}]}, {"title": "VT Detection Enable, Monitor", "categories": [{"measurements": [{"groupId": "OG000", "value": "345"}]}]}, {"title": "VF Initial NID, 12/16", "categories": [{"measurements": [{"groupId": "OG000", "value": "1176"}]}]}, {"title": "VF Initial NID, 18/24", "categories": [{"measurements": [{"groupId": "OG000", "value": "1077"}]}]}, {"title": "VF Initial NID, 24/32", "categories": [{"measurements": [{"groupId": "OG000", "value": "2"}]}]}, {"title": "FVT Detection On via VF zone", "categories": [{"measurements": [{"groupId": "OG000", "value": "829"}]}]}, {"title": "FVT Detection On via VT zone", "categories": [{"measurements": [{"groupId": "OG000", "value": "27"}]}]}]}, {"type": "SECONDARY", "title": "AV Block Status by Device Type at 6 and 12 Months.", "description": "Frequencies of subject with AV block over time between ICD and Implantable Pulse Generator(IPG) study participants.", "reportingStatus": "POSTED", "paramType": "NUMBER", "unitOfMeasure": "participants", "timeFrame": "12 months post enrollment", "groups": [{"id": "OG000", "title": "IPG (N=610)", "description": "IPG Patients with MVP enabled and follow up data available"}, {"id": "OG001", "title": "ICD (N=1029)", "description": "ICD Patients with MVP enabled and follow up data available"}], "denoms": [{"units": "Participants", "counts": [{"groupId": "OG000", "value": "610"}, {"groupId": "OG001", "value": "1029"}]}], "classes": [{"title": "6 Months: Subjects with MVP enabled, N", "categories": [{"measurements": [{"groupId": "OG000", "value": "441", "spread": "12.5"}, {"groupId": "OG001", "value": "815"}]}]}, {"title": "6 Months: AV Block 1st degree", "categories": [{"measurements": [{"groupId": "OG000", "value": "103"}, {"groupId": "OG001", "value": "167"}]}]}, {"title": "6 Months: AV Block 2nd degree Type I", "categories": [{"measurements": [{"groupId": "OG000", "value": "11"}, {"groupId": "OG001", "value": "7"}]}]}, {"title": "6 Months: AV Block 2nd degree Type II", "categories": [{"measurements": [{"groupId": "OG000", "value": "19"}, {"groupId": "OG001", "value": "7"}]}]}, {"title": "6 Months: AV Block 3rd degree Intermittent", "categories": [{"measurements": [{"groupId": "OG000", "value": "39"}, {"groupId": "OG001", "value": "5"}]}]}, {"title": "6 Months: AV Block 3rd degree Persistent", "categories": [{"measurements": [{"groupId": "OG000", "value": "11"}, {"groupId": "OG001", "value": "5"}]}]}, {"title": "6 Months: None", "categories": [{"measurements": [{"groupId": "OG000", "value": "250"}, {"groupId": "OG001", "value": "603"}]}]}, {"title": "12 Months: Subjects with MVP enabled, N", "categories": [{"measurements": [{"groupId": "OG000", "value": "389"}, {"groupId": "OG001", "value": "732"}]}]}, {"title": "12 Months: AV Block 1st degree", "categories": [{"measurements": [{"groupId": "OG000", "value": "90"}, {"groupId": "OG001", "value": "159"}]}]}, {"title": "12 Months: AV Block 2nd degree Type I", "categories": [{"measurements": [{"groupId": "OG000", "value": "12"}, {"groupId": "OG001", "value": "7"}]}]}, {"title": "12 Months: AV Block 2nd degree Type II", "categories": [{"measurements": [{"groupId": "OG000", "value": "7"}, {"groupId": "OG001", "value": "7"}]}]}, {"title": "12 Months: AV Block 3rd degree Intermittent", "categories": [{"measurements": [{"groupId": "OG000", "value": "30"}, {"groupId": "OG001", "value": "5"}]}]}, {"title": "12 Months: AV Block 3rd degree Persistent", "categories": [{"measurements": [{"groupId": "OG000", "value": "14"}, {"groupId": "OG001", "value": "7"}]}]}, {"title": "12 Months: None", "categories": [{"measurements": [{"groupId": "OG000", "value": "216"}, {"groupId": "OG001", "value": "523"}]}]}]}, {"type": "SECONDARY", "title": "AV Block Status by Severity of Historical AV Block", "description": "Frequencies of Subjects with AV Block Over Time by Severity of Historical AV Block", "reportingStatus": "POSTED", "paramType": "NUMBER", "unitOfMeasure": "participants", "timeFrame": "4 years post implant", "groups": [{"id": "OG000", "title": "Patients Without History of AV Block", "description": "Patients with MVP enabled and follow up data available"}, {"id": "OG001", "title": "Patients With History of AV Block", "description": "Patients with MVP enabled and follow up data available"}], "denoms": [{"units": "Participants", "counts": [{"groupId": "OG000", "value": "1098"}, {"groupId": "OG001", "value": "541"}]}], "classes": [{"title": "6 Months: Subjects with MVP enabled", "categories": [{"measurements": [{"groupId": "OG000", "value": "883"}, {"groupId": "OG001", "value": "373"}]}]}, {"title": "6 Months: AV Block 1st degree", "categories": [{"measurements": [{"groupId": "OG000", "value": "49"}, {"groupId": "OG001", "value": "221"}]}]}, {"title": "6 Months: AV Block 2nd degree Type I", "categories": [{"measurements": [{"groupId": "OG000", "value": "1"}, {"groupId": "OG001", "value": "17"}]}]}, {"title": "6 Months: AV Block 2nd degree Type II", "categories": [{"measurements": [{"groupId": "OG000", "value": "1"}, {"groupId": "OG001", "value": "25"}]}]}, {"title": "6 Months: AV Block 3rd degree Intermittent", "categories": [{"measurements": [{"groupId": "OG000", "value": "2"}, {"groupId": "OG001", "value": "42"}]}]}, {"title": "6 Months: AV Block 3rd degree Persistent", "categories": [{"measurements": [{"groupId": "OG000", "value": "3"}, {"groupId": "OG001", "value": "13"}]}]}, {"title": "6 Months: None", "categories": [{"measurements": [{"groupId": "OG000", "value": "818"}, {"groupId": "OG001", "value": "35"}]}]}, {"title": "12 Months: Subjects with MVP enabled", "categories": [{"measurements": [{"groupId": "OG000", "value": "786"}, {"groupId": "OG001", "value": "335"}]}]}, {"title": "12 Months: AV Block 1st degree", "categories": [{"measurements": [{"groupId": "OG000", "value": "73"}, {"groupId": "OG001", "value": "176"}]}]}, {"title": "12 Months: AV Block 2nd degree Type I", "categories": [{"measurements": [{"groupId": "OG000", "value": "0"}, {"groupId": "OG001", "value": "19"}]}]}, {"title": "12 Months: AV Block 2nd degree Type II", "categories": [{"measurements": [{"groupId": "OG000", "value": "1"}, {"groupId": "OG001", "value": "13"}]}]}, {"title": "12 Months: AV Block 3rd degree Intermittent", "categories": [{"measurements": [{"groupId": "OG000", "value": "5"}, {"groupId": "OG001", "value": "30"}]}]}, {"title": "12 Months: AV Block 3rd degree Persistent", "categories": [{"measurements": [{"groupId": "OG000", "value": "3"}, {"groupId": "OG001", "value": "18"}]}]}, {"title": "12 Months: None", "categories": [{"measurements": [{"groupId": "OG000", "value": "689"}, {"groupId": "OG001", "value": "50"}]}]}, {"title": "24 Months: Subjects with MVP enabled", "categories": [{"measurements": [{"groupId": "OG000", "value": "426"}, {"groupId": "OG001", "value": "146"}]}]}, {"title": "24 Months: AV Block 1st degree", "categories": [{"measurements": [{"groupId": "OG000", "value": "51"}, {"groupId": "OG001", "value": "95"}]}]}, {"title": "24 Months: AV Block 2nd degree Type I", "categories": [{"measurements": [{"groupId": "OG000", "value": "0"}, {"groupId": "OG001", "value": "5"}]}]}, {"title": "24 Months: AV Block 2nd degree Type II", "categories": [{"measurements": [{"groupId": "OG000", "value": "0"}, {"groupId": "OG001", "value": "3"}]}]}, {"title": "24 Months: AV Block 3rd degree Intermittent", "categories": [{"measurements": [{"groupId": "OG000", "value": "1"}, {"groupId": "OG001", "value": "3"}]}]}, {"title": "24 Months: AV Block 3rd degree Persistent", "categories": [{"measurements": [{"groupId": "OG000", "value": "0"}, {"groupId": "OG001", "value": "2"}]}]}, {"title": "24 Months: None", "categories": [{"measurements": [{"groupId": "OG000", "value": "362"}, {"groupId": "OG001", "value": "24"}]}]}, {"title": "36 Months: Subjects with MVP enabled", "categories": [{"measurements": [{"groupId": "OG000", "value": "324"}, {"groupId": "OG001", "value": "105"}]}]}, {"title": "36 Months: AV Block 1st degree", "categories": [{"measurements": [{"groupId": "OG000", "value": "58"}, {"groupId": "OG001", "value": "69"}]}]}, {"title": "36 Months: AV Block 2nd degree Type I", "categories": [{"measurements": [{"groupId": "OG000", "value": "1"}, {"groupId": "OG001", "value": "3"}]}]}, {"title": "36 Months: AV Block 2nd degree Type II", "categories": [{"measurements": [{"groupId": "OG000", "value": "0"}, {"groupId": "OG001", "value": "2"}]}]}, {"title": "36 Months: AV Block 3rd degree Intermittent", "categories": [{"measurements": [{"groupId": "OG000", "value": "0"}, {"groupId": "OG001", "value": "3"}]}]}, {"title": "36 Months: AV Block 3rd degree Persistent", "categories": [{"measurements": [{"groupId": "OG000", "value": "0"}, {"groupId": "OG001", "value": "2"}]}]}, {"title": "36 Months: None", "categories": [{"measurements": [{"groupId": "OG000", "value": "253"}, {"groupId": "OG001", "value": "18"}]}]}, {"title": "48 Months: Subjects with MVP enabled", "categories": [{"measurements": [{"groupId": "OG000", "value": "269"}, {"groupId": "OG001", "value": "92"}]}]}, {"title": "48 Months: AV Block 1st degree", "categories": [{"measurements": [{"groupId": "OG000", "value": "59"}, {"groupId": "OG001", "value": "59"}]}]}, {"title": "48 Months: AV Block 2nd degree Type I", "categories": [{"measurements": [{"groupId": "OG000", "value": "0"}, {"groupId": "OG001", "value": "2"}]}]}, {"title": "48 Months: AV Block 2nd degree Type II", "categories": [{"measurements": [{"groupId": "OG000", "value": "0"}, {"groupId": "OG001", "value": "1"}]}]}, {"title": "48 Months: AV Block 3rd degree Intermittent", "categories": [{"measurements": [{"groupId": "OG000", "value": "0"}, {"groupId": "OG001", "value": "2"}]}]}, {"title": "48 Months: AV Block 3rd degree Persistent", "categories": [{"measurements": [{"groupId": "OG000", "value": "1"}, {"groupId": "OG001", "value": "2"}]}]}, {"title": "48 Months: None", "categories": [{"measurements": [{"groupId": "OG000", "value": "201"}, {"groupId": "OG001", "value": "17"}]}]}]}, {"type": "SECONDARY", "title": "Summary of ATP Episodes Within All Treated Episodes", "description": "Evaluate the utility of the Antitachycardia Pacing (ATP) During Charging feature of the device.", "reportingStatus": "POSTED", "paramType": "NUMBER", "unitOfMeasure": "Episodes", "timeFrame": "4 years post enrollment", "groups": [{"id": "OG000", "title": "ATP During Charging", "description": "Patients who had an episode and were programmed with the ATP during charging feature."}], "denoms": [{"units": "Participants", "counts": [{"groupId": "OG000", "value": "343"}]}], "classes": [{"title": "Number of episodes analyzed from 343 participants", "categories": [{"measurements": [{"groupId": "OG000", "value": "1584"}]}]}, {"title": "Episodes with ATP attempted", "categories": [{"measurements": [{"groupId": "OG000", "value": "1100"}]}]}, {"title": "Episodes with Sucessful ATP", "categories": [{"measurements": [{"groupId": "OG000", "value": "650"}]}]}]}, {"type": "SECONDARY", "title": "Compare First Shock Rate Between Medtronic \"PainFREE\" Programming and \"SCD-HeFT\" Programming in Primary Prevention Study Participants.", "description": "First shock rate for VF and FVT zones was estimated using Kaplan-Meier method.\n\nOMNI \"PainFREE\" definition: programming combinations that result in ATP therapy for ventricular tachycardia (VT) at cycle lengths \\<320 ms. Programming at cycle lengths \u2265320 ms were not mandated.\n\nOMNI \"SCD-HeFT\" definition: programming combinations that result in shock therapy only for arrhythmias at cycle lengths of \\<320 ms or faster and no therapy for arrhythmias at cycle lengths \u2265320 ms.", "reportingStatus": "POSTED", "paramType": "MEAN", "dispersionType": "Standard Deviation", "unitOfMeasure": "rate", "timeFrame": "4 years post implant", "groups": [{"id": "OG000", "title": "\"PainFREE\" Programming", "description": "OMNI \"PainFREE\" definition: programming combinations that result in ATP therapy for VT at cycle lengths \\<320 ms. Programming at cycle lengths \u2265320 ms were not mandated."}, {"id": "OG001", "title": "\"SCD-HeFT\" Programming", "description": "OMNI \"SCD-HeFT\" definition: programming combinations that result in shock therapy only for arrhythmias at cycle lengths of \\<320 ms or faster and no therapy for arrhythmias at cycle lengths \u2265320 ms."}], "denoms": [{"units": "Participants", "counts": [{"groupId": "OG000", "value": "1116"}, {"groupId": "OG001", "value": "462"}]}], "classes": [{"title": "At implant", "categories": [{"measurements": [{"groupId": "OG000", "value": "0", "spread": "0"}, {"groupId": "OG001", "value": "0", "spread": "0"}]}]}, {"title": "12 months after implant", "categories": [{"measurements": [{"groupId": "OG000", "value": "0.10", "spread": "0.009"}, {"groupId": "OG001", "value": "0.15", "spread": "0.017"}]}]}, {"title": "24 months after implant", "categories": [{"measurements": [{"groupId": "OG000", "value": "0.14", "spread": "0.011"}, {"groupId": "OG001", "value": "0.21", "spread": "0.019"}]}]}, {"title": "36 months after implant", "categories": [{"measurements": [{"groupId": "OG000", "value": "0.18", "spread": "0.013"}, {"groupId": "OG001", "value": "0.24", "spread": "0.021"}]}]}, {"title": "48 months after implant", "categories": [{"measurements": [{"groupId": "OG000", "value": "0.20", "spread": "0.014"}, {"groupId": "OG001", "value": "0.27", "spread": "0.023"}]}]}]}, {"type": "SECONDARY", "title": "Frequencies of Subjects With OptiVol Trends and Disease Progression.", "description": "Estimate the correlation between OptiVol trends and disease progression.\n\nA subject's disease status was said to have progressed if:\n\n1. The NYHA classification number increases (example: I to II), or\n2. The LVEF decreases by at least 20% (relative difference) and by at least a 5% absolute difference, or\n3. The subject expires\n\nA subject who crossed OptiVol threshold since last visit was regarded as 'crossed threshold'.", "reportingStatus": "POSTED", "paramType": "NUMBER", "unitOfMeasure": "participants", "timeFrame": "4 years post implant", "groups": [{"id": "OG000", "title": "12-month Follow-up", "description": "Total subjects with disease progressed at 12 months"}, {"id": "OG001", "title": "24-month Follow-up", "description": "Total subjects with disease progressed at 24 months"}, {"id": "OG002", "title": "36-month Follow-up", "description": "Total subjects with disease progressed at 36 months"}, {"id": "OG003", "title": "48-month Follow-up", "description": "Total subjects with disease progressed at 48 months"}], "denoms": [{"units": "Participants", "counts": [{"groupId": "OG000", "value": "488"}, {"groupId": "OG001", "value": "375"}, {"groupId": "OG002", "value": "326"}, {"groupId": "OG003", "value": "257"}]}], "classes": [{"title": "Disease Progressed, N", "categories": [{"measurements": [{"groupId": "OG000", "value": "97"}, {"groupId": "OG001", "value": "95"}, {"groupId": "OG002", "value": "93"}, {"groupId": "OG003", "value": "84"}]}]}, {"title": "Crossed Threshold, N", "categories": [{"measurements": [{"groupId": "OG000", "value": "382"}, {"groupId": "OG001", "value": "327"}, {"groupId": "OG002", "value": "287"}, {"groupId": "OG003", "value": "224"}]}]}]}, {"type": "PRIMARY", "title": "ICD/CRT-D Device Baseline Programming Measurements", "description": "ICD/CRT-D baseline programming measurements, detection interval. Implanted Cardioverter/Defibrillator paces a patient's heart in a tachyarrhythmia prevention-pacing mode.\n\nDetection intervals are used to detect atrial tachyarrhythmia. Detection Intervals are programmable heart rate thresholds. R-R intervals that are less than the VT or VF detection intervals (in ms) are considered evidence of VT or VF, respectively. R-R intervals that are between the FVT and the VF detection intervals are considered evidence of FVT. Thus, these detection interval thresholds demarcate rate zones of detection. The rate zones are used to determine the type of therapy applied once detection occurs.", "reportingStatus": "POSTED", "paramType": "MEAN", "dispersionType": "Standard Deviation", "unitOfMeasure": "ms", "timeFrame": "Baseline", "groups": [{"id": "OG000", "title": "ICD/CRT-D Group", "description": "Subjects implanted with Implantable Cardioverter Defibrillator, Cardiac Resynchronization Therapy-Defibrillator (ICD/CRT-D)."}], "denoms": [{"units": "Participants", "counts": [{"groupId": "OG000", "value": "2262"}]}], "classes": [{"title": "Pace AV", "categories": [{"measurements": [{"groupId": "OG000", "value": "168", "spread": "39.2"}]}]}, {"title": "Sense AV", "categories": [{"measurements": [{"groupId": "OG000", "value": "139", "spread": "40.8"}]}]}, {"title": "FVT Detection Interval", "categories": [{"measurements": [{"groupId": "OG000", "value": "260", "spread": "24.6"}]}]}, {"title": "VF Detection Interval", "categories": [{"measurements": [{"groupId": "OG000", "value": "314", "spread": "17.1"}]}]}, {"title": "VT Detection Interval", "categories": [{"measurements": [{"groupId": "OG000", "value": "383", "spread": "25.2"}]}]}]}]}, "adverseEventsModule": {"frequencyThreshold": "0", "description": "The Medtronic OMNI Study is a post-market observational study conducted in the United States (US). Adverse events were not collected as a part of the OMNI study. Sites were instructed to report applicable events in the same manner as required for any commercially available device, through the Medical Device Reporting (MDR) process.", "eventGroups": [{"id": "EG000", "description": "The Medtronic OMNI Study is a post-market observational study conducted in the United States (US). Adverse events were not collected as a part of the OMNI study. Sites were instructed to report applicable events in the same manner as required for any commercially available device, through the Medical Device Reporting (MDR) process.", "seriousNumAffected": 0, "seriousNumAtRisk": 0, "otherNumAffected": 0, "otherNumAtRisk": 0}]}, "moreInfoModule": {"certainAgreement": {"piSponsorEmployee": false, "restrictiveAgreement": false}, "pointOfContact": {"title": "Melinda Hoey, Clinical Research Specialist", "organization": "Medtronic Cardiac Rhythm Disease Management", "email": "Melinda.hoey@medtronic.com", "phone": "763-526-2831"}}}, "derivedSection": {"miscInfoModule": {"versionHolder": "2024-06-24"}, "conditionBrowseModule": {"meshes": [{"id": "D000006333", "term": "Heart Failure"}, {"id": "D000013610", "term": "Tachycardia"}, {"id": "D000018754", "term": "Ventricular Dysfunction"}, {"id": "D000001919", "term": "Bradycardia"}, {"id": "D000014693", "term": "Ventricular Fibrillation"}, {"id": "D000017180", "term": "Tachycardia, Ventricular"}], "ancestors": [{"id": "D000006331", "term": "Heart Diseases"}, {"id": "D000002318", "term": "Cardiovascular Diseases"}, {"id": "D000001145", "term": "Arrhythmias, Cardiac"}, {"id": "D000075224", "term": "Cardiac Conduction System Disease"}, {"id": "D000010335", "term": "Pathologic Processes"}], "browseLeaves": [{"id": "M9421", "name": "Heart Failure", "asFound": "Heart Failure, Congestive", "relevance": "HIGH"}, {"id": "M16384", "name": "Tachycardia", "asFound": "Tachycardia", "relevance": "HIGH"}, {"id": "M19488", "name": "Tachycardia, Ventricular", "asFound": "Tachycardia, Ventricular", "relevance": "HIGH"}, {"id": "M5196", "name": "Bradycardia", "asFound": "Bradycardia", "relevance": "HIGH"}, {"id": "M20824", "name": "Ventricular Dysfunction", "asFound": "Ventricular Dysfunction", "relevance": "HIGH"}, {"id": "M4453", "name": "Arrhythmias, Cardiac", "relevance": "LOW"}, {"id": "M17439", "name": "Ventricular Fibrillation", "asFound": "Ventricular Fibrillation", "relevance": "HIGH"}, {"id": "M9419", "name": "Heart Diseases", "relevance": "LOW"}, {"id": "M1472", "name": "Cardiac Conduction System Disease", "relevance": "LOW"}, {"id": "T4437", "name": "Paroxysmal Ventricular Fibrillation", "asFound": "Ventricular Fibrillation", "relevance": "HIGH"}], "browseBranches": [{"abbrev": "BC14", "name": "Heart and Blood Diseases"}, {"abbrev": "All", "name": "All Conditions"}, {"abbrev": "BC23", "name": "Symptoms and General Pathology"}, {"abbrev": "Rare", "name": "Rare Diseases"}]}}, "hasResults": true}