{"protocolSection": {"identificationModule": {"nctId": "NCT00810264", "orgStudyIdInfo": {"id": "CELESTIAL"}, "organization": {"fullName": "Biotronik, Inc.", "class": "INDUSTRY"}, "briefTitle": "Post Approval Registry of Corox OTW, Endocardial, Left Ventricular Steroid Lead, Bipolar", "officialTitle": "CELESTIAL Post Approval Registry: Corox OTW, Endocardial, Left Ventricular Steroid Lead, Bipolar Post Approval Registry", "acronym": "CELESTIAL"}, "statusModule": {"statusVerifiedDate": "2019-11", "overallStatus": "COMPLETED", "expandedAccessInfo": {"hasExpandedAccess": false}, "startDateStruct": {"date": "2008-12"}, "primaryCompletionDateStruct": {"date": "2018-11-02", "type": "ACTUAL"}, "completionDateStruct": {"date": "2018-11-02", "type": "ACTUAL"}, "studyFirstSubmitDate": "2008-12-17", "studyFirstSubmitQcDate": "2008-12-17", "studyFirstPostDateStruct": {"date": "2008-12-18", "type": "ESTIMATED"}, "resultsFirstSubmitDate": "2019-10-08", "resultsFirstSubmitQcDate": "2019-11-11", "resultsFirstPostDateStruct": {"date": "2019-11-29", "type": "ACTUAL"}, "lastUpdateSubmitDate": "2019-11-11", "lastUpdatePostDateStruct": {"date": "2019-11-29", "type": "ACTUAL"}}, "sponsorCollaboratorsModule": {"responsibleParty": {"type": "SPONSOR"}, "leadSponsor": {"name": "Biotronik, Inc.", "class": "INDUSTRY"}}, "oversightModule": {"oversightHasDmc": false}, "descriptionModule": {"briefSummary": "The objective of this study is to confirm the long-term safety and reliability of the Corox OTW BP left ventricular (LV) pacing lead. As a condition of approval, the FDA required that a registry documenting the post approval clinical experience of these leads be designed and implemented.", "detailedDescription": "This study is an FDA-required, multi-center, prospective, non-randomized, data collection registry. Eligible patients must have been successfully implanted with a Corox OTW BP, Corox OTW-S BP, or Corox OTW-L BP LV lead with a BIOTRONIK CRT device and consented and enrolled between 7-180 days following implant. At least 2500 patients will be enrolled in this post-approval registry, and each patient will be followed for five years post-implant.\n\nSafety will be evaluated based on the analysis of the overall incidence of lead-related adverse events that require additional invasive intervention. In addition, each individual adverse event will be separately investigated. Lead parameters for sensing, pacing thresholds, and impedance will also be evaluated. Reporting of all adverse events will be performed twice a year in order to identify and characterize any trends in adverse events, failure modes, or failure rates."}, "conditionsModule": {"conditions": ["Congestive Heart Failure"], "keywords": ["Long-term safety and reliability of a bipolar left ventricular lead on congestive heart failure patients"]}, "designModule": {"studyType": "OBSERVATIONAL", "designInfo": {"observationalModel": "COHORT", "timePerspective": "PROSPECTIVE"}, "enrollmentInfo": {"count": 2499, "type": "ACTUAL"}}, "armsInterventionsModule": {"armGroups": [{"label": "Data Collection Group", "interventionNames": ["Device: CRT Therapy - LV Lead Registry"]}], "interventions": [{"type": "DEVICE", "name": "CRT Therapy - LV Lead Registry", "description": "Collecting long-term safety and efficacy data on a market-released left ventricular lead.", "armGroupLabels": ["Data Collection Group"]}]}, "outcomesModule": {"primaryOutcomes": [{"measure": "Percentage of Subjects Who Are Free of Complications Related to the Corox LV Lead", "description": "The overall incidence of serious adverse events that require additional invasive intervention to resolve, related to the Corox BP LV leads implanted with either BIOTRONIK CRT-P or CRT-D devices.This was evaluated as a serious adverse event free-rate (SAEFR).", "timeFrame": "5 years"}, {"measure": "Percentage of Subjects Experiencing Individual Complications", "description": "Evaluation of the individual types of serious adverse events contributing to primary outcome 1.", "timeFrame": "5 years"}], "secondaryOutcomes": [{"measure": "Mean Successful Biventricular Pacing in Subjects at the 5 Year In-office Visit.", "description": "Successful biventricular pacing in a BIOTRONIK CRT device at scheduled CELESTIAL registry follow-up visits through 5 years post-implant.", "timeFrame": "5 years"}, {"measure": "Percentage of Subjects Experiencing Serious Adverse Event Excluded From Primary Safety Endpoint", "description": "Serious adverse event rates for SAEs excluded from primary safety endpoint through 5 years post-implant.", "timeFrame": "5 years"}, {"measure": "Corox BP LV Lead Pacing Threshold Measurements", "description": "Pacing threshold measurements for the all Corox BP LV lead models at scheduled CELESTIAL registry through 5 years post-implant.", "timeFrame": "5 years"}, {"measure": "Corox BP LV Lead Sensing Measurements", "description": "Sensing measurements for the all Corox BP LV lead models at scheduled CELESTIAL registry through 5 years post-implant.", "timeFrame": "5 years"}, {"measure": "Corox BP LV Lead Impedance Measurements", "description": "Impedance measurements for the all Corox BP LV lead models at scheduled CELESTIAL registry through 5 years post-implant.", "timeFrame": "5 years"}, {"measure": "Pacing Threshold Measurements Per Corox BP LV Lead Model", "description": "Pacing threshold measurements for the Corox OTW BP LV lead, the Corox OTW-S BP LV lead, and the Corox OTW-L BP LV lead.", "timeFrame": "5 years"}, {"measure": "Sensing Measurements Per Corox BP LV Lead Model", "description": "Sensing measurements for the Corox OTW BP LV lead, the Corox OTW-S BP LV lead, and the Corox OTW-L BP LV lead.", "timeFrame": "5 years"}, {"measure": "Impedance Measurements Per Corox BP LV Lead Model", "description": "Impedance measurements for the Corox OTW BP LV lead, the Corox OTW-S BP LV lead, and the Corox OTW-L BP LV lead.", "timeFrame": "5 years"}, {"measure": "Overall Incidence of Primary Endpoint 1 Serious Adverse Events for Each Corox BP Lead Model", "description": "Overall incidence of serious adverse events that meet the primary endpoint 1 criteria will be evaluated separately for each Corox BP lead model.", "timeFrame": "5 years"}, {"measure": "Incidence of Individual Types of Primary Endpoint 2 Adverse Events Will be Evaluated Separately for Each Corox BP Lead Model", "description": "Incidence of individual types of serious adverse events contributing to primary endpoint 2 will be evaluated separately for each Corox BP lead model.", "timeFrame": "5 years"}]}, "eligibilityModule": {"eligibilityCriteria": "Inclusion Criteria:\n\n* Successfully implanted BIOTRONIK CRT system, including a Corox BP LV lead, from 7-180 days prior to enrollment\n* Able to understand the nature of the registry and give informed consent\n* Available for follow-up visits on a regular basis at the investigational site\n* Age greater than or equal to 18 years\n\nExclusion Criteria:\n\n* Enrolled in any IDE clinical study\n* Planned cardiac surgical procedures or interventional measures within the next 6 months\n* Expected to receive a heart transplant within 1 year\n* Life expectancy less than 1 year\n* Presence of another life-threatening, underlying illness separate from their cardiac disorder\n* Pregnancy\n* Inability to provide date of implant, devices implanted, age, gender, and whether the patient experienced any protocol-defined adverse events since implant", "healthyVolunteers": false, "sex": "ALL", "minimumAge": "18 Years", "stdAges": ["ADULT", "OLDER_ADULT"], "studyPopulation": "Patients will be obtained from the investigators' general patient population according to the inclusion and exclusion criteria described below.", "samplingMethod": "NON_PROBABILITY_SAMPLE"}, "contactsLocationsModule": {"locations": [{"city": "Birmingham", "state": "Alabama", "country": "United States", "geoPoint": {"lat": 33.52066, "lon": -86.80249}}, {"city": "Glendale", "state": "Arizona", "country": "United States", "geoPoint": {"lat": 33.53865, "lon": -112.18599}}, {"city": "Mesa", "state": "Arizona", "country": "United States", "geoPoint": {"lat": 33.42227, "lon": -111.82264}}, {"city": "Phoenix", "state": "Arizona", "country": "United States", "geoPoint": {"lat": 33.44838, "lon": -112.07404}}, {"city": "Scottsdale", "state": "Arizona", "country": "United States", "geoPoint": {"lat": 33.50921, "lon": -111.89903}}, {"city": "Tucson", "state": "Arizona", "country": "United States", "geoPoint": {"lat": 32.22174, "lon": -110.92648}}, {"city": "Anaheim", "state": "California", "country": "United States", "geoPoint": {"lat": 33.83529, "lon": -117.9145}}, {"city": "Fairfield", "state": "California", "country": "United States", "geoPoint": {"lat": 38.24936, "lon": -122.03997}}, {"city": "Fountain Valley", "state": "California", "country": "United States", "geoPoint": {"lat": 33.70918, "lon": -117.95367}}, {"city": "Glendale", "state": "California", "country": "United States", "geoPoint": {"lat": 34.14251, "lon": -118.25508}}, {"city": "Hawthorne", "state": "California", "country": "United States", "geoPoint": {"lat": 33.9164, "lon": -118.35257}}, {"city": "Inglewood", "state": "California", "country": "United States", "geoPoint": {"lat": 33.96168, "lon": -118.35313}}, {"city": "Los Angeles", "state": "California", "country": "United States", "geoPoint": {"lat": 34.05223, "lon": -118.24368}}, {"city": "National City", "state": "California", "country": "United States", "geoPoint": {"lat": 32.67811, "lon": -117.0992}}, {"city": "Northridge", "state": "California", "country": "United States", "geoPoint": {"lat": 34.22834, "lon": -118.53675}}, {"city": "Orange", "state": "California", "country": "United States", "geoPoint": {"lat": 33.78779, "lon": -117.85311}}, {"city": "Rancho Mirage", "state": "California", "country": "United States", "geoPoint": {"lat": 33.73974, "lon": -116.41279}}, {"city": "Santa Barbara", "state": "California", "country": "United States", "geoPoint": {"lat": 34.42083, "lon": -119.69819}}, {"city": "Torrance", "state": "California", "country": "United States", "geoPoint": {"lat": 33.83585, "lon": -118.34063}}, {"city": "Ventura", "state": "California", "country": "United States", "geoPoint": {"lat": 34.27834, "lon": -119.29317}}, {"city": "Watsonville", "state": "California", "country": "United States", "geoPoint": {"lat": 36.91023, "lon": -121.75689}}, {"city": "Aurora", "state": "Colorado", "country": "United States", "geoPoint": {"lat": 39.72943, "lon": -104.83192}}, {"city": "Boulder", "state": "Colorado", "country": "United States", "geoPoint": {"lat": 40.01499, "lon": -105.27055}}, {"city": "Danbury", "state": "Connecticut", "country": "United States", "geoPoint": {"lat": 41.39482, "lon": -73.45401}}, {"city": "Brooksville", "state": "Florida", "country": "United States", "geoPoint": {"lat": 28.55554, "lon": -82.38991}}, {"city": "Davenport", "state": "Florida", "country": "United States", "geoPoint": {"lat": 28.1614, "lon": -81.60174}}, {"city": "Melbourne", "state": "Florida", "country": "United States", "geoPoint": {"lat": 28.08363, "lon": -80.60811}}, {"city": "Naples", "state": "Florida", "country": "United States", "geoPoint": {"lat": 26.14234, "lon": -81.79596}}, {"city": "New Smyrna Beach", "state": "Florida", "country": "United States", "geoPoint": {"lat": 29.02582, "lon": -80.927}}, {"city": "Saint Petersburg", "state": "Florida", "country": "United States", "geoPoint": {"lat": 27.77086, "lon": -82.67927}}, {"city": "Tampa", "state": "Florida", "country": "United States", "geoPoint": {"lat": 27.94752, "lon": -82.45843}}, {"city": "Macon", "state": "Georgia", "country": "United States", "geoPoint": {"lat": 32.84069, "lon": -83.6324}}, {"city": "Urbana", "state": "Illinois", "country": "United States", "geoPoint": {"lat": 40.11059, "lon": -88.20727}}, {"city": "Fort Wayne", "state": "Indiana", "country": "United States", "geoPoint": {"lat": 41.1306, "lon": -85.12886}}, {"city": "Valparaiso", "state": "Indiana", "country": "United States", "geoPoint": {"lat": 41.47309, "lon": -87.06114}}, {"city": "Owensboro", "state": "Kentucky", "country": "United States", "geoPoint": {"lat": 37.77422, "lon": -87.11333}}, {"city": "Covington", "state": "Louisiana", "country": "United States", "geoPoint": {"lat": 30.47549, "lon": -90.10042}}, {"city": "Hammond", "state": "Louisiana", "country": "United States", "geoPoint": {"lat": 30.50463, "lon": -90.46293}}, {"city": "Lafayette", "state": "Louisiana", "country": "United States", "geoPoint": {"lat": 30.22409, "lon": -92.01984}}, {"city": "Bangor", "state": "Maine", "country": "United States", "geoPoint": {"lat": 44.80118, "lon": -68.77781}}, {"city": "Baltimore", "state": "Maryland", "country": "United States", "geoPoint": {"lat": 39.29038, "lon": -76.61219}}, {"city": "Cumberland", "state": "Maryland", "country": "United States", "geoPoint": {"lat": 39.65287, "lon": -78.76252}}, {"city": "Lanham", "state": "Maryland", "country": "United States", "geoPoint": {"lat": 38.96875, "lon": -76.8634}}, {"city": "Rockville", "state": "Maryland", "country": "United States", "geoPoint": {"lat": 39.084, "lon": -77.15276}}, {"city": "Burlington", "state": "Massachusetts", "country": "United States", "geoPoint": {"lat": 42.50482, "lon": -71.19561}}, {"city": "Worcester", "state": "Massachusetts", "country": "United States", "geoPoint": {"lat": 42.26259, "lon": -71.80229}}, {"city": "Ann Arbor", "state": "Michigan", "country": "United States", "geoPoint": {"lat": 42.27756, "lon": -83.74088}}, {"city": "Lansing", "state": "Michigan", "country": "United States", "geoPoint": {"lat": 42.73253, "lon": -84.55553}}, {"city": "Lapeer", "state": "Michigan", "country": "United States", "geoPoint": {"lat": 43.05142, "lon": -83.31883}}, {"city": "Saginaw", "state": "Michigan", "country": "United States", "geoPoint": {"lat": 43.41947, "lon": -83.95081}}, {"city": "Wyoming", "state": "Michigan", "country": "United States", "geoPoint": {"lat": 42.91336, "lon": -85.70531}}, {"city": "Ypsilanti", "state": "Michigan", "country": "United States", "geoPoint": {"lat": 42.24115, "lon": -83.61299}}, {"city": "Tupelo", "state": "Mississippi", "country": "United States", "geoPoint": {"lat": 34.25807, "lon": -88.70464}}, {"city": "Crystal City", "state": "Missouri", "country": "United States", "geoPoint": {"lat": 38.22117, "lon": -90.37901}}, {"city": "Saint Louis", "state": "Missouri", "country": "United States", "geoPoint": {"lat": 38.62727, "lon": -90.19789}}, {"city": "Las Vegas", "state": "Nevada", "country": "United States", "geoPoint": {"lat": 36.17497, "lon": -115.13722}}, {"city": "Glen Ridge", "state": "New Jersey", "country": "United States", "geoPoint": {"lat": 40.80538, "lon": -74.20376}}, {"city": "New York", "state": "New York", "country": "United States", "geoPoint": {"lat": 40.71427, "lon": -74.00597}}, {"city": "Rochester", "state": "New York", "country": "United States", "geoPoint": {"lat": 43.15478, "lon": -77.61556}}, {"city": "Gastonia", "state": "North Carolina", "country": "United States", "geoPoint": {"lat": 35.26208, "lon": -81.1873}}, {"city": "Winston-Salem", "state": "North Carolina", "country": "United States", "geoPoint": {"lat": 36.09986, "lon": -80.24422}}, {"city": "Columbus", "state": "Ohio", "country": "United States", "geoPoint": {"lat": 39.96118, "lon": -82.99879}}, {"city": "Middletown", "state": "Ohio", "country": "United States", "geoPoint": {"lat": 39.51506, "lon": -84.39828}}, {"city": "Steubenville", "state": "Ohio", "country": "United States", "geoPoint": {"lat": 40.36979, "lon": -80.63396}}, {"city": "Toledo", "state": "Ohio", "country": "United States", "geoPoint": {"lat": 41.66394, "lon": -83.55521}}, {"city": "Oklahoma City", "state": "Oklahoma", "country": "United States", "geoPoint": {"lat": 35.46756, "lon": -97.51643}}, {"city": "Salem", "state": "Oregon", "country": "United States", "geoPoint": {"lat": 44.9429, "lon": -123.0351}}, {"city": "Chinchilla", "state": "Pennsylvania", "country": "United States", "geoPoint": {"lat": 41.47508, "lon": -75.67713}}, {"city": "Lancaster", "state": "Pennsylvania", "country": "United States", "geoPoint": {"lat": 40.03788, "lon": -76.30551}}, {"city": "Philadelphia", "state": "Pennsylvania", "country": "United States", "geoPoint": {"lat": 39.95233, "lon": -75.16379}}, {"city": "Pottstown", "state": "Pennsylvania", "country": "United States", "geoPoint": {"lat": 40.24537, "lon": -75.64963}}, {"city": "Yardley", "state": "Pennsylvania", "country": "United States", "geoPoint": {"lat": 40.24566, "lon": -74.846}}, {"city": "Columbia", "state": "South Carolina", "country": "United States", "geoPoint": {"lat": 34.00071, "lon": -81.03481}}, {"city": "Greenville", "state": "South Carolina", "country": "United States", "geoPoint": {"lat": 34.85262, "lon": -82.39401}}, {"city": "Spartanburg", "state": "South Carolina", "country": "United States", "geoPoint": {"lat": 34.94957, "lon": -81.93205}}, {"city": "Chattanooga", "state": "Tennessee", "country": "United States", "geoPoint": {"lat": 35.04563, "lon": -85.30968}}, {"city": "Amarillo", "state": "Texas", "country": "United States", "geoPoint": {"lat": 35.222, "lon": -101.8313}}, {"city": "Brownsville", "state": "Texas", "country": "United States", "geoPoint": {"lat": 25.90175, "lon": -97.49748}}, {"city": "Corpus Christi", "state": "Texas", "country": "United States", "geoPoint": {"lat": 27.80058, "lon": -97.39638}}, {"city": "Dallas", "state": "Texas", "country": "United States", "geoPoint": {"lat": 32.78306, "lon": -96.80667}}, {"city": "Kingwood", "state": "Texas", "country": "United States", "geoPoint": {"lat": 30.03355, "lon": -95.26104}}, {"city": "McKinney", "state": "Texas", "country": "United States", "geoPoint": {"lat": 33.19762, "lon": -96.61527}}, {"city": "Nacogdoches", "state": "Texas", "country": "United States", "geoPoint": {"lat": 31.60351, "lon": -94.65549}}, {"city": "Fredericksburg", "state": "Virginia", "country": "United States", "geoPoint": {"lat": 38.30318, "lon": -77.46054}}, {"city": "Spokane", "state": "Washington", "country": "United States", "geoPoint": {"lat": 47.65966, "lon": -117.42908}}, {"city": "Yakima", "state": "Washington", "country": "United States", "geoPoint": {"lat": 46.60207, "lon": -120.5059}}]}, "referencesModule": {"references": [{"pmid": "26990515", "type": "DERIVED", "citation": "Good ED, Cakulev I, Orlov MV, Hirsh D, Simeles J, Mohr K, Moll P, Bloom H. Long-Term Evaluation of Biotronik Linox and Linox(smart) Implantable Cardioverter Defibrillator Leads. J Cardiovasc Electrophysiol. 2016 Jun;27(6):735-42. doi: 10.1111/jce.12971. Epub 2016 May 3."}]}}, "resultsSection": {"participantFlowModule": {"groups": [{"id": "FG000", "title": "BIOTRONIK Corox BP LV Lead", "description": "Subjects consented and implanted with a BIOTRONIK Corox BP LV lead."}], "periods": [{"title": "Overall Study", "milestones": [{"type": "STARTED", "achievements": [{"groupId": "FG000", "numSubjects": "2499"}]}, {"type": "COMPLETED", "achievements": [{"groupId": "FG000", "numSubjects": "946"}]}, {"type": "NOT COMPLETED", "achievements": [{"groupId": "FG000", "numSubjects": "1553"}]}], "dropWithdraws": [{"type": "Lost to Follow-up", "reasons": [{"groupId": "FG000", "numSubjects": "191"}]}, {"type": "Withdrawal by subject or physician", "reasons": [{"groupId": "FG000", "numSubjects": "721"}]}, {"type": "Death", "reasons": [{"groupId": "FG000", "numSubjects": "641"}]}]}]}, "baselineCharacteristicsModule": {"populationDescription": "Baseline characteristics are provided when available, subjects without available baseline characteristics are not included in the number of participants analyzed in this section.", "groups": [{"id": "BG000", "title": "BIOTRONIK Corox BP LV Lead", "description": "Subjects consented and implanted with a BIOTRONIK Corox BP LV lead."}], "denoms": [{"units": "Participants", "counts": [{"groupId": "BG000", "value": "2498"}]}], "measures": [{"title": "Age, Continuous", "paramType": "MEAN", "dispersionType": "STANDARD_DEVIATION", "unitOfMeasure": "years", "classes": [{"categories": [{"measurements": [{"groupId": "BG000", "value": "70.4", "spread": "11.4"}]}]}]}, {"title": "Sex: Female, Male", "paramType": "COUNT_OF_PARTICIPANTS", "unitOfMeasure": "Participants", "classes": [{"categories": [{"title": "Female", "measurements": [{"groupId": "BG000", "value": "724"}]}, {"title": "Male", "measurements": [{"groupId": "BG000", "value": "1774"}]}]}]}, {"title": "Race/Ethnicity, Customized", "paramType": "COUNT_OF_PARTICIPANTS", "unitOfMeasure": "Participants", "classes": [{"categories": [{"title": "White", "measurements": [{"groupId": "BG000", "value": "1805"}]}, {"title": "Hispanic or Latino", "measurements": [{"groupId": "BG000", "value": "244"}]}, {"title": "Black or African American", "measurements": [{"groupId": "BG000", "value": "220"}]}, {"title": "Asian", "measurements": [{"groupId": "BG000", "value": "36"}]}, {"title": "Native Hawaiian or Other Pacific Islander", "measurements": [{"groupId": "BG000", "value": "7"}]}, {"title": "American Indian or Alaska Native", "measurements": [{"groupId": "BG000", "value": "4"}]}, {"title": "Unknown", "measurements": [{"groupId": "BG000", "value": "65"}]}, {"title": "Not Reported", "measurements": [{"groupId": "BG000", "value": "117"}]}]}]}, {"title": "Height", "paramType": "MEAN", "dispersionType": "STANDARD_DEVIATION", "unitOfMeasure": "inches", "classes": [{"categories": [{"measurements": [{"groupId": "BG000", "value": "67.7", "spread": "4.2"}]}]}]}, {"title": "Weight", "paramType": "MEAN", "dispersionType": "STANDARD_DEVIATION", "unitOfMeasure": "pounds", "classes": [{"categories": [{"measurements": [{"groupId": "BG000", "value": "194.4", "spread": "48.1"}]}]}]}]}, "outcomeMeasuresModule": {"outcomeMeasures": [{"type": "PRIMARY", "title": "Percentage of Subjects Who Are Free of Complications Related to the Corox LV Lead", "description": "The overall incidence of serious adverse events that require additional invasive intervention to resolve, related to the Corox BP LV leads implanted with either BIOTRONIK CRT-P or CRT-D devices.This was evaluated as a serious adverse event free-rate (SAEFR).", "populationDescription": "The evaluable subject population is the sum of the total unique subjects who completed the 5-year follow-up and/or who experienced a primary endpoint adverse event.", "reportingStatus": "POSTED", "paramType": "NUMBER", "dispersionType": "95% Confidence Interval", "unitOfMeasure": "percentage of subjects", "timeFrame": "5 years", "groups": [{"id": "OG000", "title": "BIOTRONIK Corox BP LV Lead", "description": "Subjects consented and implanted with a BIOTRONIK Corox BP LV lead."}], "denoms": [{"units": "Participants", "counts": [{"groupId": "OG000", "value": "946"}]}], "classes": [{"categories": [{"measurements": [{"groupId": "OG000", "value": "94.19", "lowerLimit": "92.50", "upperLimit": "95.59"}]}]}], "analyses": [{"groupIds": ["OG000"], "nonInferiorityType": "NON_INFERIORITY", "nonInferiorityComment": "The primary safety endpoint 1 hypothesis was evaluated by performing an exact, non-inferiority test comparing a binomial proportion (overall SAEFR at 5 years) to 92.5%, with a non-inferiority delta of 5%.", "pValue": "<0.0001", "statisticalMethod": "Binomial Proportion"}]}, {"type": "PRIMARY", "title": "Percentage of Subjects Experiencing Individual Complications", "description": "Evaluation of the individual types of serious adverse events contributing to primary outcome 1.", "populationDescription": "The evaluable subject population is the sum of the total unique subjects who completed the 5-year follow-up and/or who experienced a primary endpoint adverse event.", "reportingStatus": "POSTED", "paramType": "NUMBER", "dispersionType": "95% Confidence Interval", "unitOfMeasure": "percentage of subjects", "timeFrame": "5 years", "groups": [{"id": "OG000", "title": "BIOTRONIK Corox BP LV Lead", "description": "Subjects consented and implanted with a BIOTRONIK Corox BP LV lead."}], "denoms": [{"units": "Participants", "counts": [{"groupId": "OG000", "value": "946"}]}], "classes": [{"title": "Lead dislodgement (>180 days post-implant)", "categories": [{"measurements": [{"groupId": "OG000", "value": "3.28", "lowerLimit": "2.24", "upperLimit": "4.62"}]}]}, {"title": "Abnormal pacing impedance", "categories": [{"measurements": [{"groupId": "OG000", "value": "1.90", "lowerLimit": "1.13", "upperLimit": "2.99"}]}]}, {"title": "Conductor fracture", "categories": [{"measurements": [{"groupId": "OG000", "value": "0.53", "lowerLimit": "0.17", "upperLimit": "1.23"}]}]}, {"title": "Malposition, excess slack", "categories": [{"measurements": [{"groupId": "OG000", "value": "0.11", "lowerLimit": "0.00", "upperLimit": "0.59"}]}]}]}, {"type": "SECONDARY", "title": "Mean Successful Biventricular Pacing in Subjects at the 5 Year In-office Visit.", "description": "Successful biventricular pacing in a BIOTRONIK CRT device at scheduled CELESTIAL registry follow-up visits through 5 years post-implant.", "populationDescription": "The subjects analyzed in this outcome must have been consented, implanted with a BIOTRONIK Corox BP LV lead, and completed an in-office 5 year visit. Subjects who did not complete an in-office 5 year visit are excluded from this analysis population.", "reportingStatus": "POSTED", "paramType": "MEAN", "dispersionType": "Standard Deviation", "unitOfMeasure": "percentage of CRT pacing", "timeFrame": "5 years", "groups": [{"id": "OG000", "title": "BIOTRONIK Corox BP LV Lead", "description": "Subjects consented and implanted with a BIOTRONIK Corox BP LV lead completing an in-office 5 year visit."}], "denoms": [{"units": "Participants", "counts": [{"groupId": "OG000", "value": "611"}]}], "classes": [{"categories": [{"measurements": [{"groupId": "OG000", "value": "97.4", "spread": "8.4"}]}]}]}, {"type": "SECONDARY", "title": "Percentage of Subjects Experiencing Serious Adverse Event Excluded From Primary Safety Endpoint", "description": "Serious adverse event rates for SAEs excluded from primary safety endpoint through 5 years post-implant.", "reportingStatus": "POSTED", "paramType": "NUMBER", "unitOfMeasure": "Percent of subjects", "timeFrame": "5 years", "groups": [{"id": "OG000", "title": "BIOTRONIK Corox BP LV Lead", "description": "Subjects consented and implanted with a BIOTRONIK Corox BP LV lead."}], "denoms": [{"units": "Participants", "counts": [{"groupId": "OG000", "value": "2499"}]}], "classes": [{"title": "LV lead cardiac perforation", "categories": [{"measurements": [{"groupId": "OG000", "value": "0.04"}]}]}, {"title": "LV lead high pacing threshold, no lead capture", "categories": [{"measurements": [{"groupId": "OG000", "value": "0.96"}]}]}, {"title": "LV lead diaphragmatic / pectoral stimulation", "categories": [{"measurements": [{"groupId": "OG000", "value": "1.00"}]}]}, {"title": "LV lead dislodgement (<180 days post-implant)", "categories": [{"measurements": [{"groupId": "OG000", "value": "1.64"}]}]}, {"title": "RV pacing lead related adverse event", "categories": [{"measurements": [{"groupId": "OG000", "value": "0.16"}]}]}, {"title": "Device related adverse event", "categories": [{"measurements": [{"groupId": "OG000", "value": "0.28"}]}]}, {"title": "Other adverse event", "categories": [{"measurements": [{"groupId": "OG000", "value": "1.36"}]}]}, {"title": "RA lead related adverse event", "categories": [{"measurements": [{"groupId": "OG000", "value": "2.08"}]}]}, {"title": "Implant procedure related adverse event", "categories": [{"measurements": [{"groupId": "OG000", "value": "3.20"}]}]}, {"title": "ICD lead related adverse event", "categories": [{"measurements": [{"groupId": "OG000", "value": "3.96"}]}]}, {"title": "Other high pacing threshold", "categories": [{"measurements": [{"groupId": "OG000", "value": "0.04"}]}]}]}, {"type": "SECONDARY", "title": "Corox BP LV Lead Pacing Threshold Measurements", "description": "Pacing threshold measurements for the all Corox BP LV lead models at scheduled CELESTIAL registry through 5 years post-implant.", "reportingStatus": "POSTED", "paramType": "MEAN", "dispersionType": "Standard Deviation", "unitOfMeasure": "V", "timeFrame": "5 years", "groups": [{"id": "OG000", "title": "BIOTRONIK Corox BP LV Lead", "description": "Subjects consented and implanted with a BIOTRONIK Corox BP LV lead."}], "denoms": [{"units": "Participants", "counts": [{"groupId": "OG000", "value": "2499"}]}], "classes": [{"categories": [{"measurements": [{"groupId": "OG000", "value": "1.41", "spread": "1.09"}]}]}]}, {"type": "SECONDARY", "title": "Corox BP LV Lead Sensing Measurements", "description": "Sensing measurements for the all Corox BP LV lead models at scheduled CELESTIAL registry through 5 years post-implant.", "reportingStatus": "POSTED", "paramType": "MEAN", "dispersionType": "Standard Deviation", "unitOfMeasure": "mV", "timeFrame": "5 years", "groups": [{"id": "OG000", "title": "BIOTRONIK Corox BP LV Lead", "description": "Subjects consented and implanted with a BIOTRONIK Corox BP LV lead."}], "denoms": [{"units": "Participants", "counts": [{"groupId": "OG000", "value": "2499"}]}], "classes": [{"categories": [{"measurements": [{"groupId": "OG000", "value": "13.94", "spread": "7.51"}]}]}]}, {"type": "SECONDARY", "title": "Corox BP LV Lead Impedance Measurements", "description": "Impedance measurements for the all Corox BP LV lead models at scheduled CELESTIAL registry through 5 years post-implant.", "reportingStatus": "POSTED", "paramType": "MEAN", "dispersionType": "Standard Deviation", "unitOfMeasure": "ohms", "timeFrame": "5 years", "groups": [{"id": "OG000", "title": "BIOTRONIK Corox BP LV Lead", "description": "Subjects consented and implanted with a BIOTRONIK Corox BP LV lead."}], "denoms": [{"units": "Participants", "counts": [{"groupId": "OG000", "value": "2499"}]}], "classes": [{"categories": [{"measurements": [{"groupId": "OG000", "value": "726.5", "spread": "250.9"}]}]}]}, {"type": "SECONDARY", "title": "Pacing Threshold Measurements Per Corox BP LV Lead Model", "description": "Pacing threshold measurements for the Corox OTW BP LV lead, the Corox OTW-S BP LV lead, and the Corox OTW-L BP LV lead.", "reportingStatus": "POSTED", "paramType": "MEAN", "dispersionType": "Standard Deviation", "unitOfMeasure": "V", "timeFrame": "5 years", "groups": [{"id": "OG000", "title": "Corox OTW BP", "description": "Subjects consented and originally implanted with a Corox OTW BP lead."}, {"id": "OG001", "title": "Corox OTW-S BP", "description": "Subjects consented and originally implanted with a Corox OTW-S BP lead."}, {"id": "OG002", "title": "Corox OTW-L BP", "description": "Subjects consented and originally implanted with a Corox OTW-L BP lead."}], "denoms": [{"units": "Participants", "counts": [{"groupId": "OG000", "value": "686"}, {"groupId": "OG001", "value": "1129"}, {"groupId": "OG002", "value": "684"}]}], "classes": [{"categories": [{"measurements": [{"groupId": "OG000", "value": "1.30", "spread": "1.01"}, {"groupId": "OG001", "value": "1.40", "spread": "1.09"}, {"groupId": "OG002", "value": "1.53", "spread": "1.17"}]}]}]}, {"type": "SECONDARY", "title": "Sensing Measurements Per Corox BP LV Lead Model", "description": "Sensing measurements for the Corox OTW BP LV lead, the Corox OTW-S BP LV lead, and the Corox OTW-L BP LV lead.", "reportingStatus": "POSTED", "paramType": "MEAN", "dispersionType": "Standard Deviation", "unitOfMeasure": "mV", "timeFrame": "5 years", "groups": [{"id": "OG000", "title": "Corox OTW BP", "description": "Subjects consented and originally implanted with a Corox OTW BP lead."}, {"id": "OG001", "title": "Corox OTW-S BP", "description": "Subjects consented and originally implanted with a Corox OTW-S BP lead."}, {"id": "OG002", "title": "Corox OTW-L BP", "description": "Subjects consented and originally implanted with a Corox OTW-L BP lead."}], "denoms": [{"units": "Participants", "counts": [{"groupId": "OG000", "value": "686"}, {"groupId": "OG001", "value": "1129"}, {"groupId": "OG002", "value": "684"}]}], "classes": [{"categories": [{"measurements": [{"groupId": "OG000", "value": "14.82", "spread": "7.74"}, {"groupId": "OG001", "value": "13.94", "spread": "7.59"}, {"groupId": "OG002", "value": "13.04", "spread": "7.02"}]}]}]}, {"type": "SECONDARY", "title": "Impedance Measurements Per Corox BP LV Lead Model", "description": "Impedance measurements for the Corox OTW BP LV lead, the Corox OTW-S BP LV lead, and the Corox OTW-L BP LV lead.", "reportingStatus": "POSTED", "paramType": "MEAN", "dispersionType": "Standard Deviation", "unitOfMeasure": "ohms", "timeFrame": "5 years", "groups": [{"id": "OG000", "title": "Corox OTW BP", "description": "Subjects consented and originally implanted with a Corox OTW BP lead."}, {"id": "OG001", "title": "Corox OTW-S BP", "description": "Subjects consented and originally implanted with a Corox OTW-S BP lead."}, {"id": "OG002", "title": "Corox OTW-L BP", "description": "Subjects consented and originally implanted with a Corox OTW-L BP lead."}], "denoms": [{"units": "Participants", "counts": [{"groupId": "OG000", "value": "686"}, {"groupId": "OG001", "value": "1129"}, {"groupId": "OG002", "value": "684"}]}], "classes": [{"categories": [{"measurements": [{"groupId": "OG000", "value": "730.3", "spread": "264.9"}, {"groupId": "OG001", "value": "734.4", "spread": "251.7"}, {"groupId": "OG002", "value": "709.2", "spread": "233.1"}]}]}]}, {"type": "SECONDARY", "title": "Overall Incidence of Primary Endpoint 1 Serious Adverse Events for Each Corox BP Lead Model", "description": "Overall incidence of serious adverse events that meet the primary endpoint 1 criteria will be evaluated separately for each Corox BP lead model.", "populationDescription": "The evaluable subject population for each group is the sum of the total unique subjects who completed the 5-year follow-up and/or who experienced a primary endpoint adverse event in the group.", "reportingStatus": "POSTED", "paramType": "NUMBER", "dispersionType": "95% Confidence Interval", "unitOfMeasure": "percentage of subjects", "timeFrame": "5 years", "groups": [{"id": "OG000", "title": "Corox OTW BP", "description": "Subjects consented and originally implanted with a Corox OTW BP lead."}, {"id": "OG001", "title": "Corox OTW-S BP", "description": "Subjects consented and originally implanted with a Corox OTW-S BP lead."}, {"id": "OG002", "title": "Corox OTW-L BP", "description": "Subjects consented and originally implanted with a Corox OTW-L BP lead."}], "denoms": [{"units": "Participants", "counts": [{"groupId": "OG000", "value": "279"}, {"groupId": "OG001", "value": "401"}, {"groupId": "OG002", "value": "266"}]}], "classes": [{"categories": [{"measurements": [{"groupId": "OG000", "value": "7.17", "lowerLimit": "4.43", "upperLimit": "10.85"}, {"groupId": "OG001", "value": "6.48", "lowerLimit": "4.28", "upperLimit": "9.36"}, {"groupId": "OG002", "value": "3.38", "lowerLimit": "1.56", "upperLimit": "6.33"}]}]}]}, {"type": "SECONDARY", "title": "Incidence of Individual Types of Primary Endpoint 2 Adverse Events Will be Evaluated Separately for Each Corox BP Lead Model", "description": "Incidence of individual types of serious adverse events contributing to primary endpoint 2 will be evaluated separately for each Corox BP lead model.", "populationDescription": "The evaluable subject population for each group is the sum of the total unique subjects who completed the 5-year follow-up and/or who experienced a primary endpoint adverse event in the group.", "reportingStatus": "POSTED", "paramType": "NUMBER", "dispersionType": "95% Confidence Interval", "unitOfMeasure": "percentage of subjects", "timeFrame": "5 years", "groups": [{"id": "OG000", "title": "Corox OTW BP", "description": "Subjects consented and originally implanted with a Corox OTW BP lead."}, {"id": "OG001", "title": "Corox OTW-S BP", "description": "Subjects consented and originally implanted with a Corox OTW-S BP lead."}, {"id": "OG002", "title": "Corox OTW-L BP", "description": "Subjects consented and originally implanted with a Corox OTW-L BP lead."}], "denoms": [{"units": "Participants", "counts": [{"groupId": "OG000", "value": "279"}, {"groupId": "OG001", "value": "401"}, {"groupId": "OG002", "value": "266"}]}], "classes": [{"title": "Lead dislodgement (>180 days post-implant)", "categories": [{"measurements": [{"groupId": "OG000", "value": "3.58", "lowerLimit": "1.73", "upperLimit": "6.49"}, {"groupId": "OG001", "value": "3.49", "lowerLimit": "1.92", "upperLimit": "5.79"}, {"groupId": "OG002", "value": "2.63", "lowerLimit": "1.06", "upperLimit": "5.35"}]}]}, {"title": "Abnormal pacing impedance", "categories": [{"measurements": [{"groupId": "OG000", "value": "1.79", "lowerLimit": "0.58", "upperLimit": "4.13"}, {"groupId": "OG001", "value": "2.99", "lowerLimit": "1.56", "upperLimit": "5.17"}, {"groupId": "OG002", "value": "0.38", "lowerLimit": "0.01", "upperLimit": "2.08"}]}]}, {"title": "Conductor fracture", "categories": [{"measurements": [{"groupId": "OG000", "value": "1.79", "lowerLimit": "0.58", "upperLimit": "4.13"}, {"groupId": "OG001", "value": "0", "lowerLimit": "NA", "upperLimit": "NA", "comment": "Unable to obtain confidence interval for 0 subjects"}, {"groupId": "OG002", "value": "0", "lowerLimit": "NA", "upperLimit": "NA", "comment": "Unable to obtain confidence interval for 0 subjects"}]}]}, {"title": "Malposition, excess slack", "categories": [{"measurements": [{"groupId": "OG000", "value": "0", "lowerLimit": "NA", "upperLimit": "NA", "comment": "Unable to obtain confidence interval for 0 subjects"}, {"groupId": "OG001", "value": "0", "lowerLimit": "NA", "upperLimit": "NA", "comment": "Unable to obtain confidence interval for 0 subjects"}, {"groupId": "OG002", "value": "0.38", "lowerLimit": "0.01", "upperLimit": "2.08"}]}]}]}]}, "adverseEventsModule": {"frequencyThreshold": "0", "timeFrame": "Implant to study exit (up to 5 years post-implant)", "eventGroups": [{"id": "EG000", "title": "BIOTRONIK Corox BP LV Lead", "description": "Subjects consented and implanted with a BIOTRONIK Corox BP LV lead.", "deathsNumAffected": 641, "deathsNumAtRisk": 2499, "seriousNumAffected": 281, "seriousNumAtRisk": 2499, "otherNumAffected": 83, "otherNumAtRisk": 2499}], "seriousEvents": [{"term": "CHF", "organSystem": "Cardiac disorders", "assessmentType": "SYSTEMATIC_ASSESSMENT", "stats": [{"groupId": "EG000", "numEvents": 1, "numAffected": 1, "numAtRisk": 2499}]}, {"term": "Device migration", "organSystem": "Cardiac disorders", "assessmentType": "SYSTEMATIC_ASSESSMENT", "stats": [{"groupId": "EG000", "numEvents": 2, "numAffected": 2, "numAtRisk": 2499}]}, {"term": "Hypotensive arrest / hemodynamic collapse", "organSystem": "Cardiac disorders", "assessmentType": "SYSTEMATIC_ASSESSMENT", "stats": [{"groupId": "EG000", "numEvents": 1, "numAffected": 1, "numAtRisk": 2499}]}, {"term": "ICD lead T-wave oversensing", "organSystem": "Cardiac disorders", "assessmentType": "SYSTEMATIC_ASSESSMENT", "stats": [{"groupId": "EG000", "numEvents": 1, "numAffected": 1, "numAtRisk": 2499}]}, {"term": "ICD lead cardiac perforation with or without tamponade", "organSystem": "Cardiac disorders", "assessmentType": "SYSTEMATIC_ASSESSMENT", "stats": [{"groupId": "EG000", "numEvents": 1, "numAffected": 1, "numAtRisk": 2499}]}, {"term": "ICD lead dislodgement", "organSystem": "Cardiac disorders", "assessmentType": "SYSTEMATIC_ASSESSMENT", "stats": [{"groupId": "EG000", "numEvents": 34, "numAffected": 34, "numAtRisk": 2499}]}, {"term": "ICD lead high pacing threshold, intermittent capture, no lead capture", "organSystem": "Cardiac disorders", "assessmentType": "SYSTEMATIC_ASSESSMENT", "stats": [{"groupId": "EG000", "numEvents": 14, "numAffected": 14, "numAtRisk": 2499}]}, {"term": "ICD lead impedance out of range, high impedance, potential conductor fracture", "organSystem": "Cardiac disorders", "assessmentType": "SYSTEMATIC_ASSESSMENT", "stats": [{"groupId": "EG000", "numEvents": 15, "numAffected": 15, "numAtRisk": 2499}]}, {"term": "ICD lead impedance out of range, low Impedance, potential insulation break", "organSystem": "Cardiac disorders", "assessmentType": "SYSTEMATIC_ASSESSMENT", "stats": [{"groupId": "EG000", "numEvents": 11, "numAffected": 11, "numAtRisk": 2499}]}, {"term": "ICD lead inability to defibrillate or pace", "organSystem": "Cardiac disorders", "assessmentType": "SYSTEMATIC_ASSESSMENT", "stats": [{"groupId": "EG000", "numEvents": 1, "numAffected": 1, "numAtRisk": 2499}]}, {"term": "ICD lead oversensing or lead noise", "organSystem": "Cardiac disorders", "assessmentType": "SYSTEMATIC_ASSESSMENT", "stats": [{"groupId": "EG000", "numEvents": 10, "numAffected": 10, "numAtRisk": 2499}]}, {"term": "ICD lead undersensing or loss of sensing", "organSystem": "Cardiac disorders", "assessmentType": "SYSTEMATIC_ASSESSMENT", "stats": [{"groupId": "EG000", "numEvents": 1, "numAffected": 1, "numAtRisk": 2499}]}, {"term": "ICD lead, Riata lead externalized", "organSystem": "Cardiac disorders", "assessmentType": "SYSTEMATIC_ASSESSMENT", "stats": [{"groupId": "EG000", "numEvents": 2, "numAffected": 2, "numAtRisk": 2499}]}, {"term": "ICD lead, unknown, inadequate source documentation", "organSystem": "Cardiac disorders", "assessmentType": "SYSTEMATIC_ASSESSMENT", "stats": [{"groupId": "EG000", "numEvents": 1, "numAffected": 1, "numAtRisk": 2499}]}, {"term": "Inappropriate shocks", "organSystem": "Cardiac disorders", "assessmentType": "SYSTEMATIC_ASSESSMENT", "stats": [{"groupId": "EG000", "numEvents": 1, "numAffected": 1, "numAtRisk": 2499}]}, {"term": "LV lead abnormal pacing impedance, high impedance", "organSystem": "Cardiac disorders", "assessmentType": "SYSTEMATIC_ASSESSMENT", "stats": [{"groupId": "EG000", "numEvents": 12, "numAffected": 12, "numAtRisk": 2499}]}, {"term": "LV lead cardiac perforation with or without tamponade", "organSystem": "Cardiac disorders", "assessmentType": "SYSTEMATIC_ASSESSMENT", "stats": [{"groupId": "EG000", "numEvents": 1, "numAffected": 1, "numAtRisk": 2499}]}, {"term": "LV lead conductor fracture", "organSystem": "Cardiac disorders", "assessmentType": "SYSTEMATIC_ASSESSMENT", "stats": [{"groupId": "EG000", "numEvents": 5, "numAffected": 5, "numAtRisk": 2499}]}, {"term": "LV lead dislodgement", "organSystem": "Cardiac disorders", "assessmentType": "SYSTEMATIC_ASSESSMENT", "stats": [{"groupId": "EG000", "numEvents": 65, "numAffected": 61, "numAtRisk": 2499}]}, {"term": "LV lead excess slack", "organSystem": "Cardiac disorders", "assessmentType": "SYSTEMATIC_ASSESSMENT", "stats": [{"groupId": "EG000", "numEvents": 1, "numAffected": 1, "numAtRisk": 2499}]}, {"term": "LV lead high pacing threshold, intermittent capture, no lead capture", "organSystem": "Cardiac disorders", "assessmentType": "SYSTEMATIC_ASSESSMENT", "stats": [{"groupId": "EG000", "numEvents": 14, "numAffected": 14, "numAtRisk": 2499}]}, {"term": "LV lead related diaphgramatic / pectoral stimulation", "organSystem": "Cardiac disorders", "assessmentType": "SYSTEMATIC_ASSESSMENT", "stats": [{"groupId": "EG000", "numEvents": 14, "numAffected": 14, "numAtRisk": 2499}]}, {"term": "Non-functioning RA lead", "organSystem": "Cardiac disorders", "assessmentType": "SYSTEMATIC_ASSESSMENT", "stats": [{"groupId": "EG000", "numEvents": 1, "numAffected": 1, "numAtRisk": 2499}]}, {"term": "Pocket pain", "organSystem": "Cardiac disorders", "assessmentType": "SYSTEMATIC_ASSESSMENT", "stats": [{"groupId": "EG000", "numEvents": 1, "numAffected": 1, "numAtRisk": 2499}]}, {"term": "RA lead dislodgement", "organSystem": "Cardiac disorders", "assessmentType": "SYSTEMATIC_ASSESSMENT", "stats": [{"groupId": "EG000", "numEvents": 30, "numAffected": 29, "numAtRisk": 2499}]}, {"term": "RA lead high pacing threshold, intermittent capture, no lead capture", "organSystem": "Cardiac disorders", "assessmentType": "SYSTEMATIC_ASSESSMENT", "stats": [{"groupId": "EG000", "numEvents": 3, "numAffected": 3, "numAtRisk": 2499}]}, {"term": "RA lead impedance out of range, high impedance, potential conductor fracture", "organSystem": "Cardiac disorders", "assessmentType": "SYSTEMATIC_ASSESSMENT", "stats": [{"groupId": "EG000", "numEvents": 8, "numAffected": 8, "numAtRisk": 2499}]}, {"term": "RA lead impedance out of range, low impedance, potential insulation break", "organSystem": "Cardiac disorders", "assessmentType": "SYSTEMATIC_ASSESSMENT", "stats": [{"groupId": "EG000", "numEvents": 1, "numAffected": 1, "numAtRisk": 2499}]}, {"term": "RA lead oversensing or lead noise", "organSystem": "Cardiac disorders", "assessmentType": "SYSTEMATIC_ASSESSMENT", "stats": [{"groupId": "EG000", "numEvents": 1, "numAffected": 1, "numAtRisk": 2499}]}, {"term": "RA lead undersensing or loss of sensing", "organSystem": "Cardiac disorders", "assessmentType": "SYSTEMATIC_ASSESSMENT", "stats": [{"groupId": "EG000", "numEvents": 2, "numAffected": 2, "numAtRisk": 2499}]}, {"term": "RV pacing lead dislodgement", "organSystem": "Cardiac disorders", "assessmentType": "SYSTEMATIC_ASSESSMENT", "stats": [{"groupId": "EG000", "numEvents": 2, "numAffected": 2, "numAtRisk": 2499}]}, {"term": "RV pacing lead impedance out of range, high impedance, potential conductor fracture", "organSystem": "Cardiac disorders", "assessmentType": "SYSTEMATIC_ASSESSMENT", "stats": [{"groupId": "EG000", "numEvents": 1, "numAffected": 1, "numAtRisk": 2499}]}, {"term": "RV pacing lead noise", "organSystem": "Cardiac disorders", "assessmentType": "SYSTEMATIC_ASSESSMENT", "stats": [{"groupId": "EG000", "numEvents": 1, "numAffected": 1, "numAtRisk": 2499}]}, {"term": "Suspected generator failure requiring opening of pulse generator pocket", "organSystem": "Cardiac disorders", "assessmentType": "SYSTEMATIC_ASSESSMENT", "stats": [{"groupId": "EG000", "numEvents": 1, "numAffected": 1, "numAtRisk": 2499}]}, {"term": "Twiddler's syndrome", "organSystem": "General disorders", "assessmentType": "SYSTEMATIC_ASSESSMENT", "stats": [{"groupId": "EG000", "numEvents": 9, "numAffected": 7, "numAtRisk": 2499}]}, {"term": "Implant procedure related infection", "organSystem": "Infections and infestations", "assessmentType": "SYSTEMATIC_ASSESSMENT", "stats": [{"groupId": "EG000", "numEvents": 19, "numAffected": 19, "numAtRisk": 2499}]}, {"term": "Pocket infection", "organSystem": "Infections and infestations", "assessmentType": "SYSTEMATIC_ASSESSMENT", "stats": [{"groupId": "EG000", "numEvents": 2, "numAffected": 2, "numAtRisk": 2499}]}, {"term": "Secondary infection", "organSystem": "Infections and infestations", "assessmentType": "SYSTEMATIC_ASSESSMENT", "stats": [{"groupId": "EG000", "numEvents": 15, "numAffected": 15, "numAtRisk": 2499}]}, {"term": "Skin erosion", "organSystem": "Skin and subcutaneous tissue disorders", "assessmentType": "SYSTEMATIC_ASSESSMENT", "stats": [{"groupId": "EG000", "numEvents": 3, "numAffected": 3, "numAtRisk": 2499}]}, {"term": "Trauma related dehiscence", "organSystem": "Skin and subcutaneous tissue disorders", "assessmentType": "SYSTEMATIC_ASSESSMENT", "stats": [{"groupId": "EG000", "numEvents": 2, "numAffected": 2, "numAtRisk": 2499}]}, {"term": "Cardiac perforation with or without tamponade", "organSystem": "Surgical and medical procedures", "assessmentType": "SYSTEMATIC_ASSESSMENT", "stats": [{"groupId": "EG000", "numEvents": 1, "numAffected": 1, "numAtRisk": 2499}]}, {"term": "Hematoma", "organSystem": "Surgical and medical procedures", "assessmentType": "SYSTEMATIC_ASSESSMENT", "stats": [{"groupId": "EG000", "numEvents": 15, "numAffected": 15, "numAtRisk": 2499}]}, {"term": "High defibrillation thresholds due to inappropriate lead placement", "organSystem": "Surgical and medical procedures", "assessmentType": "SYSTEMATIC_ASSESSMENT", "stats": [{"groupId": "EG000", "numEvents": 1, "numAffected": 1, "numAtRisk": 2499}]}, {"term": "Implant procedure related damage to the lead", "organSystem": "Surgical and medical procedures", "assessmentType": "SYSTEMATIC_ASSESSMENT", "stats": [{"groupId": "EG000", "numEvents": 1, "numAffected": 1, "numAtRisk": 2499}]}, {"term": "LV lead dislodgement during RV lead extraction", "organSystem": "Surgical and medical procedures", "assessmentType": "SYSTEMATIC_ASSESSMENT", "stats": [{"groupId": "EG000", "numEvents": 1, "numAffected": 1, "numAtRisk": 2499}]}, {"term": "Loose set screw", "organSystem": "Surgical and medical procedures", "assessmentType": "SYSTEMATIC_ASSESSMENT", "stats": [{"groupId": "EG000", "numEvents": 5, "numAffected": 5, "numAtRisk": 2499}]}, {"term": "Non-healing pocket dehiscence requiring intervention", "organSystem": "Surgical and medical procedures", "assessmentType": "SYSTEMATIC_ASSESSMENT", "stats": [{"groupId": "EG000", "numEvents": 8, "numAffected": 8, "numAtRisk": 2499}]}, {"term": "Open heart surgery causing LV lead dislodgement", "organSystem": "Surgical and medical procedures", "assessmentType": "SYSTEMATIC_ASSESSMENT", "stats": [{"groupId": "EG000", "numEvents": 1, "numAffected": 1, "numAtRisk": 2499}]}, {"term": "Persistent arm of unknown cause", "organSystem": "Surgical and medical procedures", "assessmentType": "SYSTEMATIC_ASSESSMENT", "stats": [{"groupId": "EG000", "numEvents": 1, "numAffected": 1, "numAtRisk": 2499}]}, {"term": "Pneumothorax", "organSystem": "Surgical and medical procedures", "assessmentType": "SYSTEMATIC_ASSESSMENT", "stats": [{"groupId": "EG000", "numEvents": 2, "numAffected": 2, "numAtRisk": 2499}]}, {"term": "Pocket pain", "organSystem": "Surgical and medical procedures", "assessmentType": "SYSTEMATIC_ASSESSMENT", "stats": [{"groupId": "EG000", "numEvents": 2, "numAffected": 2, "numAtRisk": 2499}]}, {"term": "RA lead dislodgement during LV lead placement", "organSystem": "Surgical and medical procedures", "assessmentType": "SYSTEMATIC_ASSESSMENT", "stats": [{"groupId": "EG000", "numEvents": 1, "numAffected": 1, "numAtRisk": 2499}]}, {"term": "SVC perforation during laser lead extraction", "organSystem": "Surgical and medical procedures", "assessmentType": "SYSTEMATIC_ASSESSMENT", "stats": [{"groupId": "EG000", "numEvents": 1, "numAffected": 1, "numAtRisk": 2499}]}, {"term": "Subclavian vein occlusion", "organSystem": "Surgical and medical procedures", "assessmentType": "SYSTEMATIC_ASSESSMENT", "stats": [{"groupId": "EG000", "numEvents": 1, "numAffected": 1, "numAtRisk": 2499}]}], "otherEvents": [{"term": "Arrhythmias", "organSystem": "Surgical and medical procedures", "assessmentType": "SYSTEMATIC_ASSESSMENT", "stats": [{"groupId": "EG000", "numEvents": 1, "numAffected": 1, "numAtRisk": 2499}]}, {"term": "Coronary sinus dissection", "organSystem": "Surgical and medical procedures", "assessmentType": "SYSTEMATIC_ASSESSMENT", "stats": [{"groupId": "EG000", "numEvents": 3, "numAffected": 3, "numAtRisk": 2499}]}, {"term": "Diaphragmatic stimulation", "organSystem": "Surgical and medical procedures", "assessmentType": "SYSTEMATIC_ASSESSMENT", "stats": [{"groupId": "EG000", "numEvents": 1, "numAffected": 1, "numAtRisk": 2499}]}, {"term": "Hematoma", "organSystem": "Surgical and medical procedures", "assessmentType": "SYSTEMATIC_ASSESSMENT", "stats": [{"groupId": "EG000", "numEvents": 22, "numAffected": 22, "numAtRisk": 2499}]}, {"term": "ICD lead high pacing threshold, intermittent capture, no lead capture", "organSystem": "Cardiac disorders", "assessmentType": "SYSTEMATIC_ASSESSMENT", "stats": [{"groupId": "EG000", "numEvents": 2, "numAffected": 2, "numAtRisk": 2499}]}, {"term": "ICD lead oversensing", "organSystem": "Cardiac disorders", "assessmentType": "SYSTEMATIC_ASSESSMENT", "stats": [{"groupId": "EG000", "numEvents": 2, "numAffected": 2, "numAtRisk": 2499}]}, {"term": "ICD lead oversensing or lead noise", "organSystem": "Cardiac disorders", "assessmentType": "SYSTEMATIC_ASSESSMENT", "stats": [{"groupId": "EG000", "numEvents": 4, "numAffected": 4, "numAtRisk": 2499}]}, {"term": "Incompletely healed incision", "organSystem": "Surgical and medical procedures", "assessmentType": "SYSTEMATIC_ASSESSMENT", "stats": [{"groupId": "EG000", "numEvents": 1, "numAffected": 1, "numAtRisk": 2499}]}, {"term": "LV lead abnormal pacing impedance, high impedance", "organSystem": "Cardiac disorders", "assessmentType": "SYSTEMATIC_ASSESSMENT", "stats": [{"groupId": "EG000", "numEvents": 7, "numAffected": 7, "numAtRisk": 2499}]}, {"term": "LV lead dislodgement", "organSystem": "Cardiac disorders", "assessmentType": "SYSTEMATIC_ASSESSMENT", "stats": [{"groupId": "EG000", "numEvents": 9, "numAffected": 9, "numAtRisk": 2499}]}, {"term": "High pacing threshold", "organSystem": "Cardiac disorders", "assessmentType": "SYSTEMATIC_ASSESSMENT", "stats": [{"groupId": "EG000", "numEvents": 1, "numAffected": 1, "numAtRisk": 2499}]}, {"term": "LV lead high pacing threshold, intermittent capture, no lead capture", "organSystem": "Cardiac disorders", "assessmentType": "SYSTEMATIC_ASSESSMENT", "stats": [{"groupId": "EG000", "numEvents": 10, "numAffected": 10, "numAtRisk": 2499}]}, {"term": "LV lead related diaphgramatic / pectoral stimulation", "organSystem": "Cardiac disorders", "assessmentType": "SYSTEMATIC_ASSESSMENT", "stats": [{"groupId": "EG000", "numEvents": 11, "numAffected": 11, "numAtRisk": 2499}]}, {"term": "Left subclavian vein thrombosis", "organSystem": "Surgical and medical procedures", "assessmentType": "SYSTEMATIC_ASSESSMENT", "stats": [{"groupId": "EG000", "numEvents": 1, "numAffected": 1, "numAtRisk": 2499}]}, {"term": "Non-healing pocket dehiscence requiring intervention", "organSystem": "Surgical and medical procedures", "assessmentType": "SYSTEMATIC_ASSESSMENT", "stats": [{"groupId": "EG000", "numEvents": 1, "numAffected": 1, "numAtRisk": 2499}]}, {"term": "RA lead dislodgement", "organSystem": "Cardiac disorders", "assessmentType": "SYSTEMATIC_ASSESSMENT", "stats": [{"groupId": "EG000", "numEvents": 1, "numAffected": 1, "numAtRisk": 2499}]}, {"term": "RA lead high pacing threshold, intermittent capture, no lead capture", "organSystem": "Cardiac disorders", "assessmentType": "SYSTEMATIC_ASSESSMENT", "stats": [{"groupId": "EG000", "numEvents": 3, "numAffected": 3, "numAtRisk": 2499}]}, {"term": "RA lead impedance out of range, high impedance, potential conductor fracture", "organSystem": "Cardiac disorders", "assessmentType": "SYSTEMATIC_ASSESSMENT", "stats": [{"groupId": "EG000", "numEvents": 1, "numAffected": 1, "numAtRisk": 2499}]}, {"term": "RA lead impedance out of range, low impedance, potential insulation break", "organSystem": "Cardiac disorders", "assessmentType": "SYSTEMATIC_ASSESSMENT", "stats": [{"groupId": "EG000", "numEvents": 1, "numAffected": 1, "numAtRisk": 2499}]}, {"term": "RA lead noise", "organSystem": "Cardiac disorders", "assessmentType": "SYSTEMATIC_ASSESSMENT", "stats": [{"groupId": "EG000", "numEvents": 1, "numAffected": 1, "numAtRisk": 2499}]}, {"term": "RA lead oversensing or lead noise", "organSystem": "Cardiac disorders", "assessmentType": "SYSTEMATIC_ASSESSMENT", "stats": [{"groupId": "EG000", "numEvents": 1, "numAffected": 1, "numAtRisk": 2499}]}, {"term": "Twiddler's syndrome", "organSystem": "Cardiac disorders", "assessmentType": "SYSTEMATIC_ASSESSMENT", "stats": [{"groupId": "EG000", "numEvents": 1, "numAffected": 1, "numAtRisk": 2499}]}]}, "moreInfoModule": {"certainAgreement": {"piSponsorEmployee": false, "restrictionType": "OTHER", "restrictiveAgreement": true}, "pointOfContact": {"title": "Clinical Studies Engineer Group Manager", "organization": "BIOTRONIK", "email": "celestial@biotronik.com", "phone": "800-547-0394"}}}, "documentSection": {"largeDocumentModule": {"largeDocs": [{"typeAbbrev": "Prot", "hasProtocol": true, "hasSap": false, "hasIcf": false, "label": "Study Protocol", "date": "2010-11-16", "uploadDate": "2019-08-30T14:58", "filename": "Prot_000.pdf", "size": 957387}, {"typeAbbrev": "SAP", "hasProtocol": false, "hasSap": true, "hasIcf": false, "label": "Statistical Analysis Plan", "date": "2019-04-26", "uploadDate": "2019-08-30T14:59", "filename": "SAP_001.pdf", "size": 11084042}]}}, "derivedSection": {"miscInfoModule": {"versionHolder": "2024-06-24"}, "conditionBrowseModule": {"meshes": [{"id": "D000006333", "term": "Heart Failure"}], "ancestors": [{"id": "D000006331", "term": "Heart Diseases"}, {"id": "D000002318", "term": "Cardiovascular Diseases"}], "browseLeaves": [{"id": "M9421", "name": "Heart Failure", "asFound": "Congestive Heart Failure", "relevance": "HIGH"}, {"id": "M9419", "name": "Heart Diseases", "relevance": "LOW"}], "browseBranches": [{"abbrev": "BC14", "name": "Heart and Blood Diseases"}, {"abbrev": "All", "name": "All Conditions"}]}}, "hasResults": true}