{"protocolSection": {"identificationModule": {"nctId": "NCT03358147", "nctIdAliases": ["NCT03547466"], "orgStudyIdInfo": {"id": "PT001102"}, "organization": {"fullName": "Pearl Therapeutics, Inc.", "class": "INDUSTRY"}, "briefTitle": "Efficacy and Safety of PT001 to Placebo and Open-label Spiriva\u00ae Respimat\u00ae in Subjects With Persistant Asthma", "officialTitle": "A Randomized, Double-Blind, Parallel Group, Multi-Center 24-Week Study Comparing the Efficacy and Safety of Three Doses of PT001 to Placebo and Open-label Spiriva\u00ae Respimat\u00ae in Subjects With Persistent Asthma"}, "statusModule": {"statusVerifiedDate": "2020-08", "overallStatus": "COMPLETED", "startDateStruct": {"date": "2017-12-13", "type": "ACTUAL"}, "primaryCompletionDateStruct": {"date": "2019-09-12", "type": "ACTUAL"}, "completionDateStruct": {"date": "2019-09-12", "type": "ACTUAL"}, "studyFirstSubmitDate": "2017-11-20", "studyFirstSubmitQcDate": "2017-11-29", "studyFirstPostDateStruct": {"date": "2017-11-30", "type": "ACTUAL"}, "resultsFirstSubmitDate": "2020-05-22", "resultsFirstSubmitQcDate": "2020-08-11", "resultsFirstPostDateStruct": {"date": "2020-08-12", "type": "ACTUAL"}, "lastUpdateSubmitDate": "2020-08-11", "lastUpdatePostDateStruct": {"date": "2020-08-12", "type": "ACTUAL"}}, "sponsorCollaboratorsModule": {"responsibleParty": {"type": "SPONSOR"}, "leadSponsor": {"name": "Pearl Therapeutics, Inc.", "class": "INDUSTRY"}}, "oversightModule": {"oversightHasDmc": true, "isFdaRegulatedDrug": true, "isFdaRegulatedDevice": false}, "descriptionModule": {"briefSummary": "Study Comparing the Efficacy and Safety of PT001 to Placebo and Open-label Spiriva\u00ae Respimat\u00ae in Subjects With Persistent Asthma", "detailedDescription": "A Randomized, Double-Blind, Parallel Group, Multi-Center 24-Week Study Comparing the Efficacy and Safety of Three Doses of PT001 to Placebo and Open-label Spiriva\u00ae Respimat\u00ae in Subjects With Persistent Asthma"}, "conditionsModule": {"conditions": ["Asthma"]}, "designModule": {"studyType": "INTERVENTIONAL", "phases": ["PHASE2", "PHASE3"], "designInfo": {"allocation": "RANDOMIZED", "interventionModel": "PARALLEL", "interventionModelDescription": "Linear repeated measures model", "primaryPurpose": "TREATMENT", "maskingInfo": {"masking": "QUADRUPLE", "maskingDescription": "Double Blind vs Placebo, Open Label Spiriva Respimat", "whoMasked": ["PARTICIPANT", "CARE_PROVIDER", "INVESTIGATOR", "OUTCOMES_ASSESSOR"]}}, "enrollmentInfo": {"count": 1077, "type": "ACTUAL"}}, "armsInterventionsModule": {"armGroups": [{"label": "GP MDI 28.8 \u03bcg", "type": "EXPERIMENTAL", "description": "GP MDI 14.4 \u03bcg per actuation taken as 2 inhalations BID", "interventionNames": ["Drug: GP MDI 28.8 \u03bcg"]}, {"label": "GP MDI 14.4 \u03bcg", "type": "EXPERIMENTAL", "description": "GP MDI 7.2 \u03bcg per actuation taken as 2 inhalations BID", "interventionNames": ["Drug: GP MDI 14.4 \u03bcg"]}, {"label": "GP MDI 7.2 \u03bcg", "type": "EXPERIMENTAL", "description": "GP MDI 3.6 \u03bcg per actuation taken as 2 inhalations BID", "interventionNames": ["Drug: GP MDI 7.2 \u03bcg"]}, {"label": "Placebo MDI", "type": "PLACEBO_COMPARATOR", "description": "Taken as 2 inhalations BID", "interventionNames": ["Drug: Placebo MDI"]}, {"label": "Spiriva Respimat 2.5 \u03bcg", "type": "OTHER", "description": "Open Label Spiriva Respimat 2.5 \u03bcg", "interventionNames": ["Drug: Spiriva Respimat 2.5 \u03bcg"]}], "interventions": [{"type": "DRUG", "name": "GP MDI 28.8 \u03bcg", "description": "GP MDI (PT001)14.4 \u03bcg per actuation taken as 2 inhalations BID", "armGroupLabels": ["GP MDI 28.8 \u03bcg"], "otherNames": ["GP"]}, {"type": "DRUG", "name": "GP MDI 14.4 \u03bcg", "description": "GP MDI (PT001) 7.2 \u03bcg per actuation taken as 2 inhalations BID", "armGroupLabels": ["GP MDI 14.4 \u03bcg"], "otherNames": ["GP"]}, {"type": "DRUG", "name": "GP MDI 7.2 \u03bcg", "description": "GP MDI (PT001) 3.6 \u03bcg per actuation taken as 2 inhalations BID", "armGroupLabels": ["GP MDI 7.2 \u03bcg"], "otherNames": ["GP"]}, {"type": "DRUG", "name": "Placebo MDI", "description": "Placebo taken as 2 inhalations BID", "armGroupLabels": ["Placebo MDI"], "otherNames": ["Placebo"]}, {"type": "DRUG", "name": "Spiriva Respimat 2.5 \u03bcg", "description": "Spiriva Respimat 2.5 \u03bcg QD (open-label)", "armGroupLabels": ["Spiriva Respimat 2.5 \u03bcg"], "otherNames": ["Spiriva Respimat"]}]}, "outcomesModule": {"primaryOutcomes": [{"measure": "Change From Baseline in Forced Expiratory Volume in 1 Second (FEV1) Area Under the Curve From 0 to 4 Hours (AUC0-4)", "description": "Change from baseline in forced expiratory volume in 1 second (FEV1) area under the curve from 0 to 4 hours (AUC0-4)AUC was normalized for length of follow up (e.g. typically 4 hours).", "timeFrame": "Week 24"}], "secondaryOutcomes": [{"measure": "Change From Baseline in Morning Pre-dose Trough FEV1", "timeFrame": "Week 24"}, {"measure": "Rate of Moderate to Severe Asthma Exacerbations", "description": "Rate of moderate to severe Asthma exacerbations (A deterioration of asthma requiring a new or increased dose of ICS for at least 3 days) or severe Asthma exacerbation (Use of systemic corticosteroids (tablets, suspension, or injection) for at least 3 days OR a hospitalization or ER visit because of asthma)", "timeFrame": "over 24 Weeks (timepoints of 4, 12 & 20 weeks)"}, {"measure": "Change From Baseline in ACQ-7 (Asthma Control Questionnaire)", "description": "ACQ-7: The ACQ, comprising 7 questions, is completed in the clinic and requires subjects to recall their experiences during the previous week (7 days) prior to the study visit. The ACQ-5 measures 5 symptoms (woken at night by symptoms, wake in the morning with symptoms, limitation of daily activities, shortness of breath, and wheeze); the ACQ-6 is these symptom measurements plus daily rescue medication use as recalled by the subject; and the ACQ 7 is the ACQ 6 plus airway caliber as measured by pre-bronchodilator FEV1 percent predicted. Each question is scored on a 7-point scale (generally, 0=no impairment, 6=maximum impairment), the questions are equally weighted, and the ACQ score is the mean of the item responses and therefore ranges from 0 (totally controlled) to 6 (severely uncontrolled.", "timeFrame": "Week 24"}, {"measure": "Change From Baseline in ACQ-5 (Asthma Control Questionnaire)", "description": "ACQ-5:The ACQ-5 measures 5 symptoms (woken at night by symptoms, wake in the morning with symptoms, limitation of daily activities, shortness of breath, and wheeze). Each question is scored on a 7-point scale (generally, 0=no impairment, 6=maximum impairment), the questions are equally weighted, and the ACQ score is the mean of the item responses and therefore ranges from 0 (totally controlled) to 6 (severely uncontrolled).", "timeFrame": "Week 24"}, {"measure": "Change From Baseline in Asthma Quality of Life Questionnaire for 12 Years and Older (AQLQ +12)", "description": "AQLQ +12 - Asthma Quality of Life Questionnaire The AQLQ +12 is a 32-item validated subject-administered questionnaire that was developed to measure the functional problems (physical, emotional, social and occupational) that are most troublesome to adults (\u226518 years of age) and adolescents (12 to 17 years of age) with asthma. The 32 questions in the AQLQ +12 are in 4 domains (symptoms, activity limitation, emotional function, and environmental stimuli). All 4 domains contain standard specific questions relating to each domain. Subjects are asked to think about how they have been during the previous 2 weeks. Responses to each of the 32 questions are on a 7-point scale (7=no impairment to 1=severe impairment). The overall AQLQ +12 score is the mean of all 32 responses. Overall scores range from 1=severe impairment to 7=no impairment.", "timeFrame": "Week 24"}]}, "eligibilityModule": {"eligibilityCriteria": "Inclusion Criteria:\n\n* Have a documented history of physician-diagnosed asthma\n* Require inhaled asthma maintenance therapy: has been regularly using an ICS/LABA on a stable regimen for at least 4 weeks\n* Documented reversibility to albuterol\n* A pre-bronchodilator FEV1 \\>40% and \\<85% of predicted normal value for subjects 18 to 80 years of age or \\>40% and \\<90% of predicted for subjects 12 to \\<18 years of age\n* Demonstrate acceptable spirometry performance\n* Willing and, in the opinion of the Investigator, able to adjust current asthma therapy, as required by the protocol\n* Compliance: must be willing to remain at the study center as required per protocol to complete all visit assessments\n\nExclusion Criteria:\n\n* Oral corticosteroid use (any dose) within 4 weeks\n* Current smokers, former smokers with \\>10 pack-years history, or former smokers who stopped smoking \\<6 months (including all forms of tobacco, e-cigarettes, and marijuana)\n* Life-threatening asthma as defined as a history of significant asthma episode(s) requiring intubation associated with hypercapnia, respiratory arrest, hypoxic seizures, or asthma-related syncopal episode(s)\n* Completed treatment for lower respiratory infection or asthma exacerbation within 4 weeks\n* Hospitalizations for asthma within 3 months\n* Historical or current evidence of a clinically significant disease\n* Cancer not in complete remission for at least 5 years\n* Treatment with investigational study drug (or device) in another clinical study within the last 30 days or 5 half-lives, whichever is longer\n* Previously randomized in any PT001 study", "healthyVolunteers": false, "sex": "ALL", "minimumAge": "12 Years", "maximumAge": "80 Years", "stdAges": ["CHILD", "ADULT", "OLDER_ADULT"]}, "contactsLocationsModule": {"locations": [{"facility": "Research Site", "city": "Birmingham", "state": "Alabama", "zip": "35209", "country": "United States", "geoPoint": {"lat": 33.52066, "lon": -86.80249}}, {"facility": "Research Site", "city": "Birmingham", "state": "Alabama", "zip": "35243", "country": "United States", "geoPoint": {"lat": 33.52066, "lon": -86.80249}}, {"facility": "Research Site", "city": "Dothan", "state": "Alabama", "zip": "36303", "country": "United States", "geoPoint": {"lat": 31.22323, "lon": -85.39049}}, {"facility": "Research Site", "city": "Guntersville", "state": "Alabama", "zip": "35976", "country": "United States", "geoPoint": {"lat": 34.35823, "lon": -86.29447}}, {"facility": "Research Site", "city": "Jasper", "state": "Alabama", "zip": "35501", "country": "United States", "geoPoint": {"lat": 33.83122, "lon": -87.27751}}, {"facility": "Research Site", "city": "Scottsboro", "state": "Alabama", "zip": "35768", "country": "United States", "geoPoint": {"lat": 34.67231, "lon": -86.03415}}, {"facility": "Research Site", "city": "Chandler", "state": "Arizona", "zip": "85224", "country": "United States", "geoPoint": {"lat": 33.30616, "lon": -111.84125}}, {"facility": "Research Site", "city": "Flagstaff", "state": "Arizona", "zip": "86001", "country": "United States", "geoPoint": {"lat": 35.19807, "lon": -111.65127}}, {"facility": "Research Site", "city": "Phoenix", "state": "Arizona", "zip": "85018", "country": "United States", "geoPoint": {"lat": 33.44838, "lon": -112.07404}}, {"facility": "Research Site", "city": "Tempe", "state": "Arizona", "zip": "85283", "country": "United States", "geoPoint": {"lat": 33.41477, "lon": -111.90931}}, {"facility": "Research Site", "city": "Tucson", "state": "Arizona", "zip": "85710", "country": "United States", "geoPoint": {"lat": 32.22174, "lon": -110.92648}}, {"facility": "Research Site", "city": "Tucson", "state": "Arizona", "zip": "85745", "country": "United States", "geoPoint": {"lat": 32.22174, "lon": -110.92648}}, {"facility": "Research Site", "city": "Little Rock", "state": "Arkansas", "zip": "72205", "country": "United States", "geoPoint": {"lat": 34.74648, "lon": -92.28959}}, {"facility": "Research Site", "city": "Little Rock", "state": "Arkansas", "zip": "72209", "country": "United States", "geoPoint": {"lat": 34.74648, "lon": -92.28959}}, {"facility": "Research Site", "city": "Little Rock", "state": "Arkansas", "zip": "72212", "country": "United States", "geoPoint": {"lat": 34.74648, "lon": -92.28959}}, {"facility": "Research Site", "city": "Anaheim", "state": "California", "zip": "92801", "country": "United States", "geoPoint": {"lat": 33.83529, "lon": -117.9145}}, {"facility": "Research Site", "city": "Bakersfield", "state": "California", "zip": "93301", "country": "United States", "geoPoint": {"lat": 35.37329, "lon": -119.01871}}, {"facility": "Research Site", "city": "Corona", "state": "California", "zip": "92879", "country": "United States", "geoPoint": {"lat": 33.87529, "lon": -117.56644}}, {"facility": "Research Site", "city": "Costa Mesa", "state": "California", "zip": "92627", "country": "United States", "geoPoint": {"lat": 33.64113, "lon": -117.91867}}, {"facility": "Research Site", "city": "El Cajon", "state": "California", "zip": "92020", "country": "United States", "geoPoint": {"lat": 32.79477, "lon": -116.96253}}, {"facility": "Research Site", "city": "Encinitas", "state": "California", "zip": "92024", "country": "United States", "geoPoint": {"lat": 33.03699, "lon": -117.29198}}, {"facility": "Research Site", "city": "Fresno", "state": "California", "zip": "93702", "country": "United States", "geoPoint": {"lat": 36.74773, "lon": -119.77237}}, {"facility": "Research Site", "city": "Fullerton", "state": "California", "zip": "92835", "country": "United States", "geoPoint": {"lat": 33.87029, "lon": -117.92534}}, {"facility": "Research Site", "city": "Gold River", "state": "California", "zip": "95670", "country": "United States", "geoPoint": {"lat": 38.62629, "lon": -121.24662}}, {"facility": "Research Site", "city": "Huntington Beach", "state": "California", "zip": "92647", "country": "United States", "geoPoint": {"lat": 33.6603, "lon": -117.99923}}, {"facility": "Research Site", "city": "Long Beach", "state": "California", "zip": "90036", "country": "United States", "geoPoint": {"lat": 33.76696, "lon": -118.18923}}, {"facility": "Research Site", "city": "Long Beach", "state": "California", "zip": "90806", "country": "United States", "geoPoint": {"lat": 33.76696, "lon": -118.18923}}, {"facility": "Research Site", "city": "Los Angeles", "state": "California", "zip": "90017", "country": "United States", "geoPoint": {"lat": 34.05223, "lon": -118.24368}}, {"facility": "Research Site", "city": "Los Angeles", "state": "California", "zip": "90048", "country": "United States", "geoPoint": {"lat": 34.05223, "lon": -118.24368}}, {"facility": "Research Site", "city": "Mission Viejo", "state": "California", "zip": "92691", "country": "United States", "geoPoint": {"lat": 33.60002, "lon": -117.672}}, {"facility": "Research Site", "city": "Newport Beach", "state": "California", "zip": "92663", "country": "United States", "geoPoint": {"lat": 33.61891, "lon": -117.92895}}, {"facility": "Research Site", "city": "North Hollywood", "state": "California", "zip": "91606", "country": "United States", "geoPoint": {"lat": 34.17223, "lon": -118.37897}}, {"facility": "Research Site", "city": "Northridge", "state": "California", "zip": "91324", "country": "United States", "geoPoint": {"lat": 34.22834, "lon": -118.53675}}, {"facility": "Research Site", "city": "Orange", "state": "California", "zip": "92868", "country": "United States", "geoPoint": {"lat": 33.78779, "lon": -117.85311}}, {"facility": "Research Site", "city": "Palmdale", "state": "California", "zip": "93551", "country": "United States", "geoPoint": {"lat": 34.57943, "lon": -118.11646}}, {"facility": "Research Site", "city": "Poway", "state": "California", "zip": "92064", "country": "United States", "geoPoint": {"lat": 32.96282, "lon": -117.03586}}, {"facility": "Research Site", "city": "Quartz Hill", "state": "California", "zip": "93536", "country": "United States", "geoPoint": {"lat": 34.64526, "lon": -118.21813}}, {"facility": "Research Site", "city": "Rancho Mirage", "state": "California", "zip": "92270", "country": "United States", "geoPoint": {"lat": 33.73974, "lon": -116.41279}}, {"facility": "Research Site", "city": "Riverside", "state": "California", "zip": "92506", "country": "United States", "geoPoint": {"lat": 33.95335, "lon": -117.39616}}, {"facility": "Research Site", "city": "Rolling Hills Estates", "state": "California", "zip": "90274", "country": "United States", "geoPoint": {"lat": 33.78779, "lon": -118.35813}}, {"facility": "Research Site", "city": "Sacramento", "state": "California", "zip": "95821", "country": "United States", "geoPoint": {"lat": 38.58157, "lon": -121.4944}}, {"facility": "Research Site", "city": "Sacramento", "state": "California", "zip": "95823", "country": "United States", "geoPoint": {"lat": 38.58157, "lon": -121.4944}}, {"facility": "Research Site", "city": "Sacramento", "state": "California", "zip": "95831", "country": "United States", "geoPoint": {"lat": 38.58157, "lon": -121.4944}}, {"facility": "Research Site", "city": "San Diego", "state": "California", "zip": "92117", "country": "United States", "geoPoint": {"lat": 32.71533, "lon": -117.15726}}, {"facility": "Research Site", "city": "San Diego", "state": "California", "zip": "92119", "country": "United States", "geoPoint": {"lat": 32.71533, "lon": -117.15726}}, {"facility": "Research Site", "city": "San Diego", "state": "California", "zip": "92120", "country": "United States", "geoPoint": {"lat": 32.71533, "lon": -117.15726}}, {"facility": "Research Site", "city": "San Diego", "state": "California", "zip": "92123", "country": "United States", "geoPoint": {"lat": 32.71533, "lon": -117.15726}}, {"facility": "Research Site", "city": "San Jose", "state": "California", "zip": "95117", "country": "United States", "geoPoint": {"lat": 37.33939, "lon": -121.89496}}, {"facility": "Research Site", "city": "Stockton", "state": "California", "zip": "95207", "country": "United States", "geoPoint": {"lat": 37.9577, "lon": -121.29078}}, {"facility": "Research Site", "city": "Thousand Oaks", "state": "California", "zip": "91360", "country": "United States", "geoPoint": {"lat": 34.17056, "lon": -118.83759}}, {"facility": "Research Site", "city": "Tustin", "state": "California", "zip": "92780", "country": "United States", "geoPoint": {"lat": 33.74585, "lon": -117.82617}}, {"facility": "Research Site", "city": "Westminster", "state": "California", "zip": "92683", "country": "United States", "geoPoint": {"lat": 33.75918, "lon": -118.00673}}, {"facility": "Research Site", "city": "Centennial", "state": "Colorado", "zip": "80112", "country": "United States", "geoPoint": {"lat": 39.57916, "lon": -104.87692}}, {"facility": "Research Site", "city": "Colorado Springs", "state": "Colorado", "zip": "80907", "country": "United States", "geoPoint": {"lat": 38.83388, "lon": -104.82136}}, {"facility": "Research Site", "city": "Colorado Springs", "state": "Colorado", "zip": "80910", "country": "United States", "geoPoint": {"lat": 38.83388, "lon": -104.82136}}, {"facility": "Research Site", "city": "Lafayette", "state": "Colorado", "zip": "80026", "country": "United States", "geoPoint": {"lat": 39.9936, "lon": -105.08971}}, {"facility": "Research Site", "city": "Wheat Ridge", "state": "Colorado", "zip": "80033", "country": "United States", "geoPoint": {"lat": 39.7661, "lon": -105.07721}}, {"facility": "Research Site", "city": "Hamden", "state": "Connecticut", "zip": "06517", "country": "United States", "geoPoint": {"lat": 41.39593, "lon": -72.89677}}, {"facility": "Research Site", "city": "Aventura", "state": "Florida", "zip": "33180", "country": "United States", "geoPoint": {"lat": 25.95648, "lon": -80.13921}}, {"facility": "Research Site", "city": "Brandon", "state": "Florida", "zip": "33511", "country": "United States", "geoPoint": {"lat": 27.9378, "lon": -82.28592}}, {"facility": "Research Site", "city": "Clearwater", "state": "Florida", "zip": "33756", "country": "United States", "geoPoint": {"lat": 27.96585, "lon": -82.8001}}, {"facility": "Research Site", "city": "Clearwater", "state": "Florida", "zip": "33765", "country": "United States", "geoPoint": {"lat": 27.96585, "lon": -82.8001}}, {"facility": "Research Site", "city": "Gainesville", "state": "Florida", "zip": "32653", "country": "United States", "geoPoint": {"lat": 29.65163, "lon": -82.32483}}, {"facility": "Research Site", "city": "Hialeah", "state": "Florida", "zip": "33012", "country": "United States", "geoPoint": {"lat": 25.8576, "lon": -80.27811}}, {"facility": "Research Site", "city": "Hialeah", "state": "Florida", "zip": "33013", "country": "United States", "geoPoint": {"lat": 25.8576, "lon": -80.27811}}, {"facility": "Research Site", "city": "Hialeah", "state": "Florida", "zip": "33016", "country": "United States", "geoPoint": {"lat": 25.8576, "lon": -80.27811}}, {"facility": "Research Site", "city": "Kissimmee", "state": "Florida", "zip": "34741", "country": "United States", "geoPoint": {"lat": 28.30468, "lon": -81.41667}}, {"facility": "Research Site", "city": "Lake City", "state": "Florida", "zip": "32055", "country": "United States", "geoPoint": {"lat": 30.18968, "lon": -82.63929}}, {"facility": "Research Site", "city": "Loxahatchee Groves", "state": "Florida", "zip": "33470", "country": "United States", "geoPoint": {"lat": 26.68368, "lon": -80.27977}}, {"facility": "Research Site", "city": "Miami", "state": "Florida", "zip": "33126", "country": "United States", "geoPoint": {"lat": 25.77427, "lon": -80.19366}}, {"facility": "Research Site", "city": "Miami", "state": "Florida", "zip": "33174", "country": "United States", "geoPoint": {"lat": 25.77427, "lon": -80.19366}}, {"facility": "Research Site", "city": "Miami", "state": "Florida", "zip": "33175", "country": "United States", "geoPoint": {"lat": 25.77427, "lon": -80.19366}}, {"facility": "Research Site", "city": "Miami", "state": "Florida", "zip": "33176", "country": "United States", "geoPoint": {"lat": 25.77427, "lon": -80.19366}}, {"facility": "Research Site", "city": "Miami", "state": "Florida", "zip": "33186", "country": "United States", "geoPoint": {"lat": 25.77427, "lon": -80.19366}}, {"facility": "Research Site", "city": "Ocala", "state": "Florida", "zip": "34471", "country": "United States", "geoPoint": {"lat": 29.1872, "lon": -82.14009}}, {"facility": "Research Site", "city": "Ocoee", "state": "Florida", "zip": "34761", "country": "United States", "geoPoint": {"lat": 28.56917, "lon": -81.54396}}, {"facility": "Research Site", "city": "Orlando", "state": "Florida", "zip": "32811", "country": "United States", "geoPoint": {"lat": 28.53834, "lon": -81.37924}}, {"facility": "Research Site", "city": "Panama City", "state": "Florida", "zip": "32405", "country": "United States", "geoPoint": {"lat": 30.15946, "lon": -85.65983}}, {"facility": "Research Site", "city": "Pembroke Pines", "state": "Florida", "zip": "33029", "country": "United States", "geoPoint": {"lat": 26.00315, "lon": -80.22394}}, {"facility": "Research Site", "city": "Saint Cloud", "state": "Florida", "zip": "34769", "country": "United States", "geoPoint": {"lat": 28.2489, "lon": -81.28118}}, {"facility": "Research Site", "city": "Tallahassee", "state": "Florida", "zip": "32308", "country": "United States", "geoPoint": {"lat": 30.43826, "lon": -84.28073}}, {"facility": "Research Site", "city": "Tampa", "state": "Florida", "zip": "33603", "country": "United States", "geoPoint": {"lat": 27.94752, "lon": -82.45843}}, {"facility": "Research Site", "city": "Winter Park", "state": "Florida", "zip": "32789", "country": "United States", "geoPoint": {"lat": 28.6, "lon": -81.33924}}, {"facility": "Research Site", "city": "Adairsville", "state": "Georgia", "zip": "30103", "country": "United States", "geoPoint": {"lat": 34.3687, "lon": -84.93411}}, {"facility": "Research Site", "city": "Albany", "state": "Georgia", "zip": "31707", "country": "United States", "geoPoint": {"lat": 31.57851, "lon": -84.15574}}, {"facility": "Research Site", "city": "Atlanta", "state": "Georgia", "zip": "30345", "country": "United States", "geoPoint": {"lat": 33.749, "lon": -84.38798}}, {"facility": "Research Site", "city": "Columbus", "state": "Georgia", "zip": "31904", "country": "United States", "geoPoint": {"lat": 32.46098, "lon": -84.98771}}, {"facility": "Research Site", "city": "Dacula", "state": "Georgia", "zip": "30019", "country": "United States", "geoPoint": {"lat": 33.98872, "lon": -83.89796}}, {"facility": "Research Site", "city": "Gainesville", "state": "Georgia", "zip": "30501", "country": "United States", "geoPoint": {"lat": 34.29788, "lon": -83.82407}}, {"facility": "Research Site", "city": "Lawrenceville", "state": "Georgia", "zip": "30046", "country": "United States", "geoPoint": {"lat": 33.95621, "lon": -83.98796}}, {"facility": "Research Site", "city": "Norcross", "state": "Georgia", "zip": "30071", "country": "United States", "geoPoint": {"lat": 33.94121, "lon": -84.21353}}, {"facility": "Research Site", "city": "Rincon", "state": "Georgia", "zip": "31326", "country": "United States", "geoPoint": {"lat": 32.29603, "lon": -81.23539}}, {"facility": "Research Site", "city": "Savannah", "state": "Georgia", "zip": "31406", "country": "United States", "geoPoint": {"lat": 32.08354, "lon": -81.09983}}, {"facility": "Research Site", "city": "Stockbridge", "state": "Georgia", "zip": "30281", "country": "United States", "geoPoint": {"lat": 33.54428, "lon": -84.23381}}, {"facility": "Research Site", "city": "Boise", "state": "Idaho", "zip": "83706", "country": "United States", "geoPoint": {"lat": 43.6135, "lon": -116.20345}}, {"facility": "Research Site", "city": "Meridian", "state": "Idaho", "zip": "83646", "country": "United States", "geoPoint": {"lat": 43.61211, "lon": -116.39151}}, {"facility": "Research Site", "city": "Evergreen Park", "state": "Illinois", "zip": "60805", "country": "United States", "geoPoint": {"lat": 41.72059, "lon": -87.70172}}, {"facility": "Research Site", "city": "O'Fallon", "state": "Illinois", "zip": "62269", "country": "United States", "geoPoint": {"lat": 38.59227, "lon": -89.91121}}, {"facility": "Research Site", "city": "River Forest", "state": "Illinois", "zip": "60305", "country": "United States", "geoPoint": {"lat": 41.89781, "lon": -87.81395}}, {"facility": "Research Site", "city": "Brownsburg", "state": "Indiana", "zip": "46112", "country": "United States", "geoPoint": {"lat": 39.84338, "lon": -86.39777}}, {"facility": "Research Site", "city": "Michigan City", "state": "Indiana", "zip": "46360", "country": "United States", "geoPoint": {"lat": 41.70754, "lon": -86.89503}}, {"facility": "Research Site", "city": "Fort Mitchell", "state": "Kentucky", "zip": "41017", "country": "United States", "geoPoint": {"lat": 39.0595, "lon": -84.54744}}, {"facility": "Research Site", "city": "Crowley", "state": "Louisiana", "zip": "70526", "country": "United States", "geoPoint": {"lat": 30.21409, "lon": -92.37458}}, {"facility": "Research Site", "city": "Shreveport", "state": "Louisiana", "zip": "71106", "country": "United States", "geoPoint": {"lat": 32.52515, "lon": -93.75018}}, {"facility": "Research Site", "city": "Zachary", "state": "Louisiana", "zip": "70791", "country": "United States", "geoPoint": {"lat": 30.64852, "lon": -91.1565}}, {"facility": "Research Site", "city": "Bangor", "state": "Maine", "zip": "04401", "country": "United States", "geoPoint": {"lat": 44.80118, "lon": -68.77781}}, {"facility": "Research Site", "city": "Chevy Chase", "state": "Maryland", "zip": "20815", "country": "United States", "geoPoint": {"lat": 39.00287, "lon": -77.07115}}, {"facility": "Research Site", "city": "White Marsh", "state": "Maryland", "zip": "21162", "country": "United States", "geoPoint": {"lat": 39.38372, "lon": -76.43218}}, {"facility": "Research Site", "city": "Fall River", "state": "Massachusetts", "zip": "02721", "country": "United States", "geoPoint": {"lat": 41.70149, "lon": -71.15505}}, {"facility": "Research Site", "city": "North Dartmouth", "state": "Massachusetts", "zip": "02747", "country": "United States", "geoPoint": {"lat": 41.63899, "lon": -70.97032}}, {"facility": "Research Site", "city": "Ann Arbor", "state": "Michigan", "zip": "48106", "country": "United States", "geoPoint": {"lat": 42.27756, "lon": -83.74088}}, {"facility": "Research Site", "city": "Farmington Hills", "state": "Michigan", "zip": "48336", "country": "United States", "geoPoint": {"lat": 42.48531, "lon": -83.37716}}, {"facility": "Research Site", "city": "Rochester", "state": "Michigan", "zip": "48307", "country": "United States", "geoPoint": {"lat": 42.68059, "lon": -83.13382}}, {"facility": "Research Site", "city": "Troy", "state": "Michigan", "zip": "48085", "country": "United States", "geoPoint": {"lat": 42.60559, "lon": -83.14993}}, {"facility": "Research Site", "city": "Edina", "state": "Minnesota", "zip": "55435", "country": "United States", "geoPoint": {"lat": 44.88969, "lon": -93.34995}}, {"facility": "Research Site", "city": "Fridley", "state": "Minnesota", "zip": "55432", "country": "United States", "geoPoint": {"lat": 45.08608, "lon": -93.26328}}, {"facility": "Research Site", "city": "Minneapolis", "state": "Minnesota", "zip": "55402", "country": "United States", "geoPoint": {"lat": 44.97997, "lon": -93.26384}}, {"facility": "Research Site", "city": "Minneapolis", "state": "Minnesota", "zip": "55407", "country": "United States", "geoPoint": {"lat": 44.97997, "lon": -93.26384}}, {"facility": "Research Site", "city": "Woodbury", "state": "Minnesota", "zip": "55125", "country": "United States", "geoPoint": {"lat": 44.92386, "lon": -92.95938}}, {"facility": "Research Site", "city": "Chesterfield", "state": "Missouri", "zip": "63017", "country": "United States", "geoPoint": {"lat": 38.66311, "lon": -90.57707}}, {"facility": "Research Site", "city": "Columbia", "state": "Missouri", "zip": "65203", "country": "United States", "geoPoint": {"lat": 38.95171, "lon": -92.33407}}, {"facility": "Research Site", "city": "Saint Charles", "state": "Missouri", "zip": "63301", "country": "United States", "geoPoint": {"lat": 38.78394, "lon": -90.48123}}, {"facility": "Research Site", "city": "Saint Louis", "state": "Missouri", "zip": "63141", "country": "United States", "geoPoint": {"lat": 38.62727, "lon": -90.19789}}, {"facility": "Research Site", "city": "Bellevue", "state": "Nebraska", "zip": "68005", "country": "United States", "geoPoint": {"lat": 41.13667, "lon": -95.89084}}, {"facility": "Research Site", "city": "Bellevue", "state": "Nebraska", "zip": "68123", "country": "United States", "geoPoint": {"lat": 41.13667, "lon": -95.89084}}, {"facility": "Research Site", "city": "Lincoln", "state": "Nebraska", "zip": "68505", "country": "United States", "geoPoint": {"lat": 40.8, "lon": -96.66696}}, {"facility": "Research Site", "city": "Omaha", "state": "Nebraska", "zip": "68114", "country": "United States", "geoPoint": {"lat": 41.25626, "lon": -95.94043}}, {"facility": "Research Site", "city": "Las Vegas", "state": "Nevada", "zip": "89106", "country": "United States", "geoPoint": {"lat": 36.17497, "lon": -115.13722}}, {"facility": "Research Site", "city": "Las Vegas", "state": "Nevada", "zip": "89119", "country": "United States", "geoPoint": {"lat": 36.17497, "lon": -115.13722}}, {"facility": "Research Site", "city": "Las Vegas", "state": "Nevada", "zip": "89146", "country": "United States", "geoPoint": {"lat": 36.17497, "lon": -115.13722}}, {"facility": "Research Site", "city": "Reno", "state": "Nevada", "zip": "89503", "country": "United States", "geoPoint": {"lat": 39.52963, "lon": -119.8138}}, {"facility": "Research Site", "city": "Berlin", "state": "New Jersey", "zip": "08009", "country": "United States", "geoPoint": {"lat": 39.79123, "lon": -74.92905}}, {"facility": "Research Site", "city": "Ocean City", "state": "New Jersey", "zip": "07712", "country": "United States", "geoPoint": {"lat": 39.27762, "lon": -74.5746}}, {"facility": "Research Site", "city": "Skillman", "state": "New Jersey", "zip": "08558", "country": "United States", "geoPoint": {"lat": 40.42011, "lon": -74.7146}}, {"facility": "Research Site", "city": "Toms River", "state": "New Jersey", "zip": "08755", "country": "United States", "geoPoint": {"lat": 39.95373, "lon": -74.19792}}, {"facility": "Research Site", "city": "Albuquerque", "state": "New Mexico", "zip": "87108", "country": "United States", "geoPoint": {"lat": 35.08449, "lon": -106.65114}}, {"facility": "Research Site", "city": "Albuquerque", "state": "New Mexico", "zip": "87109", "country": "United States", "geoPoint": {"lat": 35.08449, "lon": -106.65114}}, {"facility": "Research Site", "city": "Bronx", "state": "New York", "zip": "10455", "country": "United States", "geoPoint": {"lat": 40.84985, "lon": -73.86641}}, {"facility": "Research Site", "city": "Bronx", "state": "New York", "zip": "10468", "country": "United States", "geoPoint": {"lat": 40.84985, "lon": -73.86641}}, {"facility": "Research Site", "city": "Cortland", "state": "New York", "zip": "13045", "country": "United States", "geoPoint": {"lat": 42.60118, "lon": -76.18048}}, {"facility": "Research Site", "city": "New York", "state": "New York", "zip": "10016", "country": "United States", "geoPoint": {"lat": 40.71427, "lon": -74.00597}}, {"facility": "Research Site", "city": "Watertown", "state": "New York", "zip": "13601", "country": "United States", "geoPoint": {"lat": 43.97478, "lon": -75.91076}}, {"facility": "Research Site", "city": "Burlington", "state": "North Carolina", "zip": "27215", "country": "United States", "geoPoint": {"lat": 36.09569, "lon": -79.4378}}, {"facility": "Research Site", "city": "Charlotte", "state": "North Carolina", "zip": "28207", "country": "United States", "geoPoint": {"lat": 35.22709, "lon": -80.84313}}, {"facility": "Research Site", "city": "Charlotte", "state": "North Carolina", "zip": "28277", "country": "United States", "geoPoint": {"lat": 35.22709, "lon": -80.84313}}, {"facility": "Research Site", "city": "Elizabeth City", "state": "North Carolina", "zip": "27909", "country": "United States", "geoPoint": {"lat": 36.2946, "lon": -76.25105}}, {"facility": "Research Site", "city": "Gastonia", "state": "North Carolina", "zip": "28054", "country": "United States", "geoPoint": {"lat": 35.26208, "lon": -81.1873}}, {"facility": "Research Site", "city": "Greensboro", "state": "North Carolina", "zip": "27408", "country": "United States", "geoPoint": {"lat": 36.07264, "lon": -79.79198}}, {"facility": "Research Site", "city": "Hickory", "state": "North Carolina", "zip": "28078", "country": "United States", "geoPoint": {"lat": 35.73319, "lon": -81.3412}}, {"facility": "Research Site", "city": "Huntersville", "state": "North Carolina", "zip": "28078", "country": "United States", "geoPoint": {"lat": 35.41069, "lon": -80.84285}}, {"facility": "Research Site", "city": "Monroe", "state": "North Carolina", "zip": "28112", "country": "United States", "geoPoint": {"lat": 34.98543, "lon": -80.54951}}, {"facility": "Research Site", "city": "Mooresville", "state": "North Carolina", "zip": "28117", "country": "United States", "geoPoint": {"lat": 35.58486, "lon": -80.81007}}, {"facility": "Research Site", "city": "New Bern", "state": "North Carolina", "zip": "28562", "country": "United States", "geoPoint": {"lat": 35.10849, "lon": -77.04411}}, {"facility": "Research Site", "city": "Raleigh", "state": "North Carolina", "zip": "27612", "country": "United States", "geoPoint": {"lat": 35.7721, "lon": -78.63861}}, {"facility": "Research Site", "city": "Winston-Salem", "state": "North Carolina", "zip": "27103", "country": "United States", "geoPoint": {"lat": 36.09986, "lon": -80.24422}}, {"facility": "Research Site", "city": "Fargo", "state": "North Dakota", "zip": "58103", "country": "United States", "geoPoint": {"lat": 46.87719, "lon": -96.7898}}, {"facility": "Research Site", "city": "Fargo", "state": "North Dakota", "zip": "58104", "country": "United States", "geoPoint": {"lat": 46.87719, "lon": -96.7898}}, {"facility": "Research Site", "city": "Cincinnati", "state": "Ohio", "zip": "45219", "country": "United States", "geoPoint": {"lat": 39.12713, "lon": -84.51435}}, {"facility": "Research Site", "city": "Cincinnati", "state": "Ohio", "zip": "45231", "country": "United States", "geoPoint": {"lat": 39.12713, "lon": -84.51435}}, {"facility": "Research Site", "city": "Cincinnati", "state": "Ohio", "zip": "45242", "country": "United States", "geoPoint": {"lat": 39.12713, "lon": -84.51435}}, {"facility": "Research Site", "city": "Columbus", "state": "Ohio", "zip": "43207", "country": "United States", "geoPoint": {"lat": 39.96118, "lon": -82.99879}}, {"facility": "Research Site", "city": "Dayton", "state": "Ohio", "zip": "45419", "country": "United States", "geoPoint": {"lat": 39.75895, "lon": -84.19161}}, {"facility": "Research Site", "city": "Dayton", "state": "Ohio", "zip": "45459", "country": "United States", "geoPoint": {"lat": 39.75895, "lon": -84.19161}}, {"facility": "Research Site", "city": "Dublin", "state": "Ohio", "zip": "43016", "country": "United States", "geoPoint": {"lat": 40.09923, "lon": -83.11408}}, {"facility": "Research Site", "city": "Marion", "state": "Ohio", "zip": "43302", "country": "United States", "geoPoint": {"lat": 40.58867, "lon": -83.12852}}, {"facility": "Research Site", "city": "Wooster", "state": "Ohio", "zip": "44691", "country": "United States", "geoPoint": {"lat": 40.80517, "lon": -81.93646}}, {"facility": "Research Site", "city": "Edmond", "state": "Oklahoma", "zip": "73034", "country": "United States", "geoPoint": {"lat": 35.65283, "lon": -97.4781}}, {"facility": "Research Site", "city": "Oklahoma City", "state": "Oklahoma", "zip": "73131", "country": "United States", "geoPoint": {"lat": 35.46756, "lon": -97.51643}}, {"facility": "Research Site", "city": "Tulsa", "state": "Oklahoma", "zip": "74136", "country": "United States", "geoPoint": {"lat": 36.15398, "lon": -95.99277}}, {"facility": "Research Site", "city": "Clackamas", "state": "Oregon", "zip": "97015-5737", "country": "United States", "geoPoint": {"lat": 45.40762, "lon": -122.57037}}, {"facility": "Research Site", "city": "Medford", "state": "Oregon", "zip": "97504", "country": "United States", "geoPoint": {"lat": 42.32652, "lon": -122.87559}}, {"facility": "Research Site", "city": "Portland", "state": "Oregon", "zip": "97202", "country": "United States", "geoPoint": {"lat": 45.52345, "lon": -122.67621}}, {"facility": "Research Site", "city": "Monroeville", "state": "Pennsylvania", "zip": "15665", "country": "United States", "geoPoint": {"lat": 40.42118, "lon": -79.7881}}, {"facility": "Research Site", "city": "Pittsburgh", "state": "Pennsylvania", "zip": "15236", "country": "United States", "geoPoint": {"lat": 40.44062, "lon": -79.99589}}, {"facility": "Research Site", "city": "Pittsburgh", "state": "Pennsylvania", "zip": "15241", "country": "United States", "geoPoint": {"lat": 40.44062, "lon": -79.99589}}, {"facility": "Research Site", "city": "Wyomissing", "state": "Pennsylvania", "zip": "19610", "country": "United States", "geoPoint": {"lat": 40.32954, "lon": -75.96521}}, {"facility": "Research Site", "city": "East Providence", "state": "Rhode Island", "zip": "02914", "country": "United States", "geoPoint": {"lat": 41.81371, "lon": -71.37005}}, {"facility": "Research Site", "city": "Warwick", "state": "Rhode Island", "zip": "02886", "country": "United States", "geoPoint": {"lat": 41.7001, "lon": -71.41617}}, {"facility": "Research Site", "city": "Anderson", "state": "South Carolina", "zip": "29621", "country": "United States", "geoPoint": {"lat": 34.50344, "lon": -82.65013}}, {"facility": "Research Site", "city": "Charleston", "state": "South Carolina", "zip": "29406", "country": "United States", "geoPoint": {"lat": 32.77657, "lon": -79.93092}}, {"facility": "Research Site", "city": "Gaffney", "state": "South Carolina", "zip": "29340", "country": "United States", "geoPoint": {"lat": 35.07179, "lon": -81.64982}}, {"facility": "Research Site", "city": "Gaffney", "state": "South Carolina", "zip": "29341", "country": "United States", "geoPoint": {"lat": 35.07179, "lon": -81.64982}}, {"facility": "Research Site", "city": "Greenville", "state": "South Carolina", "zip": "29615", "country": "United States", "geoPoint": {"lat": 34.85262, "lon": -82.39401}}, {"facility": "Research Site", "city": "Hodges", "state": "South Carolina", "zip": "29653", "country": "United States", "geoPoint": {"lat": 34.28762, "lon": -82.24429}}, {"facility": "Research Site", "city": "Mount Pleasant", "state": "South Carolina", "zip": "29464", "country": "United States", "geoPoint": {"lat": 32.79407, "lon": -79.86259}}, {"facility": "Research Site", "city": "Myrtle Beach", "state": "South Carolina", "zip": "29588", "country": "United States", "geoPoint": {"lat": 33.68906, "lon": -78.88669}}, {"facility": "Research Site", "city": "Rock Hill", "state": "South Carolina", "zip": "29732", "country": "United States", "geoPoint": {"lat": 34.92487, "lon": -81.02508}}, {"facility": "Research Site", "city": "Spartanburg", "state": "South Carolina", "zip": "29301", "country": "United States", "geoPoint": {"lat": 34.94957, "lon": -81.93205}}, {"facility": "Research Site", "city": "Spartanburg", "state": "South Carolina", "zip": "29303", "country": "United States", "geoPoint": {"lat": 34.94957, "lon": -81.93205}}, {"facility": "Research Site", "city": "Union", "state": "South Carolina", "zip": "29379", "country": "United States", "geoPoint": {"lat": 34.71541, "lon": -81.62371}}, {"facility": "Research Site", "city": "Rapid City", "state": "South Dakota", "zip": "57702", "country": "United States", "geoPoint": {"lat": 44.08054, "lon": -103.23101}}, {"facility": "Research Site", "city": "Franklin", "state": "Tennessee", "zip": "37067", "country": "United States", "geoPoint": {"lat": 35.92506, "lon": -86.86889}}, {"facility": "Research Site", "city": "Hendersonville", "state": "Tennessee", "zip": "37075", "country": "United States", "geoPoint": {"lat": 36.30477, "lon": -86.62}}, {"facility": "Research Site", "city": "Johnson City", "state": "Tennessee", "zip": "37601", "country": "United States", "geoPoint": {"lat": 36.31344, "lon": -82.35347}}, {"facility": "Research Site", "city": "Smyrna", "state": "Tennessee", "zip": "37167", "country": "United States", "geoPoint": {"lat": 35.98284, "lon": -86.5186}}, {"facility": "Research Site", "city": "Amarillo", "state": "Texas", "zip": "79106", "country": "United States", "geoPoint": {"lat": 35.222, "lon": -101.8313}}, {"facility": "Research Site", "city": "Austin", "state": "Texas", "zip": "78759", "country": "United States", "geoPoint": {"lat": 30.26715, "lon": -97.74306}}, {"facility": "Research Site", "city": "Boerne", "state": "Texas", "zip": "78006", "country": "United States", "geoPoint": {"lat": 29.79466, "lon": -98.73197}}, {"facility": "Research Site", "city": "Carrollton", "state": "Texas", "zip": "75007", "country": "United States", "geoPoint": {"lat": 32.95373, "lon": -96.89028}}, {"facility": "Research Site", "city": "Dallas", "state": "Texas", "zip": "75231", "country": "United States", "geoPoint": {"lat": 32.78306, "lon": -96.80667}}, {"facility": "Research Site", "city": "Dallas", "state": "Texas", "zip": "75235", "country": "United States", "geoPoint": {"lat": 32.78306, "lon": -96.80667}}, {"facility": "Research Site", "city": "El Paso", "state": "Texas", "zip": "79903", "country": "United States", "geoPoint": {"lat": 31.75872, "lon": -106.48693}}, {"facility": "Research Site", "city": "Houston", "state": "Texas", "zip": "77058", "country": "United States", "geoPoint": {"lat": 29.76328, "lon": -95.36327}}, {"facility": "Research Site", "city": "Houston", "state": "Texas", "zip": "77074", "country": "United States", "geoPoint": {"lat": 29.76328, "lon": -95.36327}}, {"facility": "Research Site", "city": "Houston", "state": "Texas", "zip": "77099", "country": "United States", "geoPoint": {"lat": 29.76328, "lon": -95.36327}}, {"facility": "Research Site", "city": "Kerrville", "state": "Texas", "zip": "78028", "country": "United States", "geoPoint": {"lat": 30.04743, "lon": -99.14032}}, {"facility": "Research Site", "city": "Killeen", "state": "Texas", "zip": "76542", "country": "United States", "geoPoint": {"lat": 31.11712, "lon": -97.7278}}, {"facility": "Research Site", "city": "Lampasas", "state": "Texas", "zip": "76550", "country": "United States", "geoPoint": {"lat": 31.06378, "lon": -98.1817}}, {"facility": "Research Site", "city": "Live Oak", "state": "Texas", "zip": "78233", "country": "United States", "geoPoint": {"lat": 29.56523, "lon": -98.3364}}, {"facility": "Research Site", "city": "Lufkin", "state": "Texas", "zip": "75904", "country": "United States", "geoPoint": {"lat": 31.33824, "lon": -94.7291}}, {"facility": "Research Site", "city": "Pearland", "state": "Texas", "zip": "77584", "country": "United States", "geoPoint": {"lat": 29.56357, "lon": -95.28605}}, {"facility": "Research Site", "city": "Plano", "state": "Texas", "zip": "75093", "country": "United States", "geoPoint": {"lat": 33.01984, "lon": -96.69889}}, {"facility": "Research Site", "city": "San Antonio", "state": "Texas", "zip": "78205", "country": "United States", "geoPoint": {"lat": 29.42412, "lon": -98.49363}}, {"facility": "Research Site", "city": "San Antonio", "state": "Texas", "zip": "78215", "country": "United States", "geoPoint": {"lat": 29.42412, "lon": -98.49363}}, {"facility": "Research Site", "city": "San Antonio", "state": "Texas", "zip": "78229", "country": "United States", "geoPoint": {"lat": 29.42412, "lon": -98.49363}}, {"facility": "Research Site", "city": "San Antonio", "state": "Texas", "zip": "78258", "country": "United States", "geoPoint": {"lat": 29.42412, "lon": -98.49363}}, {"facility": "Research Site", "city": "Sherman", "state": "Texas", "zip": "75092", "country": "United States", "geoPoint": {"lat": 33.63566, "lon": -96.60888}}, {"facility": "Research Site", "city": "Tomball", "state": "Texas", "zip": "77375", "country": "United States", "geoPoint": {"lat": 30.09716, "lon": -95.61605}}, {"facility": "Research Site", "city": "Waco", "state": "Texas", "zip": "76712", "country": "United States", "geoPoint": {"lat": 31.54933, "lon": -97.14667}}, {"facility": "Research Site", "city": "Murray", "state": "Utah", "zip": "84107", "country": "United States", "geoPoint": {"lat": 40.66689, "lon": -111.88799}}, {"facility": "Research Site", "city": "Salt Lake City", "state": "Utah", "zip": "84102", "country": "United States", "geoPoint": {"lat": 40.76078, "lon": -111.89105}}, {"facility": "Research Site", "city": "Salt Lake City", "state": "Utah", "zip": "84107", "country": "United States", "geoPoint": {"lat": 40.76078, "lon": -111.89105}}, {"facility": "Research Site", "city": "South Burlington", "state": "Vermont", "zip": "05403", "country": "United States", "geoPoint": {"lat": 44.46699, "lon": -73.17096}}, {"facility": "Research Site", "city": "Abingdon", "state": "Virginia", "zip": "24210", "country": "United States", "geoPoint": {"lat": 36.70983, "lon": -81.97735}}, {"facility": "Research Site", "city": "Newport News", "state": "Virginia", "zip": "23606", "country": "United States", "geoPoint": {"lat": 37.08339, "lon": -76.46965}}, {"facility": "Research Site", "city": "Richmond", "state": "Virginia", "zip": "23114", "country": "United States", "geoPoint": {"lat": 37.55376, "lon": -77.46026}}, {"facility": "Research Site", "city": "Richmond", "state": "Virginia", "zip": "23226", "country": "United States", "geoPoint": {"lat": 37.55376, "lon": -77.46026}}, {"facility": "Research Site", "city": "Bellingham", "state": "Washington", "zip": "98225", "country": "United States", "geoPoint": {"lat": 48.75955, "lon": -122.48822}}, {"facility": "Research Site", "city": "Spokane Valley", "state": "Washington", "zip": "99216", "country": "United States", "geoPoint": {"lat": 47.67323, "lon": -117.23937}}, {"facility": "Research Site", "city": "Tacoma", "state": "Washington", "zip": "98405", "country": "United States", "geoPoint": {"lat": 47.25288, "lon": -122.44429}}, {"facility": "Research Site", "city": "Morgantown", "state": "West Virginia", "zip": "26505", "country": "United States", "geoPoint": {"lat": 39.62953, "lon": -79.9559}}, {"facility": "Research Site", "city": "Greenfield", "state": "Wisconsin", "zip": "53228", "country": "United States", "geoPoint": {"lat": 42.9614, "lon": -88.01259}}]}, "referencesModule": {"seeAlsoLinks": [{"label": "Related Info", "url": "https://filehosting-v2.pharmacm.com/api/Attachment/Download?tenantId=80217111&amp;parentIdentifier=PT001102&amp;attachmentIdentifier=16b78123-fc13-4fe3-9372-a54985c559e3&amp;fileName=PT001102_SAP_v1.0_2019_08_Redacted_05052020_PDFA.pdf&amp;versionIdentifier="}, {"label": "Related Info", "url": "https://filehosting-v2.pharmacm.com/api/Attachment/Download?tenantId=80217111&amp;parentIdentifier=PT001102&amp;attachmentIdentifier=62b683f8-2d58-4502-8424-a59e8275b898&amp;fileName=PT001102_Protocol_Amendment_4_V_5.0_08Mar2019_Redacted_PDFA.pdf&amp;versionIdentifier="}]}}, "resultsSection": {"participantFlowModule": {"preAssignmentDetails": "Subjects were randomized in a 2:2:2:2:1 Scheme to follow 1 of the 5 treatment groups.", "recruitmentDetails": "The study randomized subjects at 194 sites in the United States from December 2017 to September 2019. The entire study period was scheduled to take up to approximately 26 weeks for each individual subject from the time of screening through the follow up period.", "groups": [{"id": "FG000", "title": "GP MDI 28.8 \u03bcg", "description": "Glycopyrronium Metered Dose Inhalation 28.8 \u03bcg"}, {"id": "FG001", "title": "GP MDI 14.4 \u03bcg", "description": "Glycopyrronium Metered Dose Inhalation 14.4 \u03bcg"}, {"id": "FG002", "title": "GP MDI 7.2 \u03bcg", "description": "Glycopyrronium Metered Dose Inhalation 7.2\u03bcg"}, {"id": "FG003", "title": "Placebo MDI", "description": "Placebo Metered Dose Inhalation"}, {"id": "FG004", "title": "Spiriva Respimat 2.5 \u03bcg", "description": "Spiriva Respimat 2.5 \u03bcg"}], "periods": [{"title": "Overall Study", "milestones": [{"type": "STARTED", "comment": "6 subjects were excluded due to overlapping IP exposure", "achievements": [{"groupId": "FG000", "numSubjects": "235"}, {"groupId": "FG001", "numSubjects": "240"}, {"groupId": "FG002", "numSubjects": "240"}, {"groupId": "FG003", "numSubjects": "237"}, {"groupId": "FG004", "numSubjects": "119"}]}, {"type": "COMPLETED", "achievements": [{"groupId": "FG000", "numSubjects": "201"}, {"groupId": "FG001", "numSubjects": "201"}, {"groupId": "FG002", "numSubjects": "206"}, {"groupId": "FG003", "numSubjects": "201"}, {"groupId": "FG004", "numSubjects": "105"}]}, {"type": "NOT COMPLETED", "achievements": [{"groupId": "FG000", "numSubjects": "34"}, {"groupId": "FG001", "numSubjects": "39"}, {"groupId": "FG002", "numSubjects": "34"}, {"groupId": "FG003", "numSubjects": "36"}, {"groupId": "FG004", "numSubjects": "14"}]}], "dropWithdraws": [{"type": "Withdrawal by Subject", "reasons": [{"groupId": "FG000", "numSubjects": "13"}, {"groupId": "FG001", "numSubjects": "19"}, {"groupId": "FG002", "numSubjects": "16"}, {"groupId": "FG003", "numSubjects": "10"}, {"groupId": "FG004", "numSubjects": "5"}]}, {"type": "Adverse Event", "reasons": [{"groupId": "FG000", "numSubjects": "3"}, {"groupId": "FG001", "numSubjects": "9"}, {"groupId": "FG002", "numSubjects": "7"}, {"groupId": "FG003", "numSubjects": "5"}, {"groupId": "FG004", "numSubjects": "2"}]}, {"type": "Lost to Follow-up", "reasons": [{"groupId": "FG000", "numSubjects": "4"}, {"groupId": "FG001", "numSubjects": "3"}, {"groupId": "FG002", "numSubjects": "7"}, {"groupId": "FG003", "numSubjects": "6"}, {"groupId": "FG004", "numSubjects": "4"}]}, {"type": "Major Protocol Deviation", "reasons": [{"groupId": "FG000", "numSubjects": "11"}, {"groupId": "FG001", "numSubjects": "3"}, {"groupId": "FG002", "numSubjects": "2"}, {"groupId": "FG003", "numSubjects": "3"}, {"groupId": "FG004", "numSubjects": "1"}]}, {"type": "Protocol specified criteria", "reasons": [{"groupId": "FG000", "numSubjects": "2"}, {"groupId": "FG001", "numSubjects": "3"}, {"groupId": "FG002", "numSubjects": "0"}, {"groupId": "FG003", "numSubjects": "3"}, {"groupId": "FG004", "numSubjects": "1"}]}, {"type": "Physician Decision", "reasons": [{"groupId": "FG000", "numSubjects": "1"}, {"groupId": "FG001", "numSubjects": "0"}, {"groupId": "FG002", "numSubjects": "1"}, {"groupId": "FG003", "numSubjects": "6"}, {"groupId": "FG004", "numSubjects": "1"}]}, {"type": "Administrative reasons", "reasons": [{"groupId": "FG000", "numSubjects": "0"}, {"groupId": "FG001", "numSubjects": "1"}, {"groupId": "FG002", "numSubjects": "0"}, {"groupId": "FG003", "numSubjects": "3"}, {"groupId": "FG004", "numSubjects": "0"}]}, {"type": "Lack of Efficacy", "reasons": [{"groupId": "FG000", "numSubjects": "0"}, {"groupId": "FG001", "numSubjects": "1"}, {"groupId": "FG002", "numSubjects": "1"}, {"groupId": "FG003", "numSubjects": "0"}, {"groupId": "FG004", "numSubjects": "0"}]}]}]}, "baselineCharacteristicsModule": {"groups": [{"id": "BG000", "title": "GP MDI 28.8 \u03bcg", "description": "Glycopyrronium Metered Dose Inhalation 28.8 \u03bcg"}, {"id": "BG001", "title": "GP MDI 14.4 \u03bcg", "description": "Glycopyrronium Metered Dose Inhalation 14.4 \u03bcg"}, {"id": "BG002", "title": "GP MDI 7.2 \u03bcg", "description": "Glycopyrronium Metered Dose Inhalation 7.2\u03bcg"}, {"id": "BG003", "title": "Placebo MDI", "description": "Placebo Metered Dose Inhalation"}, {"id": "BG004", "title": "Spiriva Respimat 2.5 \u03bcg", "description": "Spiriva Respimat 2.5 \u03bcg"}, {"id": "BG005", "title": "Total", "description": "Total of all reporting groups"}], "denoms": [{"units": "Participants", "counts": [{"groupId": "BG000", "value": "235"}, {"groupId": "BG001", "value": "240"}, {"groupId": "BG002", "value": "240"}, {"groupId": "BG003", "value": "237"}, {"groupId": "BG004", "value": "119"}, {"groupId": "BG005", "value": "1071"}]}], "measures": [{"title": "Age, Continuous", "populationDescription": "Safety Population", "paramType": "MEAN", "dispersionType": "STANDARD_DEVIATION", "unitOfMeasure": "Years", "classes": [{"categories": [{"measurements": [{"groupId": "BG000", "value": "48.4", "spread": "15.1"}, {"groupId": "BG001", "value": "47.7", "spread": "16.8"}, {"groupId": "BG002", "value": "46.7", "spread": "15.5"}, {"groupId": "BG003", "value": "47.1", "spread": "16.2"}, {"groupId": "BG004", "value": "49.8", "spread": "15.3"}, {"groupId": "BG005", "value": "47.7", "spread": "15.8"}]}]}]}, {"title": "Sex: Female, Male", "populationDescription": "Safety Population", "paramType": "COUNT_OF_PARTICIPANTS", "unitOfMeasure": "Participants", "classes": [{"categories": [{"title": "Female", "measurements": [{"groupId": "BG000", "value": "146"}, {"groupId": "BG001", "value": "153"}, {"groupId": "BG002", "value": "151"}, {"groupId": "BG003", "value": "134"}, {"groupId": "BG004", "value": "76"}, {"groupId": "BG005", "value": "660"}]}, {"title": "Male", "measurements": [{"groupId": "BG000", "value": "89"}, {"groupId": "BG001", "value": "87"}, {"groupId": "BG002", "value": "89"}, {"groupId": "BG003", "value": "103"}, {"groupId": "BG004", "value": "43"}, {"groupId": "BG005", "value": "411"}]}]}]}, {"title": "Ethnicity (NIH/OMB)", "populationDescription": "Safety Population", "paramType": "COUNT_OF_PARTICIPANTS", "unitOfMeasure": "Participants", "classes": [{"categories": [{"title": "Hispanic or Latino", "measurements": [{"groupId": "BG000", "value": "36"}, {"groupId": "BG001", "value": "61"}, {"groupId": "BG002", "value": "52"}, {"groupId": "BG003", "value": "51"}, {"groupId": "BG004", "value": "21"}, {"groupId": "BG005", "value": "221"}]}, {"title": "Not Hispanic or Latino", "measurements": [{"groupId": "BG000", "value": "198"}, {"groupId": "BG001", "value": "179"}, {"groupId": "BG002", "value": "186"}, {"groupId": "BG003", "value": "186"}, {"groupId": "BG004", "value": "98"}, {"groupId": "BG005", "value": "847"}]}, {"title": "Unknown or Not Reported", "measurements": [{"groupId": "BG000", "value": "1"}, {"groupId": "BG001", "value": "0"}, {"groupId": "BG002", "value": "2"}, {"groupId": "BG003", "value": "0"}, {"groupId": "BG004", "value": "0"}, {"groupId": "BG005", "value": "3"}]}]}]}, {"title": "Race (NIH/OMB)", "populationDescription": "Safety Population", "paramType": "COUNT_OF_PARTICIPANTS", "unitOfMeasure": "Participants", "classes": [{"categories": [{"title": "American Indian or Alaska Native", "measurements": [{"groupId": "BG000", "value": "0"}, {"groupId": "BG001", "value": "1"}, {"groupId": "BG002", "value": "3"}, {"groupId": "BG003", "value": "0"}, {"groupId": "BG004", "value": "1"}, {"groupId": "BG005", "value": "5"}]}, {"title": "Asian", "measurements": [{"groupId": "BG000", "value": "6"}, {"groupId": "BG001", "value": "1"}, {"groupId": "BG002", "value": "6"}, {"groupId": "BG003", "value": "2"}, {"groupId": "BG004", "value": "0"}, {"groupId": "BG005", "value": "15"}]}, {"title": "Native Hawaiian or Other Pacific Islander", "measurements": [{"groupId": "BG000", "value": "1"}, {"groupId": "BG001", "value": "0"}, {"groupId": "BG002", "value": "0"}, {"groupId": "BG003", "value": "0"}, {"groupId": "BG004", "value": "0"}, {"groupId": "BG005", "value": "1"}]}, {"title": "Black or African American", "measurements": [{"groupId": "BG000", "value": "62"}, {"groupId": "BG001", "value": "68"}, {"groupId": "BG002", "value": "52"}, {"groupId": "BG003", "value": "52"}, {"groupId": "BG004", "value": "25"}, {"groupId": "BG005", "value": "259"}]}, {"title": "White", "measurements": [{"groupId": "BG000", "value": "165"}, {"groupId": "BG001", "value": "168"}, {"groupId": "BG002", "value": "177"}, {"groupId": "BG003", "value": "179"}, {"groupId": "BG004", "value": "93"}, {"groupId": "BG005", "value": "782"}]}, {"title": "More than one race", "measurements": [{"groupId": "BG000", "value": "0"}, {"groupId": "BG001", "value": "0"}, {"groupId": "BG002", "value": "0"}, {"groupId": "BG003", "value": "0"}, {"groupId": "BG004", "value": "0"}, {"groupId": "BG005", "value": "0"}]}, {"title": "Unknown or Not Reported", "measurements": [{"groupId": "BG000", "value": "1"}, {"groupId": "BG001", "value": "2"}, {"groupId": "BG002", "value": "2"}, {"groupId": "BG003", "value": "4"}, {"groupId": "BG004", "value": "0"}, {"groupId": "BG005", "value": "9"}]}]}]}]}, "outcomeMeasuresModule": {"outcomeMeasures": [{"type": "PRIMARY", "title": "Change From Baseline in Forced Expiratory Volume in 1 Second (FEV1) Area Under the Curve From 0 to 4 Hours (AUC0-4)", "description": "Change from baseline in forced expiratory volume in 1 second (FEV1) area under the curve from 0 to 4 hours (AUC0-4)AUC was normalized for length of follow up (e.g. typically 4 hours).", "populationDescription": "mITT Population", "reportingStatus": "POSTED", "paramType": "LEAST_SQUARES_MEAN", "dispersionType": "95% Confidence Interval", "unitOfMeasure": "Liter", "timeFrame": "Week 24", "groups": [{"id": "OG000", "title": "GP MDI 28.8 \u03bcg", "description": "Glycopyrronium Metered Dose Inhalation 28.8 \u03bcg"}, {"id": "OG001", "title": "GP MDI 14.4 \u03bcg", "description": "Glycopyrronium Metered Dose Inhalation 14.4 \u03bcg"}, {"id": "OG002", "title": "GP MDI 7.2 \u03bcg", "description": "Glycopyrronium Metered Dose Inhalation 7.2\u03bcg"}, {"id": "OG003", "title": "Placebo MDI", "description": "Placebo Metered Dose Inhalation"}, {"id": "OG004", "title": "Spiriva Respimat 2.5 \u03bcg", "description": "Spiriva Respimat 2.5 \u03bcg"}], "denoms": [{"units": "Participants", "counts": [{"groupId": "OG000", "value": "195"}, {"groupId": "OG001", "value": "199"}, {"groupId": "OG002", "value": "205"}, {"groupId": "OG003", "value": "196"}, {"groupId": "OG004", "value": "103"}]}], "classes": [{"categories": [{"measurements": [{"groupId": "OG000", "value": "0.294", "lowerLimit": "0.248", "upperLimit": "0.341"}, {"groupId": "OG001", "value": "0.284", "lowerLimit": "0.238", "upperLimit": "0.331"}, {"groupId": "OG002", "value": "0.308", "lowerLimit": "0.263", "upperLimit": "0.354"}, {"groupId": "OG003", "value": "0.240", "lowerLimit": "0.194", "upperLimit": "0.287"}, {"groupId": "OG004", "value": "0.347", "lowerLimit": "0.282", "upperLimit": "0.412"}]}]}]}, {"type": "SECONDARY", "title": "Change From Baseline in Morning Pre-dose Trough FEV1", "populationDescription": "mITT Population", "reportingStatus": "POSTED", "paramType": "LEAST_SQUARES_MEAN", "dispersionType": "95% Confidence Interval", "unitOfMeasure": "Liter", "timeFrame": "Week 24", "groups": [{"id": "OG000", "title": "GP MDI 28.8 \u03bcg", "description": "Glycopyrronium Metered Dose Inhalation 28.8 \u03bcg"}, {"id": "OG001", "title": "GP MDI 14.4 \u03bcg", "description": "Glycopyrronium Metered Dose Inhalation 14.4 \u03bcg"}, {"id": "OG002", "title": "GP MDI 7.2 \u03bcg", "description": "Glycopyrronium Metered Dose Inhalation 7.2\u03bcg"}, {"id": "OG003", "title": "Placebo MDI", "description": "Placebo Metered Dose Inhalation"}, {"id": "OG004", "title": "Spiriva Respimat 2.5 \u03bcg", "description": "Spiriva Respimat 2.5 \u03bcg"}], "denoms": [{"units": "Participants", "counts": [{"groupId": "OG000", "value": "196"}, {"groupId": "OG001", "value": "199"}, {"groupId": "OG002", "value": "205"}, {"groupId": "OG003", "value": "198"}, {"groupId": "OG004", "value": "102"}]}], "classes": [{"categories": [{"measurements": [{"groupId": "OG000", "value": "0.142", "lowerLimit": "0.097", "upperLimit": "0.188"}, {"groupId": "OG001", "value": "0.108", "lowerLimit": "0.063", "upperLimit": "0.153"}, {"groupId": "OG002", "value": "0.142", "lowerLimit": "0.098", "upperLimit": "0.187"}, {"groupId": "OG003", "value": "0.129", "lowerLimit": "0.084", "upperLimit": "0.174"}, {"groupId": "OG004", "value": "0.150", "lowerLimit": "0.087", "upperLimit": "0.213"}]}]}]}, {"type": "SECONDARY", "title": "Rate of Moderate to Severe Asthma Exacerbations", "description": "Rate of moderate to severe Asthma exacerbations (A deterioration of asthma requiring a new or increased dose of ICS for at least 3 days) or severe Asthma exacerbation (Use of systemic corticosteroids (tablets, suspension, or injection) for at least 3 days OR a hospitalization or ER visit because of asthma)", "populationDescription": "mITT Population", "reportingStatus": "POSTED", "paramType": "MEAN", "dispersionType": "Standard Error", "unitOfMeasure": "Events per year", "timeFrame": "over 24 Weeks (timepoints of 4, 12 & 20 weeks)", "groups": [{"id": "OG000", "title": "GP MDI 28.8 \u03bcg", "description": "Glycopyrronium Metered Dose Inhalation 28.8 \u03bcg"}, {"id": "OG001", "title": "GP MDI 14.4 \u03bcg", "description": "Glycopyrronium Metered Dose Inhalation 14.4 \u03bcg"}, {"id": "OG002", "title": "GP MDI 7.2 \u03bcg", "description": "Glycopyrronium Metered Dose Inhalation 7.2\u03bcg"}, {"id": "OG003", "title": "Placebo MDI", "description": "Placebo Metered Dose Inhalation"}, {"id": "OG004", "title": "Spiriva Respimat 2.5 \u03bcg", "description": "Spiriva Respimat 2.5 \u03bcg"}], "denoms": [{"units": "Participants", "counts": [{"groupId": "OG000", "value": "231"}, {"groupId": "OG001", "value": "240"}, {"groupId": "OG002", "value": "240"}, {"groupId": "OG003", "value": "237"}, {"groupId": "OG004", "value": "118"}]}], "classes": [{"categories": [{"measurements": [{"groupId": "OG000", "value": "0.43", "spread": "0.078"}, {"groupId": "OG001", "value": "0.44", "spread": "0.080"}, {"groupId": "OG002", "value": "0.41", "spread": "0.076"}, {"groupId": "OG003", "value": "0.55", "spread": "0.092"}, {"groupId": "OG004", "value": "0.50", "spread": "0.123"}]}]}]}, {"type": "SECONDARY", "title": "Change From Baseline in ACQ-7 (Asthma Control Questionnaire)", "description": "ACQ-7: The ACQ, comprising 7 questions, is completed in the clinic and requires subjects to recall their experiences during the previous week (7 days) prior to the study visit. The ACQ-5 measures 5 symptoms (woken at night by symptoms, wake in the morning with symptoms, limitation of daily activities, shortness of breath, and wheeze); the ACQ-6 is these symptom measurements plus daily rescue medication use as recalled by the subject; and the ACQ 7 is the ACQ 6 plus airway caliber as measured by pre-bronchodilator FEV1 percent predicted. Each question is scored on a 7-point scale (generally, 0=no impairment, 6=maximum impairment), the questions are equally weighted, and the ACQ score is the mean of the item responses and therefore ranges from 0 (totally controlled) to 6 (severely uncontrolled.", "populationDescription": "mITT Population", "reportingStatus": "POSTED", "paramType": "LEAST_SQUARES_MEAN", "dispersionType": "95% Confidence Interval", "unitOfMeasure": "Scores on a scale", "timeFrame": "Week 24", "groups": [{"id": "OG000", "title": "GP MDI 28.8 \u03bcg", "description": "Glycopyrronium Metered Dose Inhalation 28.8 \u03bcg"}, {"id": "OG001", "title": "GP MDI 14.4 \u03bcg", "description": "Glycopyrronium Metered Dose Inhalation 14.4 \u03bcg"}, {"id": "OG002", "title": "GP MDI 7.2 \u03bcg", "description": "Glycopyrronium Metered Dose Inhalation 7.2\u03bcg"}, {"id": "OG003", "title": "Placebo MDI", "description": "Placebo Metered Dose Inhalation"}, {"id": "OG004", "title": "Spiriva Respimat 2.5 \u03bcg", "description": "Spiriva Respimat 2.5 \u03bcg"}], "denoms": [{"units": "Participants", "counts": [{"groupId": "OG000", "value": "189"}, {"groupId": "OG001", "value": "189"}, {"groupId": "OG002", "value": "194"}, {"groupId": "OG003", "value": "187"}, {"groupId": "OG004", "value": "93"}]}], "classes": [{"categories": [{"measurements": [{"groupId": "OG000", "value": "-0.78", "lowerLimit": "-0.89", "upperLimit": "-0.66"}, {"groupId": "OG001", "value": "-0.73", "lowerLimit": "-0.84", "upperLimit": "-0.62"}, {"groupId": "OG002", "value": "-0.90", "lowerLimit": "-1.01", "upperLimit": "-0.79"}, {"groupId": "OG003", "value": "-0.80", "lowerLimit": "-0.91", "upperLimit": "-0.69"}, {"groupId": "OG004", "value": "-0.90", "lowerLimit": "-1.06", "upperLimit": "-0.74"}]}]}]}, {"type": "SECONDARY", "title": "Change From Baseline in ACQ-5 (Asthma Control Questionnaire)", "description": "ACQ-5:The ACQ-5 measures 5 symptoms (woken at night by symptoms, wake in the morning with symptoms, limitation of daily activities, shortness of breath, and wheeze). Each question is scored on a 7-point scale (generally, 0=no impairment, 6=maximum impairment), the questions are equally weighted, and the ACQ score is the mean of the item responses and therefore ranges from 0 (totally controlled) to 6 (severely uncontrolled).", "populationDescription": "mITT Population", "reportingStatus": "POSTED", "paramType": "LEAST_SQUARES_MEAN", "dispersionType": "95% Confidence Interval", "unitOfMeasure": "Scores on a scale", "timeFrame": "Week 24", "groups": [{"id": "OG000", "title": "GP MDI 28.8 \u03bcg", "description": "Glycopyrronium Metered Dose Inhalation 28.8 \u03bcg"}, {"id": "OG001", "title": "GP MDI 14.4 \u03bcg", "description": "Glycopyrronium Metered Dose Inhalation 14.4 \u03bcg"}, {"id": "OG002", "title": "GP MDI 7.2 \u03bcg", "description": "Glycopyrronium Metered Dose Inhalation 7.2\u03bcg"}, {"id": "OG003", "title": "Placebo MDI", "description": "Placebo Metered Dose Inhalation"}, {"id": "OG004", "title": "Spiriva Respimat 2.5 \u03bcg", "description": "Spiriva Respimat 2.5 \u03bcg"}], "denoms": [{"units": "Participants", "counts": [{"groupId": "OG000", "value": "195"}, {"groupId": "OG001", "value": "198"}, {"groupId": "OG002", "value": "196"}, {"groupId": "OG003", "value": "196"}, {"groupId": "OG004", "value": "98"}]}], "classes": [{"categories": [{"measurements": [{"groupId": "OG000", "value": "-0.87", "lowerLimit": "-1.00", "upperLimit": "-0.73"}, {"groupId": "OG001", "value": "-0.80", "lowerLimit": "-0.93", "upperLimit": "-0.67"}, {"groupId": "OG002", "value": "-1.02", "lowerLimit": "-1.15", "upperLimit": "-0.89"}, {"groupId": "OG003", "value": "-0.93", "lowerLimit": "-1.06", "upperLimit": "-0.80"}, {"groupId": "OG004", "value": "-1.03", "lowerLimit": "-1.22", "upperLimit": "-0.85"}]}]}]}, {"type": "SECONDARY", "title": "Change From Baseline in Asthma Quality of Life Questionnaire for 12 Years and Older (AQLQ +12)", "description": "AQLQ +12 - Asthma Quality of Life Questionnaire The AQLQ +12 is a 32-item validated subject-administered questionnaire that was developed to measure the functional problems (physical, emotional, social and occupational) that are most troublesome to adults (\u226518 years of age) and adolescents (12 to 17 years of age) with asthma. The 32 questions in the AQLQ +12 are in 4 domains (symptoms, activity limitation, emotional function, and environmental stimuli). All 4 domains contain standard specific questions relating to each domain. Subjects are asked to think about how they have been during the previous 2 weeks. Responses to each of the 32 questions are on a 7-point scale (7=no impairment to 1=severe impairment). The overall AQLQ +12 score is the mean of all 32 responses. Overall scores range from 1=severe impairment to 7=no impairment.", "populationDescription": "mITT Population", "reportingStatus": "POSTED", "paramType": "LEAST_SQUARES_MEAN", "dispersionType": "95% Confidence Interval", "unitOfMeasure": "Scores on a scale", "timeFrame": "Week 24", "groups": [{"id": "OG000", "title": "GP MDI 28.8 \u03bcg", "description": "Glycopyrronium Metered Dose Inhalation 28.8 \u03bcg"}, {"id": "OG001", "title": "GP MDI 14.4 \u03bcg", "description": "Glycopyrronium Metered Dose Inhalation 14.4 \u03bcg"}, {"id": "OG002", "title": "GP MDI 7.2 \u03bcg", "description": "Glycopyrronium Metered Dose Inhalation 7.2\u03bcg"}, {"id": "OG003", "title": "Placebo MDI", "description": "Placebo Metered Dose Inhalation"}, {"id": "OG004", "title": "Spiriva Respimat 2.5 \u03bcg", "description": "Spiriva Respimat 2.5 \u03bcg"}], "denoms": [{"units": "Participants", "counts": [{"groupId": "OG000", "value": "191"}, {"groupId": "OG001", "value": "191"}, {"groupId": "OG002", "value": "191"}, {"groupId": "OG003", "value": "188"}, {"groupId": "OG004", "value": "94"}]}], "classes": [{"categories": [{"measurements": [{"groupId": "OG000", "value": "0.89", "lowerLimit": "0.74", "upperLimit": "1.04"}, {"groupId": "OG001", "value": "0.90", "lowerLimit": "0.75", "upperLimit": "1.04"}, {"groupId": "OG002", "value": "1.02", "lowerLimit": "0.87", "upperLimit": "1.16"}, {"groupId": "OG003", "value": "0.96", "lowerLimit": "0.82", "upperLimit": "1.11"}, {"groupId": "OG004", "value": "1.04", "lowerLimit": "0.84", "upperLimit": "1.25"}]}]}]}]}, "adverseEventsModule": {"frequencyThreshold": "5", "timeFrame": "Serious Adverse events were collected from the time subject signed Informed Consent to the time of the final follow-up telephone call up to approximately 30 weeks. Adverse Events were collected from the time subject was randomized up to approximately 26 weeks.", "description": "The safety analysis set was defined as data from all subjects who were randomized to treatment and received any amount of the study treatment", "eventGroups": [{"id": "EG000", "title": "GP MDI 28.8 \u03bcg", "description": "Glycopyrronium Metered Dose Inhalation 28.8 \u03bcg", "deathsNumAffected": 0, "deathsNumAtRisk": 235, "seriousNumAffected": 9, "seriousNumAtRisk": 235, "otherNumAffected": 33, "otherNumAtRisk": 235}, {"id": "EG001", "title": "GP MDI 14.4 \u03bcg", "description": "Glycopyrronium Metered Dose Inhalation 14.4 \u03bcg", "deathsNumAffected": 0, "deathsNumAtRisk": 240, "seriousNumAffected": 7, "seriousNumAtRisk": 240, "otherNumAffected": 35, "otherNumAtRisk": 240}, {"id": "EG002", "title": "GP MDI 7.2 \u03bcg", "description": "Glycopyrronium Metered Dose Inhalation 7.2\u03bcg", "deathsNumAffected": 0, "deathsNumAtRisk": 240, "seriousNumAffected": 6, "seriousNumAtRisk": 240, "otherNumAffected": 33, "otherNumAtRisk": 240}, {"id": "EG003", "title": "Placebo MDI", "description": "Placebo Metered Dose Inhalation", "deathsNumAffected": 0, "deathsNumAtRisk": 237, "seriousNumAffected": 7, "seriousNumAtRisk": 237, "otherNumAffected": 29, "otherNumAtRisk": 237}, {"id": "EG004", "title": "Spiriva Respimat 2.5 \u03bcg", "description": "Spiriva Respimat 2.5 \u03bcg", "deathsNumAffected": 0, "deathsNumAtRisk": 119, "seriousNumAffected": 2, "seriousNumAtRisk": 119, "otherNumAffected": 14, "otherNumAtRisk": 119}], "seriousEvents": [{"term": "Urinary tract infection", "organSystem": "Infections and infestations", "sourceVocabulary": "MedDRA", "assessmentType": "SYSTEMATIC_ASSESSMENT", "stats": [{"groupId": "EG000", "numEvents": 0, "numAffected": 0, "numAtRisk": 235}, {"groupId": "EG001", "numEvents": 1, "numAffected": 1, "numAtRisk": 240}, {"groupId": "EG002", "numEvents": 0, "numAffected": 0, "numAtRisk": 240}, {"groupId": "EG003", "numEvents": 0, "numAffected": 0, "numAtRisk": 237}, {"groupId": "EG004", "numEvents": 0, "numAffected": 0, "numAtRisk": 119}]}, {"term": "Influenza", "organSystem": "Infections and infestations", "sourceVocabulary": "MedDRA", "assessmentType": "SYSTEMATIC_ASSESSMENT", "stats": [{"groupId": "EG000", "numEvents": 0, "numAffected": 0, "numAtRisk": 235}, {"groupId": "EG001", "numEvents": 0, "numAffected": 0, "numAtRisk": 240}, {"groupId": "EG002", "numEvents": 0, "numAffected": 0, "numAtRisk": 240}, {"groupId": "EG003", "numEvents": 1, "numAffected": 1, "numAtRisk": 237}, {"groupId": "EG004", "numEvents": 1, "numAffected": 1, "numAtRisk": 119}]}, {"term": "Cellulitis", "organSystem": "Infections and infestations", "sourceVocabulary": "MedDRA", "assessmentType": "SYSTEMATIC_ASSESSMENT", "stats": [{"groupId": "EG000", "numEvents": 0, "numAffected": 0, "numAtRisk": 235}, {"groupId": "EG001", "numEvents": 1, "numAffected": 1, "numAtRisk": 240}, {"groupId": "EG002", "numEvents": 0, "numAffected": 0, "numAtRisk": 240}, {"groupId": "EG003", "numEvents": 1, "numAffected": 1, "numAtRisk": 237}, {"groupId": "EG004", "numEvents": 0, "numAffected": 0, "numAtRisk": 119}]}, {"term": "Pneumonia", "organSystem": "Infections and infestations", "sourceVocabulary": "MedDRA", "assessmentType": "SYSTEMATIC_ASSESSMENT", "stats": [{"groupId": "EG000", "numEvents": 2, "numAffected": 2, "numAtRisk": 235}, {"groupId": "EG001", "numEvents": 0, "numAffected": 0, "numAtRisk": 240}, {"groupId": "EG002", "numEvents": 1, "numAffected": 1, "numAtRisk": 240}, {"groupId": "EG003", "numEvents": 0, "numAffected": 0, "numAtRisk": 237}, {"groupId": "EG004", "numEvents": 0, "numAffected": 0, "numAtRisk": 119}]}, {"term": "Arthritis infective", "organSystem": "Infections and infestations", "sourceVocabulary": "MedDRA", "assessmentType": "SYSTEMATIC_ASSESSMENT", "stats": [{"groupId": "EG000", "numEvents": 0, "numAffected": 0, "numAtRisk": 235}, {"groupId": "EG001", "numEvents": 0, "numAffected": 0, "numAtRisk": 240}, {"groupId": "EG002", "numEvents": 1, "numAffected": 1, "numAtRisk": 240}, {"groupId": "EG003", "numEvents": 0, "numAffected": 0, "numAtRisk": 237}, {"groupId": "EG004", "numEvents": 0, "numAffected": 0, "numAtRisk": 119}]}, {"term": "Kindey infection", "organSystem": "Infections and infestations", "sourceVocabulary": "medDRA", "assessmentType": "SYSTEMATIC_ASSESSMENT", "stats": [{"groupId": "EG000", "numEvents": 0, "numAffected": 0, "numAtRisk": 235}, {"groupId": "EG001", "numEvents": 1, "numAffected": 1, "numAtRisk": 240}, {"groupId": "EG002", "numEvents": 0, "numAffected": 0, "numAtRisk": 240}, {"groupId": "EG003", "numEvents": 0, "numAffected": 0, "numAtRisk": 237}, {"groupId": "EG004", "numEvents": 0, "numAffected": 0, "numAtRisk": 119}]}, {"term": "Klebsiella bacteraemia", "organSystem": "Infections and infestations", "sourceVocabulary": "MedDRA", "assessmentType": "SYSTEMATIC_ASSESSMENT", "stats": [{"groupId": "EG000", "numEvents": 1, "numAffected": 1, "numAtRisk": 235}, {"groupId": "EG001", "numEvents": 0, "numAffected": 0, "numAtRisk": 240}, {"groupId": "EG002", "numEvents": 0, "numAffected": 0, "numAtRisk": 240}, {"groupId": "EG003", "numEvents": 0, "numAffected": 0, "numAtRisk": 237}, {"groupId": "EG004", "numEvents": 0, "numAffected": 0, "numAtRisk": 119}]}, {"term": "Metapneumovirus infection", "organSystem": "Infections and infestations", "sourceVocabulary": "MedDRA", "assessmentType": "SYSTEMATIC_ASSESSMENT", "stats": [{"groupId": "EG000", "numEvents": 0, "numAffected": 0, "numAtRisk": 235}, {"groupId": "EG001", "numEvents": 0, "numAffected": 0, "numAtRisk": 240}, {"groupId": "EG002", "numEvents": 1, "numAffected": 1, "numAtRisk": 240}, {"groupId": "EG003", "numEvents": 0, "numAffected": 0, "numAtRisk": 237}, {"groupId": "EG004", "numEvents": 0, "numAffected": 0, "numAtRisk": 119}]}, {"term": "Pneumonia viral", "organSystem": "Infections and infestations", "sourceVocabulary": "MedDRA", "assessmentType": "SYSTEMATIC_ASSESSMENT", "stats": [{"groupId": "EG000", "numEvents": 0, "numAffected": 0, "numAtRisk": 235}, {"groupId": "EG001", "numEvents": 1, "numAffected": 1, "numAtRisk": 240}, {"groupId": "EG002", "numEvents": 0, "numAffected": 0, "numAtRisk": 240}, {"groupId": "EG003", "numEvents": 0, "numAffected": 0, "numAtRisk": 237}, {"groupId": "EG004", "numEvents": 0, "numAffected": 0, "numAtRisk": 119}]}, {"term": "Sepsis", "organSystem": "Infections and infestations", "sourceVocabulary": "MedDRA", "assessmentType": "SYSTEMATIC_ASSESSMENT", "stats": [{"groupId": "EG000", "numEvents": 1, "numAffected": 1, "numAtRisk": 235}, {"groupId": "EG001", "numEvents": 0, "numAffected": 0, "numAtRisk": 240}, {"groupId": "EG002", "numEvents": 0, "numAffected": 0, "numAtRisk": 240}, {"groupId": "EG003", "numEvents": 0, "numAffected": 0, "numAtRisk": 237}, {"groupId": "EG004", "numEvents": 0, "numAffected": 0, "numAtRisk": 119}]}, {"term": "Asthma", "organSystem": "Respiratory, thoracic and mediastinal disorders", "sourceVocabulary": "MedDRA", "assessmentType": "SYSTEMATIC_ASSESSMENT", "stats": [{"groupId": "EG000", "numEvents": 1, "numAffected": 1, "numAtRisk": 235}, {"groupId": "EG001", "numEvents": 0, "numAffected": 0, "numAtRisk": 240}, {"groupId": "EG002", "numEvents": 2, "numAffected": 2, "numAtRisk": 240}, {"groupId": "EG003", "numEvents": 1, "numAffected": 1, "numAtRisk": 237}, {"groupId": "EG004", "numEvents": 1, "numAffected": 1, "numAtRisk": 119}]}, {"term": "Pulmonary embolism", "organSystem": "Respiratory, thoracic and mediastinal disorders", "sourceVocabulary": "MedDRA", "assessmentType": "SYSTEMATIC_ASSESSMENT", "stats": [{"groupId": "EG000", "numEvents": 0, "numAffected": 0, "numAtRisk": 235}, {"groupId": "EG001", "numEvents": 1, "numAffected": 1, "numAtRisk": 240}, {"groupId": "EG002", "numEvents": 0, "numAffected": 0, "numAtRisk": 240}, {"groupId": "EG003", "numEvents": 0, "numAffected": 0, "numAtRisk": 237}, {"groupId": "EG004", "numEvents": 0, "numAffected": 0, "numAtRisk": 119}]}, {"term": "Respiratory failure", "organSystem": "Respiratory, thoracic and mediastinal disorders", "sourceVocabulary": "MedDRA", "assessmentType": "SYSTEMATIC_ASSESSMENT", "stats": [{"groupId": "EG000", "numEvents": 1, "numAffected": 1, "numAtRisk": 235}, {"groupId": "EG001", "numEvents": 0, "numAffected": 0, "numAtRisk": 240}, {"groupId": "EG002", "numEvents": 0, "numAffected": 0, "numAtRisk": 240}, {"groupId": "EG003", "numEvents": 0, "numAffected": 0, "numAtRisk": 237}, {"groupId": "EG004", "numEvents": 0, "numAffected": 0, "numAtRisk": 119}]}, {"term": "Concussion", "organSystem": "Injury, poisoning and procedural complications", "sourceVocabulary": "MedDRA", "assessmentType": "SYSTEMATIC_ASSESSMENT", "stats": [{"groupId": "EG000", "numEvents": 0, "numAffected": 0, "numAtRisk": 235}, {"groupId": "EG001", "numEvents": 1, "numAffected": 1, "numAtRisk": 240}, {"groupId": "EG002", "numEvents": 0, "numAffected": 0, "numAtRisk": 240}, {"groupId": "EG003", "numEvents": 0, "numAffected": 0, "numAtRisk": 237}, {"groupId": "EG004", "numEvents": 0, "numAffected": 0, "numAtRisk": 119}]}, {"term": "Cerbrovascular accident", "organSystem": "Nervous system disorders", "sourceVocabulary": "MedDRA", "assessmentType": "SYSTEMATIC_ASSESSMENT", "stats": [{"groupId": "EG000", "numEvents": 0, "numAffected": 0, "numAtRisk": 235}, {"groupId": "EG001", "numEvents": 0, "numAffected": 0, "numAtRisk": 240}, {"groupId": "EG002", "numEvents": 0, "numAffected": 0, "numAtRisk": 240}, {"groupId": "EG003", "numEvents": 1, "numAffected": 1, "numAtRisk": 237}, {"groupId": "EG004", "numEvents": 0, "numAffected": 0, "numAtRisk": 119}]}, {"term": "Adverse drug reaction", "organSystem": "General disorders", "sourceVocabulary": "MedDRA", "assessmentType": "SYSTEMATIC_ASSESSMENT", "stats": [{"groupId": "EG000", "numEvents": 0, "numAffected": 0, "numAtRisk": 235}, {"groupId": "EG001", "numEvents": 0, "numAffected": 0, "numAtRisk": 240}, {"groupId": "EG002", "numEvents": 1, "numAffected": 1, "numAtRisk": 240}, {"groupId": "EG003", "numEvents": 0, "numAffected": 0, "numAtRisk": 237}, {"groupId": "EG004", "numEvents": 0, "numAffected": 0, "numAtRisk": 119}]}, {"term": "Non cardiac chest pain", "organSystem": "General disorders", "sourceVocabulary": "MedDRA", "assessmentType": "SYSTEMATIC_ASSESSMENT", "stats": [{"groupId": "EG000", "numEvents": 0, "numAffected": 0, "numAtRisk": 235}, {"groupId": "EG001", "numEvents": 1, "numAffected": 1, "numAtRisk": 240}, {"groupId": "EG002", "numEvents": 0, "numAffected": 0, "numAtRisk": 240}, {"groupId": "EG003", "numEvents": 0, "numAffected": 0, "numAtRisk": 237}, {"groupId": "EG004", "numEvents": 0, "numAffected": 0, "numAtRisk": 119}]}, {"term": "Dehydration", "organSystem": "Metabolism and nutrition disorders", "sourceVocabulary": "MedDRA", "assessmentType": "SYSTEMATIC_ASSESSMENT", "stats": [{"groupId": "EG000", "numEvents": 0, "numAffected": 0, "numAtRisk": 235}, {"groupId": "EG001", "numEvents": 1, "numAffected": 1, "numAtRisk": 240}, {"groupId": "EG002", "numEvents": 0, "numAffected": 0, "numAtRisk": 240}, {"groupId": "EG003", "numEvents": 0, "numAffected": 0, "numAtRisk": 237}, {"groupId": "EG004", "numEvents": 0, "numAffected": 0, "numAtRisk": 119}]}, {"term": "Acute kidney injury", "organSystem": "Renal and urinary disorders", "sourceVocabulary": "MedDRA", "assessmentType": "SYSTEMATIC_ASSESSMENT", "stats": [{"groupId": "EG000", "numEvents": 1, "numAffected": 1, "numAtRisk": 235}, {"groupId": "EG001", "numEvents": 0, "numAffected": 0, "numAtRisk": 240}, {"groupId": "EG002", "numEvents": 0, "numAffected": 0, "numAtRisk": 240}, {"groupId": "EG003", "numEvents": 0, "numAffected": 0, "numAtRisk": 237}, {"groupId": "EG004", "numEvents": 0, "numAffected": 0, "numAtRisk": 119}]}, {"term": "Adnexal torsion", "organSystem": "Reproductive system and breast disorders", "sourceVocabulary": "MedDRA", "assessmentType": "SYSTEMATIC_ASSESSMENT", "stats": [{"groupId": "EG000", "numEvents": 0, "numAffected": 0, "numAtRisk": 235}, {"groupId": "EG001", "numEvents": 0, "numAffected": 0, "numAtRisk": 240}, {"groupId": "EG002", "numEvents": 1, "numAffected": 1, "numAtRisk": 240}, {"groupId": "EG003", "numEvents": 0, "numAffected": 0, "numAtRisk": 237}, {"groupId": "EG004", "numEvents": 0, "numAffected": 0, "numAtRisk": 119}]}, {"term": "Cholecystitis", "organSystem": "Hepatobiliary disorders", "sourceVocabulary": "MedDRA", "assessmentType": "SYSTEMATIC_ASSESSMENT", "stats": [{"groupId": "EG000", "numEvents": 1, "numAffected": 1, "numAtRisk": 235}, {"groupId": "EG001", "numEvents": 0, "numAffected": 0, "numAtRisk": 240}, {"groupId": "EG002", "numEvents": 0, "numAffected": 0, "numAtRisk": 240}, {"groupId": "EG003", "numEvents": 0, "numAffected": 0, "numAtRisk": 237}, {"groupId": "EG004", "numEvents": 0, "numAffected": 0, "numAtRisk": 119}]}, {"term": "Miscarriage of partner", "organSystem": "Social circumstances", "sourceVocabulary": "MedDRA", "assessmentType": "SYSTEMATIC_ASSESSMENT", "stats": [{"groupId": "EG000", "numEvents": 1, "numAffected": 1, "numAtRisk": 235}, {"groupId": "EG001", "numEvents": 0, "numAffected": 0, "numAtRisk": 240}, {"groupId": "EG002", "numEvents": 0, "numAffected": 0, "numAtRisk": 240}, {"groupId": "EG003", "numEvents": 0, "numAffected": 0, "numAtRisk": 237}, {"groupId": "EG004", "numEvents": 0, "numAffected": 0, "numAtRisk": 119}]}, {"term": "Abdominal pain", "organSystem": "Gastrointestinal disorders", "sourceVocabulary": "MedDRA", "assessmentType": "SYSTEMATIC_ASSESSMENT", "stats": [{"groupId": "EG000", "numEvents": 2, "numAffected": 1, "numAtRisk": 235}, {"groupId": "EG001", "numEvents": 0, "numAffected": 0, "numAtRisk": 240}, {"groupId": "EG002", "numEvents": 0, "numAffected": 0, "numAtRisk": 240}, {"groupId": "EG003", "numEvents": 0, "numAffected": 0, "numAtRisk": 237}, {"groupId": "EG004", "numEvents": 0, "numAffected": 0, "numAtRisk": 119}]}, {"term": "Acute respiratory failure", "organSystem": "Respiratory, thoracic and mediastinal disorders", "sourceVocabulary": "MedDRA", "assessmentType": "SYSTEMATIC_ASSESSMENT", "stats": [{"groupId": "EG000", "numEvents": 0, "numAffected": 0, "numAtRisk": 235}, {"groupId": "EG001", "numEvents": 0, "numAffected": 0, "numAtRisk": 240}, {"groupId": "EG002", "numEvents": 0, "numAffected": 0, "numAtRisk": 240}, {"groupId": "EG003", "numEvents": 1, "numAffected": 1, "numAtRisk": 237}, {"groupId": "EG004", "numEvents": 0, "numAffected": 0, "numAtRisk": 119}]}, {"term": "Nephrolithiasis", "organSystem": "Renal and urinary disorders", "sourceVocabulary": "MedDRA", "assessmentType": "SYSTEMATIC_ASSESSMENT", "stats": [{"groupId": "EG000", "numEvents": 0, "numAffected": 0, "numAtRisk": 235}, {"groupId": "EG001", "numEvents": 0, "numAffected": 0, "numAtRisk": 240}, {"groupId": "EG002", "numEvents": 0, "numAffected": 0, "numAtRisk": 240}, {"groupId": "EG003", "numEvents": 1, "numAffected": 1, "numAtRisk": 237}, {"groupId": "EG004", "numEvents": 0, "numAffected": 0, "numAtRisk": 119}]}, {"term": "Post traumatic pain", "organSystem": "Injury, poisoning and procedural complications", "sourceVocabulary": "MedDRA", "assessmentType": "SYSTEMATIC_ASSESSMENT", "stats": [{"groupId": "EG000", "numEvents": 0, "numAffected": 0, "numAtRisk": 235}, {"groupId": "EG001", "numEvents": 1, "numAffected": 1, "numAtRisk": 240}, {"groupId": "EG002", "numEvents": 0, "numAffected": 0, "numAtRisk": 240}, {"groupId": "EG003", "numEvents": 0, "numAffected": 0, "numAtRisk": 237}, {"groupId": "EG004", "numEvents": 0, "numAffected": 0, "numAtRisk": 119}]}, {"term": "Intervertebral disc protrusion", "organSystem": "Musculoskeletal and connective tissue disorders", "sourceVocabulary": "MEdDRA", "assessmentType": "SYSTEMATIC_ASSESSMENT", "stats": [{"groupId": "EG000", "numEvents": 1, "numAffected": 1, "numAtRisk": 235}, {"groupId": "EG001", "numEvents": 0, "numAffected": 0, "numAtRisk": 240}, {"groupId": "EG002", "numEvents": 0, "numAffected": 0, "numAtRisk": 240}, {"groupId": "EG003", "numEvents": 0, "numAffected": 0, "numAtRisk": 237}, {"groupId": "EG004", "numEvents": 0, "numAffected": 0, "numAtRisk": 119}]}, {"term": "Suicidal ideation", "organSystem": "Psychiatric disorders", "sourceVocabulary": "MedDRA", "assessmentType": "SYSTEMATIC_ASSESSMENT", "stats": [{"groupId": "EG000", "numEvents": 0, "numAffected": 0, "numAtRisk": 235}, {"groupId": "EG001", "numEvents": 0, "numAffected": 0, "numAtRisk": 240}, {"groupId": "EG002", "numEvents": 0, "numAffected": 0, "numAtRisk": 240}, {"groupId": "EG003", "numEvents": 1, "numAffected": 1, "numAtRisk": 237}, {"groupId": "EG004", "numEvents": 0, "numAffected": 0, "numAtRisk": 119}]}], "otherEvents": [{"term": "Upper respiratory tract infection", "organSystem": "Infections and infestations", "sourceVocabulary": "MedDRA", "assessmentType": "SYSTEMATIC_ASSESSMENT", "stats": [{"groupId": "EG000", "numEvents": 15, "numAffected": 14, "numAtRisk": 235}, {"groupId": "EG001", "numEvents": 14, "numAffected": 14, "numAtRisk": 240}, {"groupId": "EG002", "numEvents": 14, "numAffected": 14, "numAtRisk": 240}, {"groupId": "EG003", "numEvents": 20, "numAffected": 19, "numAtRisk": 237}, {"groupId": "EG004", "numEvents": 7, "numAffected": 6, "numAtRisk": 119}]}, {"term": "Nasopharyngitis", "organSystem": "Infections and infestations", "sourceVocabulary": "MedDRA", "assessmentType": "SYSTEMATIC_ASSESSMENT", "stats": [{"groupId": "EG000", "numEvents": 12, "numAffected": 11, "numAtRisk": 235}, {"groupId": "EG001", "numEvents": 19, "numAffected": 15, "numAtRisk": 240}, {"groupId": "EG002", "numEvents": 19, "numAffected": 17, "numAtRisk": 240}, {"groupId": "EG003", "numEvents": 10, "numAffected": 8, "numAtRisk": 237}, {"groupId": "EG004", "numEvents": 2, "numAffected": 2, "numAtRisk": 119}]}, {"term": "Sinusitis", "organSystem": "Infections and infestations", "sourceVocabulary": "MedDRA", "assessmentType": "SYSTEMATIC_ASSESSMENT", "stats": [{"groupId": "EG000", "numEvents": 10, "numAffected": 10, "numAtRisk": 235}, {"groupId": "EG001", "numEvents": 8, "numAffected": 7, "numAtRisk": 240}, {"groupId": "EG002", "numEvents": 4, "numAffected": 4, "numAtRisk": 240}, {"groupId": "EG003", "numEvents": 3, "numAffected": 3, "numAtRisk": 237}, {"groupId": "EG004", "numEvents": 7, "numAffected": 7, "numAtRisk": 119}]}]}, "moreInfoModule": {"certainAgreement": {"piSponsorEmployee": false, "restrictionType": "OTHER", "restrictiveAgreement": true, "otherDetails": "Drafts of any and all publications or presentations of this study must be submitted at least 30 days prior to submission for publication or presentation to Pearl Therapeutics for review, approval, and to ensure consistency. Pearl Therapeutics has the right to request appropriate modification to correct facts and to represent it's opinions, or the opinions of the publication committee, if these differ with the proposed publication."}, "pointOfContact": {"title": "Pearl Therapeutics, Inc.", "organization": "Pearl Therapeutics, Inc.", "email": "information.center@astrazeneca.com", "phone": "1-877-240-9479"}}}, "documentSection": {"largeDocumentModule": {"largeDocs": [{"typeAbbrev": "Prot", "hasProtocol": true, "hasSap": false, "hasIcf": false, "label": "Study Protocol", "date": "2019-03-08", "uploadDate": "2020-05-22T15:35", "filename": "Prot_000.pdf", "size": 10871692}, {"typeAbbrev": "SAP", "hasProtocol": false, "hasSap": true, "hasIcf": false, "label": "Statistical Analysis Plan", "date": "2019-08-12", "uploadDate": "2020-05-22T16:28", "filename": "SAP_001.pdf", "size": 4374611}]}}, "derivedSection": {"miscInfoModule": {"versionHolder": "2024-06-24", "submissionTracking": {"firstMcpInfo": {"postDateStruct": {"date": "2020-06-17", "type": "ACTUAL"}}}}, "conditionBrowseModule": {"meshes": [{"id": "D000001249", "term": "Asthma"}], "ancestors": [{"id": "D000001982", "term": "Bronchial Diseases"}, {"id": "D000012140", "term": "Respiratory Tract Diseases"}, {"id": "D000008173", "term": "Lung Diseases, Obstructive"}, {"id": "D000008171", "term": "Lung Diseases"}, {"id": "D000012130", "term": "Respiratory Hypersensitivity"}, {"id": "D000006969", "term": "Hypersensitivity, Immediate"}, {"id": "D000006967", "term": "Hypersensitivity"}, {"id": "D000007154", "term": "Immune System Diseases"}], "browseLeaves": [{"id": "M4556", "name": "Asthma", "asFound": "Asthma", "relevance": "HIGH"}, {"id": "M5258", "name": "Bronchial Diseases", "relevance": "LOW"}, {"id": "M14977", "name": "Respiratory Tract Diseases", "relevance": "LOW"}, {"id": "M11168", "name": "Lung Diseases", "relevance": "LOW"}, {"id": "M11170", "name": "Lung Diseases, Obstructive", "relevance": "LOW"}, {"id": "M10018", "name": "Hypersensitivity", "relevance": "LOW"}, {"id": "M14967", "name": "Respiratory Hypersensitivity", "relevance": "LOW"}, {"id": "M10020", "name": "Hypersensitivity, Immediate", "relevance": "LOW"}, {"id": "M10200", "name": "Immune System Diseases", "relevance": "LOW"}], "browseBranches": [{"abbrev": "BC08", "name": "Respiratory Tract (Lung and Bronchial) Diseases"}, {"abbrev": "BC20", "name": "Immune System Diseases"}, {"abbrev": "All", "name": "All Conditions"}]}, "interventionBrowseModule": {"meshes": [{"id": "D000069447", "term": "Tiotropium Bromide"}], "ancestors": [{"id": "D000001993", "term": "Bronchodilator Agents"}, {"id": "D000001337", "term": "Autonomic Agents"}, {"id": "D000018373", "term": "Peripheral Nervous System Agents"}, {"id": "D000045505", "term": "Physiological Effects of Drugs"}, {"id": "D000018927", "term": "Anti-Asthmatic Agents"}, {"id": "D000019141", "term": "Respiratory System Agents"}, {"id": "D000010276", "term": "Parasympatholytics"}, {"id": "D000018680", "term": "Cholinergic Antagonists"}, {"id": "D000018678", "term": "Cholinergic Agents"}, {"id": "D000018377", "term": "Neurotransmitter Agents"}, {"id": "D000045504", "term": "Molecular Mechanisms of Pharmacological Action"}], "browseLeaves": [{"id": "M416", "name": "Tiotropium Bromide", "asFound": "Liver Cancer", "relevance": "HIGH"}, {"id": "M5241", "name": "Bromides", "relevance": "LOW"}, {"id": "M5269", "name": "Bronchodilator Agents", "relevance": "LOW"}, {"id": "M20963", "name": "Anti-Asthmatic Agents", "relevance": "LOW"}, {"id": "M21137", "name": "Respiratory System Agents", "relevance": "LOW"}, {"id": "M13189", "name": "Parasympatholytics", "relevance": "LOW"}, {"id": "M20760", "name": "Cholinergic Antagonists", "relevance": "LOW"}, {"id": "M20758", "name": "Cholinergic Agents", "relevance": "LOW"}, {"id": "M20504", "name": "Neurotransmitter Agents", "relevance": "LOW"}], "browseBranches": [{"abbrev": "Resp", "name": "Respiratory System Agents"}, {"abbrev": "All", "name": "All Drugs and Chemicals"}, {"abbrev": "AntiConv", "name": "Anticonvulsants"}]}}, "hasResults": true}