{"protocolSection": {"identificationModule": {"nctId": "NCT03185832", "orgStudyIdInfo": {"id": "C2076"}, "organization": {"fullName": "Boston Scientific Corporation", "class": "INDUSTRY"}, "briefTitle": "Heart Failure and Sudden Cardiac Death Japan Registry", "officialTitle": "Heart Failure Indication and Sudden Cardiac Death Prevention Trial Japan", "acronym": "HINODE"}, "statusModule": {"statusVerifiedDate": "2022-02", "overallStatus": "COMPLETED", "expandedAccessInfo": {"hasExpandedAccess": false}, "startDateStruct": {"date": "2017-07-21", "type": "ACTUAL"}, "primaryCompletionDateStruct": {"date": "2020-12-01", "type": "ACTUAL"}, "completionDateStruct": {"date": "2020-12-01", "type": "ACTUAL"}, "studyFirstSubmitDate": "2017-06-12", "studyFirstSubmitQcDate": "2017-06-12", "studyFirstPostDateStruct": {"date": "2017-06-14", "type": "ACTUAL"}, "resultsFirstSubmitDate": "2021-11-29", "resultsFirstSubmitQcDate": "2022-02-11", "resultsFirstPostDateStruct": {"date": "2022-02-14", "type": "ACTUAL"}, "lastUpdateSubmitDate": "2022-02-11", "lastUpdatePostDateStruct": {"date": "2022-02-14", "type": "ACTUAL"}}, "sponsorCollaboratorsModule": {"responsibleParty": {"type": "SPONSOR"}, "leadSponsor": {"name": "Boston Scientific Corporation", "class": "INDUSTRY"}, "collaborators": [{"name": "ICON Clinical Research", "class": "INDUSTRY"}]}, "oversightModule": {"oversightHasDmc": false, "isFdaRegulatedDrug": false, "isFdaRegulatedDevice": true, "isUsExport": true}, "descriptionModule": {"briefSummary": "The purpose of this observational registry is to collect clinical events and outcome data in 4 different study populations (cohorts), with a majority of Japanese subjects, that are at risk of sudden cardiac death (SCD) and heart failure (HF) events. These event rates will be compared with available published data mainly from Europe and the United States.\n\nSelected Subject Cohorts:\n\n1. Selected subject cohort with criteria for SCD (without spontaneous prior ventricular sustained arrhythmia) and de novo Implantable Cardioverter-Defibrillator (ICD) device treatment.\n2. Selected subject cohort with criteria for SCD and widely accepted standard cardiac resynchronization therapy (CRT) indication who received a de novo CRT-Defibrillator (CRT-D) device treatment.\n3. Selected subject cohort who are clinically expected to require \\>40% right ventricular pacing with a left ventricular ejection fraction (LVEF) \u226450%, any determined New York Heart Association (NYHA) Class, and receiving pacemaker (PM) or CRT-Pacemaker (CRT-P) therapy despite previous device history (de novo, box changes, system revisions or upgrades).\n4. Selected subject cohort with criteria for SCD fulfilling European Society of Cardiology (ESC) ICD or CRT-D therapy guidelines (2016) with an LVEF \u226435%, having 2 to 5 predefined SCD risk factors but do not have or had have a cardiac implanted defibrillator, CRT-D, PM, or CRT-P.\n\nThe primary endpoint will report on the Composite rate of first appropriately treated ventricular arrhythmia (by anti-tachycardia pacing \\[ATP\\] or shock) or life-threatening symptoms associated to ventricular arrhythmia (defined as hemodynamic instability which requires treatment), whichever comes first under MADIT RIT Arm B or C programming conditions in a study population with a majority of Japanese subjects. This primary end point is assessed in the ICD/CRT-D implanted patient cohort.\n\nThe all-cause mortality in subjects with a maximum of 3 risk factors (analyzed for MADIT II data) will be assessed in the Pacing (PM/CRT-P) patient cohort.\n\nThe all-cause mortality will be assessed in the non-implanted subject cohort."}, "conditionsModule": {"conditions": ["Heart Failure", "Arrhythmias, Cardiac", "Sudden Cardiac Death"], "keywords": ["Hear failure", "Sudden Cardiac Death", "Arrhythmia", "Implanted device", "ICD", "CRT"]}, "designModule": {"studyType": "OBSERVATIONAL", "patientRegistry": false, "designInfo": {"observationalModel": "COHORT", "timePerspective": "PROSPECTIVE"}, "enrollmentInfo": {"count": 354, "type": "ACTUAL"}}, "armsInterventionsModule": {"armGroups": [{"label": "CRT-D Cohort", "description": "Number of participants with first appropriately treated ventricular arrhythmia", "interventionNames": ["Device: CRT-D"]}, {"label": "ICD Cohort", "description": "Number of participants with first appropriately treated ventricular arrhythmia", "interventionNames": ["Device: ICD"]}, {"label": "Pacing (PM / CRT-P) Cohort", "description": "All cause mortality", "interventionNames": ["Device: PM / CRT-P"]}, {"label": "Non-device Cohort", "description": "All-cause mortality in the subject cohort with 2 to 5 predefined SCD driving risk factors", "interventionNames": ["Other: Non-device"]}], "interventions": [{"type": "DEVICE", "name": "CRT-D", "description": "This subject cohort is made by all patients enrolled and implanted with defibrillator with CRT capabilities", "armGroupLabels": ["CRT-D Cohort"]}, {"type": "DEVICE", "name": "ICD", "description": "This subject cohort is made by all patients enrolled and implanted with defibrillator capabilities", "armGroupLabels": ["ICD Cohort"]}, {"type": "DEVICE", "name": "PM / CRT-P", "description": "This subject cohort is made by all patients enrolled and implanted with pacemakers with or without CRT capabilities", "armGroupLabels": ["Pacing (PM / CRT-P) Cohort"]}, {"type": "OTHER", "name": "Non-device", "description": "Patient enrolled but not implanted with a Defibrillator or Pacemaker", "armGroupLabels": ["Non-device Cohort"]}]}, "outcomesModule": {"primaryOutcomes": [{"measure": "Number of Participants With Ventricular Arrhythmia Associated Symptoms - ICD/CRT-D Cohorts", "description": "Number of Participants with first appropriately treated ventricular arrhythmia (by anti tachycardia pacing \\[ATP\\] or shock) or life-threatening symptoms associated to ventricular arrhythmia (defined as hemodynamic instability which requires treatment), whichever comes first under MADIT Arm B or C programming conditions in a study population with a majority of Japanese subjects.", "timeFrame": "12 months follow up"}, {"measure": "Number of Participant Deaths - Pacing Cohort", "description": "All-cause mortality in subjects with a maximum of 3 risk factors (analyzed for MADIT II data).", "timeFrame": "12 months follow up"}, {"measure": "Number of Participant Deaths - Non-Device Cohort", "description": "All-cause mortality in the subject cohort with 2 to 5 predefined SCD driving risk factors.", "timeFrame": "12 months follow up"}], "secondaryOutcomes": [{"measure": "Number of Participant Deaths - ICD/CRT-D Cohorts", "description": "All-cause mortality for the ICD and the CRT-D cohorts.", "timeFrame": "12 months follow up"}, {"measure": "Number of Participants With Composite HF Event - ICD/CRT-D/Pacing Cohorts", "description": "Number of Participants with HF events, which require intravenous (IV) treatment and/or heart failure (HF) related hospitalization, or which led to HF death", "timeFrame": "12 months follow up"}, {"measure": "Number of Participants With Complication - ICD/CRT-D/Pacing Cohorts", "description": "Complication refers to qualified serious adverse device effects (SADEs) post success implantation, such as re-implant procedure, required invasive procedure related to the device system, pacing exit block, all-cause infection, and death due to therapy failure.", "timeFrame": "12 months follow up"}]}, "eligibilityModule": {"eligibilityCriteria": "General Inclusion Criteria:\n\n1. Subject is aged 20 or above\n2. Subject is willing and capable of providing informed consent\n3. Subject is willing and capable of participating in all visits associated with this study at an approved clinical study site and at the intervals defined by this Clinical Investigation Plan (CIP)\n4. Measured Ejection fraction value obtained by echocardiography or equivalent method as Standard of Care (SOC):\n\n   * Device cohorts: within the last 3 months prior to enrolment\n   * Non-device cohort: latest available within the last 12 months prior to enrollment in case there was no documented HF decompensation, myocardial infarction (MI) or revascularization, otherwise within the last 3 months prior to enrollment\n\nAnd 12 lead electrocardiogram (ECG) recording available as SOC:\n\n* Device cohorts: pre-implant ECG maximum 45 days before implant; post-implant ECG\n* Non-device cohort: latest available maximum 12 months prior to enrollment and subject agrees in the data being used for this study\n\nGeneral Exclusion Criteria:\n\n1. Subject is enrolled in any other concurrent study without prior written approval from Boston Scientific (BSC), with the exception of local mandatory governmental registries and observational studies/registries that are not in conflict and do not affect the following:\n\n   * Schedule of procedures for the HINODE Study (i.e. should not cause additional or missed visits)\n   * HINODE Study outcome\n   * Conduct of the HINODE Study per Good Clinical Practice /International Standard Organization 14155:2011/local regulations as applicable\n2. Device implant revision is scheduled due to unstable result of an implant \\<45 days prior enrolment\n3. Subjects with more than 5 of the following risk factors: LVEF \\<35%, NYHA Class III or IV, left bundle branch block (LBBB) with QRS \\> 130 ms or QRS \u2265150 ms, renal dysfunction (chronically BUN \\>26 mg/dL / \u22659.28 mmol/L), diabetes type I and II, chronic atrial fibrillation (permanent or persistent according to ESC Guideline 2016), prior MI, age \\>70 years, smoking today or during last 5 years\n4. Subjects with chronic renal disease with chronic BUN \u226550mg/dL or creatinine \u22652.5 mg/dL\n5. Subjects with coronary artery bypass graft (CABG) surgery or percutaneous coronary intervention (PCI) within the past three calendar months prior to enrollment\n6. Subjects with enzyme-positive myocardial infarction within the past three calendar months prior to enrollment\n7. Subjects who are expected to survive for \\<1 year with good functional status\n8. Subject's physician does not allow participation\n9. Subject is not willing and capable of participating in all testing or visits associated with this clinical study at an approved clinical study center and at the intervals defined by this CIP\n10. Unwilling to sign the consent for participation\n11. Women of childbearing potential who are or might be pregnant at the time of study enrolment\n12. ICD and CRT-D cohorts: implanted with a non-BSC device system. PM/CRT-P cohorts: implanted with a non-BSC pulse generator device.\n\nAdditional eligibility criteria apply to each cohort", "healthyVolunteers": false, "sex": "ALL", "minimumAge": "20 Years", "stdAges": ["ADULT", "OLDER_ADULT"], "studyPopulation": "The subjects enrolled in this observational registry are from the general population seen by enrolling physicians at primary care clinic.", "samplingMethod": "NON_PROBABILITY_SAMPLE"}, "contactsLocationsModule": {"overallOfficials": [{"name": "Kazutaka Aonuma, Professor", "affiliation": "University of Tsukuba Hospital", "role": "PRINCIPAL_INVESTIGATOR"}], "locations": [{"facility": "Ichinomiya Municipal Hospital", "city": "Ichinomiya", "state": "Aichi", "zip": "491-8558", "country": "Japan", "geoPoint": {"lat": 35.3, "lon": 136.8}}, {"facility": "Nagoya University Hospital", "city": "Nagoya", "state": "Aichi", "zip": "466-8560", "country": "Japan", "geoPoint": {"lat": 35.18147, "lon": 136.90641}}, {"facility": "Japanese Red Cross Nagoya Daini Hospital", "city": "Nagoya", "state": "Aichi", "zip": "466-8650", "country": "Japan", "geoPoint": {"lat": 35.18147, "lon": 136.90641}}, {"facility": "Toho University Sakura Medical Center", "city": "Sakura", "state": "Chiba", "zip": "285-8741", "country": "Japan", "geoPoint": {"lat": 35.71667, "lon": 140.23333}}, {"facility": "Juntendo University Urayasu Hospital", "city": "Urayasu", "state": "Chiba", "zip": "279-0021", "country": "Japan", "geoPoint": {"lat": 35.67054, "lon": 139.88862}}, {"facility": "Fukuoka Tokushukai Hospital", "city": "Kasuga", "state": "Fukuoka", "zip": "816-0864", "country": "Japan"}, {"facility": "Sapporo Medical University Hospital", "city": "Sapporo", "state": "Hokkaido", "zip": "060-8543", "country": "Japan", "geoPoint": {"lat": 43.06667, "lon": 141.35}}, {"facility": "Sapporo Higashi Tokushukai Hospital", "city": "Sapporo", "state": "Hokkaido", "zip": "065-0033", "country": "Japan", "geoPoint": {"lat": 43.06667, "lon": 141.35}}, {"facility": "Kansai Rosai Hospital", "city": "Amagasaki", "state": "Hyogo", "zip": "660-8511", "country": "Japan", "geoPoint": {"lat": 34.71667, "lon": 135.41667}}, {"facility": "Hyogo Brain and Heart Center", "city": "Himeji", "state": "Hyogo", "zip": "670-0981", "country": "Japan", "geoPoint": {"lat": 34.81667, "lon": 134.7}}, {"facility": "Hitachi General Hospital", "city": "Hitachi", "state": "Ibaraki", "zip": "317-0077", "country": "Japan", "geoPoint": {"lat": 36.6, "lon": 140.65}}, {"facility": "University of Tsukuba Hospital", "city": "Tsukuba", "state": "Ibaraki", "zip": "305-8576", "country": "Japan", "geoPoint": {"lat": 36.2, "lon": 140.1}}, {"facility": "St. Marianna University School of Medicine Hospital", "city": "Kawasaki", "state": "Kanagawa", "zip": "216-8511", "country": "Japan", "geoPoint": {"lat": 35.52056, "lon": 139.71722}}, {"facility": "Yokohama Rosai Hospital", "city": "Yokohama", "state": "Kanagawa", "zip": "222-0036", "country": "Japan", "geoPoint": {"lat": 35.43333, "lon": 139.65}}, {"facility": "Yokohama Minami Kyousai Hospital", "city": "Yokohama", "state": "Kanagawa", "zip": "236-0037", "country": "Japan", "geoPoint": {"lat": 35.43333, "lon": 139.65}}, {"facility": "St. Marianna University School of Medicine, Yokohama City Seibu Hospital", "city": "Yokohama", "state": "Kanagawa", "zip": "241-0811", "country": "Japan", "geoPoint": {"lat": 35.43333, "lon": 139.65}}, {"facility": "Tohoku University Hospital", "city": "Sendai", "state": "Miyagi", "zip": "980-8574", "country": "Japan", "geoPoint": {"lat": 38.26667, "lon": 140.86667}}, {"facility": "National Cerebral and Cardiovascular Center Hospital", "city": "Suita", "state": "Osaka", "zip": "564-8565", "country": "Japan", "geoPoint": {"lat": 34.76143, "lon": 135.51567}}, {"facility": "Osaka University Hospital", "city": "Suita", "state": "Osaka", "zip": "565-0871", "country": "Japan", "geoPoint": {"lat": 34.76143, "lon": 135.51567}}, {"facility": "Jichi Medical University Hospital", "city": "Shimotsuke", "state": "Tochigi", "zip": "329-0498", "country": "Japan", "geoPoint": {"lat": 36.41323, "lon": 139.86622}}, {"facility": "Tokyo Medical and Dental University Medical Hospital", "city": "Bunkyo", "state": "Tokyo", "zip": "113-8519", "country": "Japan", "geoPoint": {"lat": 35.37517, "lon": 139.92991}}, {"facility": "Nippon Medical School Hospital", "city": "Bunky\u014d", "state": "Tokyo", "zip": "113-8603", "country": "Japan", "geoPoint": {"lat": 35.37517, "lon": 139.92991}}, {"facility": "St. Luke's International Hospital", "city": "Chuo", "state": "Tokyo", "zip": "104-8560", "country": "Japan", "geoPoint": {"lat": 35.57779, "lon": 139.71685}}, {"facility": "Toho University Ohashi Medicine Center", "city": "Meguro", "state": "Tokyo", "zip": "153-8515", "country": "Japan", "geoPoint": {"lat": 42.12755, "lon": 143.31736}}, {"facility": "Tokyo Metropolitan Hiroo Hospital", "city": "Shibuya", "state": "Tokyo", "zip": "150-0013", "country": "Japan", "geoPoint": {"lat": 35.469, "lon": 140.29807}}, {"facility": "Toho University Omori Medical Center", "city": "\u014cta", "state": "Tokyo", "zip": "143-8541", "country": "Japan", "geoPoint": {"lat": 36.3, "lon": 139.36667}}, {"facility": "Yamaguchi University Hospital", "city": "Ube", "state": "Yamaguchi", "zip": "755-8505", "country": "Japan", "geoPoint": {"lat": 33.94306, "lon": 131.25111}}, {"facility": "Kokura Memorial Hospital", "city": "Fukuoka", "zip": "802-8555", "country": "Japan", "geoPoint": {"lat": 33.6, "lon": 130.41667}}, {"facility": "Kyushu University Hospital", "city": "Fukuoka", "zip": "812-8582", "country": "Japan", "geoPoint": {"lat": 33.6, "lon": 130.41667}}, {"facility": "Okayama University Hospital", "city": "Okayama", "zip": "700-8558", "country": "Japan", "geoPoint": {"lat": 34.65, "lon": 133.93333}}, {"facility": "Sakurabashi Watanabe Hospital", "city": "Osaka", "zip": "530-0001", "country": "Japan", "geoPoint": {"lat": 34.69374, "lon": 135.50218}}, {"facility": "Osaka General Medical Center", "city": "Osaka", "zip": "558-8558", "country": "Japan", "geoPoint": {"lat": 34.69374, "lon": 135.50218}}, {"facility": "Jichi Medical University Saitama Medical Center", "city": "Saitama", "zip": "330-8503", "country": "Japan", "geoPoint": {"lat": 35.90807, "lon": 139.65657}}, {"facility": "Japanese Red Cross Saitama Hospital", "city": "Saitama", "zip": "330-8553", "country": "Japan", "geoPoint": {"lat": 35.90807, "lon": 139.65657}}]}, "ipdSharingStatementModule": {"ipdSharing": "UNDECIDED"}}, "resultsSection": {"participantFlowModule": {"preAssignmentDetails": "Out of 357 enrolled patients, 3 did not meet eligibility criteria and were considered consent ineligible.", "recruitmentDetails": "The first subject was enrolled on 21 July 2017 and the last subject follow-up occurred on 14 September 2020. Study completion date, defined as the date the final participant was examined or received an intervention for purposes of final collection of data for the primary and secondary outcome measures and adverse events, is 1 December 2020. A total of 354 subjects across 34 centers in Japan were enrolled and assigned to a study cohort.", "groups": [{"id": "FG000", "title": "CRT-D Cohort", "description": "This subject cohort is made by all patients enrolled and implanted with cardiac resynchronization therapy defibrillator (CRT-D)"}, {"id": "FG001", "title": "ICD Cohort", "description": "This subject cohort is made by all patients enrolled and implanted with implantable cardioverter-defibrillator (ICD)"}, {"id": "FG002", "title": "Pacing Cohort", "description": "This subject cohort is made by all patients enrolled and implanted with pacemakers (PM) with or without cardiac resynchronization therapy (CRT) capabilities"}, {"id": "FG003", "title": "Non-device Cohort", "description": "Patient enrolled but not implanted with a Defibrillator or Pacemaker"}], "periods": [{"title": "Overall Study", "milestones": [{"type": "STARTED", "achievements": [{"groupId": "FG000", "numSubjects": "69"}, {"groupId": "FG001", "numSubjects": "102"}, {"groupId": "FG002", "numSubjects": "68"}, {"groupId": "FG003", "numSubjects": "115"}]}, {"type": "COMPLETED", "achievements": [{"groupId": "FG000", "numSubjects": "60"}, {"groupId": "FG001", "numSubjects": "87"}, {"groupId": "FG002", "numSubjects": "58"}, {"groupId": "FG003", "numSubjects": "104"}]}, {"type": "NOT COMPLETED", "achievements": [{"groupId": "FG000", "numSubjects": "9"}, {"groupId": "FG001", "numSubjects": "15"}, {"groupId": "FG002", "numSubjects": "10"}, {"groupId": "FG003", "numSubjects": "11"}]}], "dropWithdraws": [{"type": "Death", "reasons": [{"groupId": "FG000", "numSubjects": "9"}, {"groupId": "FG001", "numSubjects": "14"}, {"groupId": "FG002", "numSubjects": "9"}, {"groupId": "FG003", "numSubjects": "7"}]}, {"type": "Withdrawn - vital status available", "reasons": [{"groupId": "FG000", "numSubjects": "0"}, {"groupId": "FG001", "numSubjects": "1"}, {"groupId": "FG002", "numSubjects": "1"}, {"groupId": "FG003", "numSubjects": "4"}]}]}]}, "baselineCharacteristicsModule": {"groups": [{"id": "BG000", "title": "CRT-D Cohort", "description": "This subject cohort is made by all patients enrolled and implanted with defibrillator with CRT capabilities"}, {"id": "BG001", "title": "ICD Cohort", "description": "This subject cohort is made by all patients enrolled and implanted with defibrillator capabilities"}, {"id": "BG002", "title": "Pacing Cohort", "description": "This subject cohort is made by all patients enrolled and implanted with pacemakers with or without CRT capabilities"}, {"id": "BG003", "title": "Non-device Cohort", "description": "Patient enrolled but not implanted with a Defibrillator or Pacemaker"}, {"id": "BG004", "title": "Total", "description": "Total of all reporting groups"}], "denoms": [{"units": "Participants", "counts": [{"groupId": "BG000", "value": "69"}, {"groupId": "BG001", "value": "102"}, {"groupId": "BG002", "value": "68"}, {"groupId": "BG003", "value": "115"}, {"groupId": "BG004", "value": "354"}]}], "measures": [{"title": "Age, Continuous", "paramType": "MEAN", "dispersionType": "STANDARD_DEVIATION", "unitOfMeasure": "years", "classes": [{"denoms": [{"units": "Participants", "counts": [{"groupId": "BG000", "value": "69"}, {"groupId": "BG001", "value": "102"}, {"groupId": "BG002", "value": "68"}, {"groupId": "BG003", "value": "115"}, {"groupId": "BG004", "value": "354"}]}], "categories": [{"measurements": [{"groupId": "BG000", "value": "66.4", "spread": "13.4"}, {"groupId": "BG001", "value": "68.2", "spread": "10.4"}, {"groupId": "BG002", "value": "75.0", "spread": "10.9"}, {"groupId": "BG003", "value": "68.8", "spread": "11.8"}, {"groupId": "BG004", "value": "69.4", "spread": "11.9"}]}]}]}, {"title": "Sex: Female, Male", "paramType": "COUNT_OF_PARTICIPANTS", "unitOfMeasure": "Participants", "classes": [{"denoms": [{"units": "Participants", "counts": [{"groupId": "BG000", "value": "69"}, {"groupId": "BG001", "value": "102"}, {"groupId": "BG002", "value": "68"}, {"groupId": "BG003", "value": "115"}, {"groupId": "BG004", "value": "354"}]}], "categories": [{"title": "Female", "measurements": [{"groupId": "BG000", "value": "22"}, {"groupId": "BG001", "value": "15"}, {"groupId": "BG002", "value": "24"}, {"groupId": "BG003", "value": "25"}, {"groupId": "BG004", "value": "86"}]}, {"title": "Male", "measurements": [{"groupId": "BG000", "value": "47"}, {"groupId": "BG001", "value": "87"}, {"groupId": "BG002", "value": "44"}, {"groupId": "BG003", "value": "90"}, {"groupId": "BG004", "value": "268"}]}]}]}, {"title": "Race and Ethnicity Not Collected", "populationDescription": "Race and Ethnicity were not collected from any participant.", "paramType": "COUNT_OF_PARTICIPANTS", "unitOfMeasure": "Participants", "classes": [{"denoms": [{"units": "Participants", "counts": [{"groupId": "BG000", "value": "0"}, {"groupId": "BG001", "value": "0"}, {"groupId": "BG002", "value": "0"}, {"groupId": "BG003", "value": "0"}, {"groupId": "BG004", "value": "0"}]}], "categories": [{"measurements": [{"groupId": "BG004", "value": "0"}]}]}]}, {"title": "Region of Enrollment", "paramType": "NUMBER", "unitOfMeasure": "participants", "classes": [{"title": "Japan", "denoms": [{"units": "Participants", "counts": [{"groupId": "BG000", "value": "69"}, {"groupId": "BG001", "value": "102"}, {"groupId": "BG002", "value": "68"}, {"groupId": "BG003", "value": "115"}, {"groupId": "BG004", "value": "354"}]}], "categories": [{"measurements": [{"groupId": "BG000", "value": "69"}, {"groupId": "BG001", "value": "102"}, {"groupId": "BG002", "value": "68"}, {"groupId": "BG003", "value": "115"}, {"groupId": "BG004", "value": "354"}]}]}]}]}, "outcomeMeasuresModule": {"outcomeMeasures": [{"type": "PRIMARY", "title": "Number of Participants With Ventricular Arrhythmia Associated Symptoms - ICD/CRT-D Cohorts", "description": "Number of Participants with first appropriately treated ventricular arrhythmia (by anti tachycardia pacing \\[ATP\\] or shock) or life-threatening symptoms associated to ventricular arrhythmia (defined as hemodynamic instability which requires treatment), whichever comes first under MADIT Arm B or C programming conditions in a study population with a majority of Japanese subjects.", "populationDescription": "ICD Cohort: subjects with criteria for sudden cardiac death (SCD) (without spontaneous prior ventricular sustained arrhythmia) and de novo implanted Defibrillator device treatment (ICD).\n\nCRT-D Cohort: subjects with criteria for SCD and widely accepted standard CRT indication who received a de novo implanted CRT D device treatment.", "reportingStatus": "POSTED", "paramType": "COUNT_OF_PARTICIPANTS", "unitOfMeasure": "Participants", "timeFrame": "12 months follow up", "groups": [{"id": "OG000", "title": "CRT-D Cohort", "description": "This subject cohort is made by all patients enrolled and implanted with defibrillator with CRT capabilities"}, {"id": "OG001", "title": "ICD Cohort", "description": "This subject cohort is made by all patients enrolled and implanted with defibrillator capabilities"}], "denoms": [{"units": "Participants", "counts": [{"groupId": "OG000", "value": "69"}, {"groupId": "OG001", "value": "102"}]}], "classes": [{"categories": [{"measurements": [{"groupId": "OG000", "value": "3"}, {"groupId": "OG001", "value": "8"}]}]}]}, {"type": "PRIMARY", "title": "Number of Participant Deaths - Pacing Cohort", "description": "All-cause mortality in subjects with a maximum of 3 risk factors (analyzed for MADIT II data).", "populationDescription": "Subjects who were clinically expected to require \\>40% right ventricular pacing with a left ventricular ejection fraction (LVEF) \u226450%, any determined New York Heart Association (NYHA) Class, and receiving PM or CRT-Pacemaker (CRT-P) therapy despite previous device history (de novo, box changes, system revisions or upgrades).", "reportingStatus": "POSTED", "paramType": "COUNT_OF_PARTICIPANTS", "unitOfMeasure": "Participants", "timeFrame": "12 months follow up", "groups": [{"id": "OG000", "title": "Pacing Cohort", "description": "This subject cohort is made by all patients enrolled and implanted with pacemakers with or without CRT capabilities"}], "denoms": [{"units": "Participants", "counts": [{"groupId": "OG000", "value": "39"}]}], "classes": [{"categories": [{"measurements": [{"groupId": "OG000", "value": "3"}]}]}]}, {"type": "PRIMARY", "title": "Number of Participant Deaths - Non-Device Cohort", "description": "All-cause mortality in the subject cohort with 2 to 5 predefined SCD driving risk factors.", "populationDescription": "Subjects with criteria for SCD fulfilling European Society of Cardiology (ESC) ICD or CRT-D therapy guidelines (2016) with an LVEF \u226435%, having 2 to 5 predefined risk factors but do not have or have had a cardiac implanted device ICD, CRT-D, PM, or CRT-P.", "reportingStatus": "POSTED", "paramType": "COUNT_OF_PARTICIPANTS", "unitOfMeasure": "Participants", "timeFrame": "12 months follow up", "groups": [{"id": "OG000", "title": "Non-device Cohort", "description": "Patient enrolled but not implanted with a Defibrillator or Pacemaker"}], "denoms": [{"units": "Participants", "counts": [{"groupId": "OG000", "value": "115"}]}], "classes": [{"categories": [{"measurements": [{"groupId": "OG000", "value": "5"}]}]}]}, {"type": "SECONDARY", "title": "Number of Participant Deaths - ICD/CRT-D Cohorts", "description": "All-cause mortality for the ICD and the CRT-D cohorts.", "populationDescription": "ICD Cohort: subjects with criteria for SCD (without spontaneous prior ventricular sustained arrhythmia) and de novo implanted Defibrillator device treatment (ICD).\n\nCRT-D Cohort: subject with criteria for SCD and widely accepted standard CRT indication who received a de novo implanted CRT D device treatment.", "reportingStatus": "POSTED", "paramType": "COUNT_OF_PARTICIPANTS", "unitOfMeasure": "Participants", "timeFrame": "12 months follow up", "groups": [{"id": "OG000", "title": "CRT-D Cohort", "description": "This subject cohort is made by all patients enrolled and implanted with defibrillator with CRT capabilities"}, {"id": "OG001", "title": "ICD Cohort", "description": "This subject cohort is made by all patients enrolled and implanted with defibrillator capabilities"}], "denoms": [{"units": "Participants", "counts": [{"groupId": "OG000", "value": "69"}, {"groupId": "OG001", "value": "102"}]}], "classes": [{"categories": [{"measurements": [{"groupId": "OG000", "value": "5"}, {"groupId": "OG001", "value": "3"}]}]}]}, {"type": "SECONDARY", "title": "Number of Participants With Composite HF Event - ICD/CRT-D/Pacing Cohorts", "description": "Number of Participants with HF events, which require intravenous (IV) treatment and/or heart failure (HF) related hospitalization, or which led to HF death", "populationDescription": "ICD Cohort: subjects with criteria for SCD (without spontaneous prior ventricular sustained arrhythmia) and de novo ICD implant.\n\nCRT-D Cohort: subject with criteria for SCD and widely accepted standard CRT indication who received a de novo CRT-D implant.\n\nPM/CRT-P Cohort: subjects who were clinically expected to require \\>40% right ventricular pacing with an LVEF \u226450%, any determined New York Heart Association (NYHA) Class, and receiving PM or CRT-P therapy despite previous device history.", "reportingStatus": "POSTED", "paramType": "COUNT_OF_PARTICIPANTS", "unitOfMeasure": "Participants", "timeFrame": "12 months follow up", "groups": [{"id": "OG000", "title": "CRT-D Cohort", "description": "This subject cohort is made by all patients enrolled and implanted with defibrillator with CRT capabilities"}, {"id": "OG001", "title": "ICD Cohort", "description": "This subject cohort is made by all patients enrolled and implanted with defibrillator capabilities"}, {"id": "OG002", "title": "Pacing Cohort", "description": "This subject cohort is made by all patients enrolled and implanted with pacemakers with or without CRT capabilities"}], "denoms": [{"units": "Participants", "counts": [{"groupId": "OG000", "value": "69"}, {"groupId": "OG001", "value": "102"}, {"groupId": "OG002", "value": "68"}]}], "classes": [{"categories": [{"measurements": [{"groupId": "OG000", "value": "16"}, {"groupId": "OG001", "value": "27"}, {"groupId": "OG002", "value": "9"}]}]}]}, {"type": "SECONDARY", "title": "Number of Participants With Complication - ICD/CRT-D/Pacing Cohorts", "description": "Complication refers to qualified serious adverse device effects (SADEs) post success implantation, such as re-implant procedure, required invasive procedure related to the device system, pacing exit block, all-cause infection, and death due to therapy failure.", "populationDescription": "ICD Cohort: subjects with criteria for SCD (without spontaneous prior ventricular sustained arrhythmia) and de novo ICD implant.\n\nCRT-D Cohort: subject with criteria for SCD and widely accepted standard CRT indication who received a de novo CRT-D implant.\n\nPM/CRT-P Cohort: subjects who were clinically expected to require \\>40% right ventricular pacing with an LVEF \u226450%, any determined New York Heart Association (NYHA) Class, and receiving PM or CRT-P therapy despite previous device history.", "reportingStatus": "POSTED", "paramType": "COUNT_OF_PARTICIPANTS", "unitOfMeasure": "Participants", "timeFrame": "12 months follow up", "groups": [{"id": "OG000", "title": "CRT-D Cohort", "description": "This subject cohort is made by all patients enrolled and implanted with defibrillator with CRT capabilities"}, {"id": "OG001", "title": "ICD Cohort", "description": "This subject cohort is made by all patients enrolled and implanted with defibrillator capabilities"}, {"id": "OG002", "title": "Pacing Cohort", "description": "This subject cohort is made by all patients enrolled and implanted with pacemakers with or without CRT capabilities"}], "denoms": [{"units": "Participants", "counts": [{"groupId": "OG000", "value": "69"}, {"groupId": "OG001", "value": "102"}, {"groupId": "OG002", "value": "68"}]}], "classes": [{"categories": [{"measurements": [{"groupId": "OG000", "value": "3"}, {"groupId": "OG001", "value": "4"}, {"groupId": "OG002", "value": "2"}]}]}]}]}, "adverseEventsModule": {"frequencyThreshold": "0", "timeFrame": "Adverse events are collected through study completion, an average of 20 months", "description": "All adverse events are collected as per ISO 14155 and medical device guidance (MEDDEV) 2.7/4.\n\nAs per protocol, adverse events were collected irrespective of cohort allocation and therefore are not reported separately", "eventGroups": [{"id": "EG000", "title": "Actively Enrolled Patients", "description": "Patients actively enrolled in the study, defined as subjects who met all eligibility criteria and who signed informed consent", "deathsNumAffected": 39, "deathsNumAtRisk": 354, "seriousNumAffected": 172, "seriousNumAtRisk": 354, "otherNumAffected": 99, "otherNumAtRisk": 354}], "seriousEvents": [{"term": "Infection (> 30 days post implant)", "organSystem": "Product Issues", "assessmentType": "SYSTEMATIC_ASSESSMENT", "stats": [{"groupId": "EG000", "numEvents": 2, "numAffected": 2, "numAtRisk": 239}]}, {"term": "Hematoma- Pocket (>30 days post implant)", "organSystem": "Surgical and medical procedures", "assessmentType": "SYSTEMATIC_ASSESSMENT", "stats": [{"groupId": "EG000", "numEvents": 1, "numAffected": 1, "numAtRisk": 239}]}, {"term": "Elevated Threshold - RV Lead", "organSystem": "Product Issues", "assessmentType": "SYSTEMATIC_ASSESSMENT", "stats": [{"groupId": "EG000", "numEvents": 2, "numAffected": 2, "numAtRisk": 171}]}, {"term": "Elevated Threshold - LV Lead", "organSystem": "Product Issues", "assessmentType": "SYSTEMATIC_ASSESSMENT", "stats": [{"groupId": "EG000", "numEvents": 1, "numAffected": 1, "numAtRisk": 115}]}, {"term": "Post-surgical pocket hemorrhage/bleeding/drainage", "organSystem": "Surgical and medical procedures", "assessmentType": "SYSTEMATIC_ASSESSMENT", "stats": [{"groupId": "EG000", "numEvents": 2, "numAffected": 2, "numAtRisk": 239}]}, {"term": "Post -Surgical infection (<= 30 days post implant)", "organSystem": "Surgical and medical procedures", "assessmentType": "SYSTEMATIC_ASSESSMENT", "stats": [{"groupId": "EG000", "numEvents": 1, "numAffected": 1, "numAtRisk": 239}]}, {"term": "Hematoma - pocket (<= 30 days post-implant)", "organSystem": "Surgical and medical procedures", "assessmentType": "SYSTEMATIC_ASSESSMENT", "stats": [{"groupId": "EG000", "numEvents": 2, "numAffected": 2, "numAtRisk": 239}]}, {"term": "Syncope - Heart Failure", "organSystem": "Cardiac disorders", "assessmentType": "SYSTEMATIC_ASSESSMENT", "stats": [{"groupId": "EG000", "numEvents": 1, "numAffected": 1, "numAtRisk": 354}]}, {"term": "Dizziness - Heart Failure", "organSystem": "Cardiac disorders", "assessmentType": "SYSTEMATIC_ASSESSMENT", "stats": [{"groupId": "EG000", "numEvents": 1, "numAffected": 1, "numAtRisk": 354}]}, {"term": "Chest Pain - Heart Failure", "organSystem": "Cardiac disorders", "assessmentType": "SYSTEMATIC_ASSESSMENT", "stats": [{"groupId": "EG000", "numEvents": 1, "numAffected": 1, "numAtRisk": 354}]}, {"term": "Dyspnea - Heart Failure", "organSystem": "Cardiac disorders", "assessmentType": "SYSTEMATIC_ASSESSMENT", "stats": [{"groupId": "EG000", "numEvents": 46, "numAffected": 38, "numAtRisk": 354}]}, {"term": "Peripheral edema - Heart Failure", "organSystem": "Cardiac disorders", "assessmentType": "SYSTEMATIC_ASSESSMENT", "stats": [{"groupId": "EG000", "numEvents": 8, "numAffected": 2, "numAtRisk": 354}]}, {"term": "Fatigue - Heart Failure", "organSystem": "Cardiac disorders", "assessmentType": "SYSTEMATIC_ASSESSMENT", "stats": [{"groupId": "EG000", "numEvents": 5, "numAffected": 5, "numAtRisk": 354}]}, {"term": "Renal Failure/Insufficiency - Heart Failure", "organSystem": "Renal and urinary disorders", "assessmentType": "SYSTEMATIC_ASSESSMENT", "stats": [{"groupId": "EG000", "numEvents": 3, "numAffected": 3, "numAtRisk": 354}]}, {"term": "Dehydration - Heart Failure", "organSystem": "Cardiac disorders", "assessmentType": "SYSTEMATIC_ASSESSMENT", "stats": [{"groupId": "EG000", "numEvents": 1, "numAffected": 1, "numAtRisk": 354}]}, {"term": "Weight Gain - Heart Failure", "organSystem": "Cardiac disorders", "assessmentType": "SYSTEMATIC_ASSESSMENT", "stats": [{"groupId": "EG000", "numEvents": 4, "numAffected": 4, "numAtRisk": 354}]}, {"term": "Pleural Effusion - Heart Failure", "organSystem": "Cardiac disorders", "assessmentType": "SYSTEMATIC_ASSESSMENT", "stats": [{"groupId": "EG000", "numEvents": 1, "numAffected": 1, "numAtRisk": 354}]}, {"term": "Cardiac Medication Complication - Heart Failure", "organSystem": "Cardiac disorders", "assessmentType": "SYSTEMATIC_ASSESSMENT", "stats": [{"groupId": "EG000", "numEvents": 1, "numAffected": 1, "numAtRisk": 354}]}, {"term": "Heart Failure Symptoms - Unspecified", "organSystem": "Cardiac disorders", "assessmentType": "SYSTEMATIC_ASSESSMENT", "stats": [{"groupId": "EG000", "numEvents": 23, "numAffected": 21, "numAtRisk": 354}]}, {"term": "Multiple Heart Failure Symptoms", "organSystem": "Cardiac disorders", "assessmentType": "SYSTEMATIC_ASSESSMENT", "stats": [{"groupId": "EG000", "numEvents": 35, "numAffected": 28, "numAtRisk": 354}]}, {"term": "Other - Heart failure patient condition", "organSystem": "Cardiac disorders", "assessmentType": "SYSTEMATIC_ASSESSMENT", "stats": [{"groupId": "EG000", "numEvents": 4, "numAffected": 4, "numAtRisk": 354}]}, {"term": "Sinus Bradycardia", "organSystem": "Cardiac disorders", "assessmentType": "SYSTEMATIC_ASSESSMENT", "stats": [{"groupId": "EG000", "numEvents": 1, "numAffected": 1, "numAtRisk": 354}]}, {"term": "Ventricular Fibrillation (VF)", "organSystem": "Cardiac disorders", "assessmentType": "SYSTEMATIC_ASSESSMENT", "stats": [{"groupId": "EG000", "numEvents": 6, "numAffected": 6, "numAtRisk": 354}]}, {"term": "Ventricular Tachycardia (VT)/Monomorphic VT", "organSystem": "Cardiac disorders", "assessmentType": "SYSTEMATIC_ASSESSMENT", "stats": [{"groupId": "EG000", "numEvents": 22, "numAffected": 13, "numAtRisk": 354}]}, {"term": "Nonsustained ventricular tachycardia (NSVT)", "organSystem": "Cardiac disorders", "assessmentType": "SYSTEMATIC_ASSESSMENT", "stats": [{"groupId": "EG000", "numEvents": 1, "numAffected": 1, "numAtRisk": 354}]}, {"term": "Atrial Fibrillation (AF)", "organSystem": "Cardiac disorders", "assessmentType": "SYSTEMATIC_ASSESSMENT", "stats": [{"groupId": "EG000", "numEvents": 14, "numAffected": 13, "numAtRisk": 354}]}, {"term": "Atrial Flutter", "organSystem": "Cardiac disorders", "assessmentType": "SYSTEMATIC_ASSESSMENT", "stats": [{"groupId": "EG000", "numEvents": 1, "numAffected": 1, "numAtRisk": 354}]}, {"term": "Atrial Tachycardia/Other SVT (e.g. AVRT, AVNRT, EAT)", "organSystem": "Cardiac disorders", "assessmentType": "SYSTEMATIC_ASSESSMENT", "stats": [{"groupId": "EG000", "numEvents": 3, "numAffected": 3, "numAtRisk": 354}]}, {"term": "Premature Ventricular Contractions (PVC)", "organSystem": "Cardiac disorders", "assessmentType": "SYSTEMATIC_ASSESSMENT", "stats": [{"groupId": "EG000", "numEvents": 2, "numAffected": 2, "numAtRisk": 354}]}, {"term": "Cardiac Arrest", "organSystem": "Cardiac disorders", "assessmentType": "SYSTEMATIC_ASSESSMENT", "stats": [{"groupId": "EG000", "numEvents": 2, "numAffected": 2, "numAtRisk": 354}]}, {"term": "Myocardial Infarction", "organSystem": "Cardiac disorders", "assessmentType": "SYSTEMATIC_ASSESSMENT", "stats": [{"groupId": "EG000", "numEvents": 2, "numAffected": 2, "numAtRisk": 354}]}, {"term": "Coronary Artery Disease", "organSystem": "Cardiac disorders", "assessmentType": "SYSTEMATIC_ASSESSMENT", "stats": [{"groupId": "EG000", "numEvents": 8, "numAffected": 7, "numAtRisk": 354}]}, {"term": "Peripheral Vascular Disease", "organSystem": "General disorders", "assessmentType": "SYSTEMATIC_ASSESSMENT", "stats": [{"groupId": "EG000", "numEvents": 4, "numAffected": 4, "numAtRisk": 354}]}, {"term": "Mitral Regurgitation", "organSystem": "Cardiac disorders", "assessmentType": "SYSTEMATIC_ASSESSMENT", "stats": [{"groupId": "EG000", "numEvents": 3, "numAffected": 3, "numAtRisk": 354}]}, {"term": "Tricuspid Regurgitation", "organSystem": "Cardiac disorders", "assessmentType": "SYSTEMATIC_ASSESSMENT", "stats": [{"groupId": "EG000", "numEvents": 1, "numAffected": 1, "numAtRisk": 354}]}, {"term": "Dizziness", "organSystem": "Cardiac disorders", "assessmentType": "SYSTEMATIC_ASSESSMENT", "stats": [{"groupId": "EG000", "numEvents": 1, "numAffected": 1, "numAtRisk": 354}]}, {"term": "Chest Pain - Ischemic", "organSystem": "Cardiac disorders", "assessmentType": "SYSTEMATIC_ASSESSMENT", "stats": [{"groupId": "EG000", "numEvents": 6, "numAffected": 6, "numAtRisk": 354}]}, {"term": "Chest Pain - Other", "organSystem": "Cardiac disorders", "assessmentType": "SYSTEMATIC_ASSESSMENT", "stats": [{"groupId": "EG000", "numEvents": 2, "numAffected": 2, "numAtRisk": 354}]}, {"term": "Other - Patient condition", "organSystem": "General disorders", "assessmentType": "SYSTEMATIC_ASSESSMENT", "stats": [{"groupId": "EG000", "numEvents": 5, "numAffected": 5, "numAtRisk": 354}]}, {"term": "Transient Ischemic Attack (TIA)", "organSystem": "Nervous system disorders", "assessmentType": "SYSTEMATIC_ASSESSMENT", "stats": [{"groupId": "EG000", "numEvents": 1, "numAffected": 1, "numAtRisk": 354}]}, {"term": "Cerebrovascular Accident (CVA)", "organSystem": "Nervous system disorders", "assessmentType": "SYSTEMATIC_ASSESSMENT", "stats": [{"groupId": "EG000", "numEvents": 2, "numAffected": 2, "numAtRisk": 354}]}, {"term": "Cerebrovascular accident (CVA) - ischemic", "organSystem": "Nervous system disorders", "assessmentType": "SYSTEMATIC_ASSESSMENT", "stats": [{"groupId": "EG000", "numEvents": 1, "numAffected": 1, "numAtRisk": 354}]}, {"term": "Pneumothorax - unrelated procedure/device", "organSystem": "Respiratory, thoracic and mediastinal disorders", "assessmentType": "SYSTEMATIC_ASSESSMENT", "stats": [{"groupId": "EG000", "numEvents": 1, "numAffected": 1, "numAtRisk": 354}]}, {"term": "Other - Unrelated to procedure/device", "organSystem": "General disorders", "assessmentType": "SYSTEMATIC_ASSESSMENT", "stats": [{"groupId": "EG000", "numEvents": 1, "numAffected": 1, "numAtRisk": 354}]}, {"term": "Adverse Reaction - Medication", "organSystem": "General disorders", "assessmentType": "SYSTEMATIC_ASSESSMENT", "stats": [{"groupId": "EG000", "numEvents": 4, "numAffected": 4, "numAtRisk": 354}]}, {"term": "Other - Patient condition", "organSystem": "General disorders", "assessmentType": "SYSTEMATIC_ASSESSMENT", "stats": [{"groupId": "EG000", "numEvents": 2, "numAffected": 2, "numAtRisk": 354}]}, {"term": "Death", "organSystem": "General disorders", "assessmentType": "SYSTEMATIC_ASSESSMENT", "stats": [{"groupId": "EG000", "numEvents": 7, "numAffected": 7, "numAtRisk": 354}]}, {"term": "System Infection", "organSystem": "Product Issues", "assessmentType": "SYSTEMATIC_ASSESSMENT", "stats": [{"groupId": "EG000", "numEvents": 2, "numAffected": 2, "numAtRisk": 354}]}, {"term": "Fever and/or Virus", "organSystem": "General disorders", "assessmentType": "SYSTEMATIC_ASSESSMENT", "stats": [{"groupId": "EG000", "numEvents": 1, "numAffected": 1, "numAtRisk": 354}]}, {"term": "Physical Trauma", "organSystem": "General disorders", "assessmentType": "SYSTEMATIC_ASSESSMENT", "stats": [{"groupId": "EG000", "numEvents": 9, "numAffected": 9, "numAtRisk": 354}]}, {"term": "Localized Infection", "organSystem": "General disorders", "assessmentType": "SYSTEMATIC_ASSESSMENT", "stats": [{"groupId": "EG000", "numEvents": 1, "numAffected": 1, "numAtRisk": 354}]}, {"term": "Hematological", "organSystem": "Blood and lymphatic system disorders", "assessmentType": "SYSTEMATIC_ASSESSMENT", "stats": [{"groupId": "EG000", "numEvents": 1, "numAffected": 1, "numAtRisk": 354}]}, {"term": "Neurological", "organSystem": "Nervous system disorders", "assessmentType": "SYSTEMATIC_ASSESSMENT", "stats": [{"groupId": "EG000", "numEvents": 4, "numAffected": 4, "numAtRisk": 354}]}, {"term": "Gastrointestinal", "organSystem": "Gastrointestinal disorders", "assessmentType": "SYSTEMATIC_ASSESSMENT", "stats": [{"groupId": "EG000", "numEvents": 15, "numAffected": 12, "numAtRisk": 354}]}, {"term": "Pulmonary", "organSystem": "Respiratory, thoracic and mediastinal disorders", "assessmentType": "SYSTEMATIC_ASSESSMENT", "stats": [{"groupId": "EG000", "numEvents": 16, "numAffected": 16, "numAtRisk": 354}]}, {"term": "Other - Whole body", "organSystem": "General disorders", "assessmentType": "SYSTEMATIC_ASSESSMENT", "stats": [{"groupId": "EG000", "numEvents": 3, "numAffected": 2, "numAtRisk": 354}]}, {"term": "Genitourinary", "organSystem": "Reproductive system and breast disorders", "assessmentType": "SYSTEMATIC_ASSESSMENT", "stats": [{"groupId": "EG000", "numEvents": 3, "numAffected": 3, "numAtRisk": 354}]}, {"term": "Renal", "organSystem": "Renal and urinary disorders", "assessmentType": "SYSTEMATIC_ASSESSMENT", "stats": [{"groupId": "EG000", "numEvents": 4, "numAffected": 4, "numAtRisk": 354}]}, {"term": "Musculoskeletal", "organSystem": "Musculoskeletal and connective tissue disorders", "assessmentType": "SYSTEMATIC_ASSESSMENT", "stats": [{"groupId": "EG000", "numEvents": 5, "numAffected": 5, "numAtRisk": 354}]}, {"term": "Head, eyes, ears, nose, throat (HEENT)", "organSystem": "General disorders", "assessmentType": "SYSTEMATIC_ASSESSMENT", "stats": [{"groupId": "EG000", "numEvents": 4, "numAffected": 4, "numAtRisk": 354}]}, {"term": "Cancer", "organSystem": "Neoplasms benign, malignant and unspecified (incl cysts and polyps)", "assessmentType": "SYSTEMATIC_ASSESSMENT", "stats": [{"groupId": "EG000", "numEvents": 15, "numAffected": 11, "numAtRisk": 354}]}, {"term": "Incisional/Superficial Infection (<= 30d post implant without explant)", "organSystem": "Product Issues", "assessmentType": "SYSTEMATIC_ASSESSMENT", "stats": [{"groupId": "EG000", "numEvents": 1, "numAffected": 1, "numAtRisk": 16}]}], "otherEvents": [{"term": "Extracardiac Stimulation - LV PG System", "organSystem": "Product Issues", "assessmentType": "SYSTEMATIC_ASSESSMENT", "stats": [{"groupId": "EG000", "numEvents": 1, "numAffected": 1, "numAtRisk": 239}]}, {"term": "Inappropriate tachy therapy - SVT - Defibrillation Lead", "organSystem": "Product Issues", "assessmentType": "SYSTEMATIC_ASSESSMENT", "stats": [{"groupId": "EG000", "numEvents": 3, "numAffected": 3, "numAtRisk": 171}]}, {"term": "Extracardiac Stimulation - LV Lead", "organSystem": "Product Issues", "assessmentType": "SYSTEMATIC_ASSESSMENT", "stats": [{"groupId": "EG000", "numEvents": 4, "numAffected": 3, "numAtRisk": 115}]}, {"term": "Hematoma - pocket (<= 30 days post-implant)", "organSystem": "Product Issues", "assessmentType": "SYSTEMATIC_ASSESSMENT", "stats": [{"groupId": "EG000", "numEvents": 1, "numAffected": 1, "numAtRisk": 239}]}, {"term": "Dizziness - Heart Failure", "organSystem": "Cardiac disorders", "assessmentType": "SYSTEMATIC_ASSESSMENT", "stats": [{"groupId": "EG000", "numEvents": 1, "numAffected": 1, "numAtRisk": 354}]}, {"term": "Chest Pain - Heart Failure", "organSystem": "Cardiac disorders", "assessmentType": "SYSTEMATIC_ASSESSMENT", "stats": [{"groupId": "EG000", "numEvents": 1, "numAffected": 1, "numAtRisk": 354}]}, {"term": "Dyspnea - Heart Failure", "organSystem": "Cardiac disorders", "assessmentType": "SYSTEMATIC_ASSESSMENT", "stats": [{"groupId": "EG000", "numEvents": 14, "numAffected": 12, "numAtRisk": 354}]}, {"term": "Renal Failure/Insufficiency - Heart Failure", "organSystem": "Renal and urinary disorders", "assessmentType": "SYSTEMATIC_ASSESSMENT", "stats": [{"groupId": "EG000", "numEvents": 1, "numAffected": 1, "numAtRisk": 354}]}, {"term": "Dehydration - Heart Failure", "organSystem": "Cardiac disorders", "assessmentType": "SYSTEMATIC_ASSESSMENT", "stats": [{"groupId": "EG000", "numEvents": 1, "numAffected": 1, "numAtRisk": 354}]}, {"term": "Heart Failure Symptoms - Unspecified", "organSystem": "Cardiac disorders", "assessmentType": "SYSTEMATIC_ASSESSMENT", "stats": [{"groupId": "EG000", "numEvents": 5, "numAffected": 5, "numAtRisk": 354}]}, {"term": "Multiple Heart Failure Symptoms", "organSystem": "Cardiac disorders", "assessmentType": "SYSTEMATIC_ASSESSMENT", "stats": [{"groupId": "EG000", "numEvents": 6, "numAffected": 6, "numAtRisk": 354}]}, {"term": "Other - Heart failure patient condition", "organSystem": "Cardiac disorders", "assessmentType": "SYSTEMATIC_ASSESSMENT", "stats": [{"groupId": "EG000", "numEvents": 2, "numAffected": 2, "numAtRisk": 354}]}, {"term": "Ventricular Fibrillation (VF)", "organSystem": "Cardiac disorders", "assessmentType": "SYSTEMATIC_ASSESSMENT", "stats": [{"groupId": "EG000", "numEvents": 3, "numAffected": 3, "numAtRisk": 354}]}, {"term": "Ventricular Tachycardia (VT)/Monomorphic VT", "organSystem": "Cardiac disorders", "assessmentType": "SYSTEMATIC_ASSESSMENT", "stats": [{"groupId": "EG000", "numEvents": 46, "numAffected": 11, "numAtRisk": 354}]}, {"term": "Nonsustained ventricular tachycardia (NSVT)", "organSystem": "Cardiac disorders", "assessmentType": "SYSTEMATIC_ASSESSMENT", "stats": [{"groupId": "EG000", "numEvents": 2, "numAffected": 2, "numAtRisk": 354}]}, {"term": "Atrial Fibrillation (AF)", "organSystem": "Cardiac disorders", "assessmentType": "SYSTEMATIC_ASSESSMENT", "stats": [{"groupId": "EG000", "numEvents": 15, "numAffected": 14, "numAtRisk": 354}]}, {"term": "Atrial Flutter", "organSystem": "Cardiac disorders", "assessmentType": "SYSTEMATIC_ASSESSMENT", "stats": [{"groupId": "EG000", "numEvents": 1, "numAffected": 1, "numAtRisk": 354}]}, {"term": "Atrial Tachycardia/Other SVT (e.g. AVRT, AVNRT, EAT)", "organSystem": "Cardiac disorders", "assessmentType": "SYSTEMATIC_ASSESSMENT", "stats": [{"groupId": "EG000", "numEvents": 3, "numAffected": 3, "numAtRisk": 354}]}, {"term": "Hypotension/Orthostatic Hypotension", "organSystem": "Cardiac disorders", "assessmentType": "SYSTEMATIC_ASSESSMENT", "stats": [{"groupId": "EG000", "numEvents": 1, "numAffected": 1, "numAtRisk": 354}]}, {"term": "Hypertension/Hypertensive Crisis", "organSystem": "Cardiac disorders", "assessmentType": "SYSTEMATIC_ASSESSMENT", "stats": [{"groupId": "EG000", "numEvents": 1, "numAffected": 1, "numAtRisk": 354}]}, {"term": "Mitral Regurgitation", "organSystem": "Cardiac disorders", "assessmentType": "SYSTEMATIC_ASSESSMENT", "stats": [{"groupId": "EG000", "numEvents": 1, "numAffected": 1, "numAtRisk": 354}]}, {"term": "Syncope", "organSystem": "Cardiac disorders", "assessmentType": "SYSTEMATIC_ASSESSMENT", "stats": [{"groupId": "EG000", "numEvents": 1, "numAffected": 1, "numAtRisk": 354}]}, {"term": "Dizziness", "organSystem": "Cardiac disorders", "assessmentType": "SYSTEMATIC_ASSESSMENT", "stats": [{"groupId": "EG000", "numEvents": 4, "numAffected": 3, "numAtRisk": 354}]}, {"term": "Dyspnea", "organSystem": "Cardiac disorders", "assessmentType": "SYSTEMATIC_ASSESSMENT", "stats": [{"groupId": "EG000", "numEvents": 2, "numAffected": 2, "numAtRisk": 354}]}, {"term": "Other - Patient condition", "organSystem": "General disorders", "assessmentType": "SYSTEMATIC_ASSESSMENT", "stats": [{"groupId": "EG000", "numEvents": 1, "numAffected": 1, "numAtRisk": 354}]}, {"term": "Transient Ischemic Attack (TIA)", "organSystem": "Nervous system disorders", "assessmentType": "SYSTEMATIC_ASSESSMENT", "stats": [{"groupId": "EG000", "numEvents": 1, "numAffected": 1, "numAtRisk": 354}]}, {"term": "Intracardiac thrombus", "organSystem": "Cardiac disorders", "assessmentType": "SYSTEMATIC_ASSESSMENT", "stats": [{"groupId": "EG000", "numEvents": 1, "numAffected": 1, "numAtRisk": 354}]}, {"term": "Hemorrhage - unrelated procedure/device", "organSystem": "General disorders", "assessmentType": "SYSTEMATIC_ASSESSMENT", "stats": [{"groupId": "EG000", "numEvents": 1, "numAffected": 1, "numAtRisk": 354}]}, {"term": "Pleural Effusion - unrelated procedure/device", "organSystem": "Respiratory, thoracic and mediastinal disorders", "assessmentType": "SYSTEMATIC_ASSESSMENT", "stats": [{"groupId": "EG000", "numEvents": 2, "numAffected": 2, "numAtRisk": 354}]}, {"term": "Adverse Reaction - Medication", "organSystem": "General disorders", "assessmentType": "SYSTEMATIC_ASSESSMENT", "stats": [{"groupId": "EG000", "numEvents": 2, "numAffected": 2, "numAtRisk": 354}]}, {"term": "System Infection", "organSystem": "Product Issues", "assessmentType": "SYSTEMATIC_ASSESSMENT", "stats": [{"groupId": "EG000", "numEvents": 1, "numAffected": 1, "numAtRisk": 354}]}, {"term": "Fever and/or Virus", "organSystem": "General disorders", "assessmentType": "SYSTEMATIC_ASSESSMENT", "stats": [{"groupId": "EG000", "numEvents": 5, "numAffected": 5, "numAtRisk": 354}]}, {"term": "Physical Trauma", "organSystem": "General disorders", "assessmentType": "SYSTEMATIC_ASSESSMENT", "stats": [{"groupId": "EG000", "numEvents": 10, "numAffected": 9, "numAtRisk": 354}]}, {"term": "Hematological", "organSystem": "Blood and lymphatic system disorders", "assessmentType": "SYSTEMATIC_ASSESSMENT", "stats": [{"groupId": "EG000", "numEvents": 2, "numAffected": 2, "numAtRisk": 354}]}, {"term": "Neurological", "organSystem": "Nervous system disorders", "assessmentType": "SYSTEMATIC_ASSESSMENT", "stats": [{"groupId": "EG000", "numEvents": 1, "numAffected": 1, "numAtRisk": 354}]}, {"term": "Gastrointestinal", "organSystem": "Gastrointestinal disorders", "assessmentType": "SYSTEMATIC_ASSESSMENT", "stats": [{"groupId": "EG000", "numEvents": 5, "numAffected": 5, "numAtRisk": 354}]}, {"term": "Pulmonary", "organSystem": "Respiratory, thoracic and mediastinal disorders", "assessmentType": "SYSTEMATIC_ASSESSMENT", "stats": [{"groupId": "EG000", "numEvents": 1, "numAffected": 1, "numAtRisk": 354}]}, {"term": "Genitourinary", "organSystem": "Reproductive system and breast disorders", "assessmentType": "SYSTEMATIC_ASSESSMENT", "stats": [{"groupId": "EG000", "numEvents": 1, "numAffected": 1, "numAtRisk": 354}]}, {"term": "Renal", "organSystem": "Renal and urinary disorders", "assessmentType": "SYSTEMATIC_ASSESSMENT", "stats": [{"groupId": "EG000", "numEvents": 30, "numAffected": 24, "numAtRisk": 354}]}, {"term": "Musculoskeletal", "organSystem": "Musculoskeletal and connective tissue disorders", "assessmentType": "SYSTEMATIC_ASSESSMENT", "stats": [{"groupId": "EG000", "numEvents": 2, "numAffected": 2, "numAtRisk": 354}]}, {"term": "Integumentary", "organSystem": "Skin and subcutaneous tissue disorders", "assessmentType": "SYSTEMATIC_ASSESSMENT", "stats": [{"groupId": "EG000", "numEvents": 3, "numAffected": 1, "numAtRisk": 354}]}, {"term": "Head, eyes, ears, nose, throat (HEENT)", "organSystem": "General disorders", "assessmentType": "SYSTEMATIC_ASSESSMENT", "stats": [{"groupId": "EG000", "numEvents": 4, "numAffected": 4, "numAtRisk": 354}]}, {"term": "Endocrine", "organSystem": "Endocrine disorders", "assessmentType": "SYSTEMATIC_ASSESSMENT", "stats": [{"groupId": "EG000", "numEvents": 2, "numAffected": 2, "numAtRisk": 354}]}, {"term": "Inappropriate Tachy Therapy - Other - PG", "organSystem": "Product Issues", "assessmentType": "SYSTEMATIC_ASSESSMENT", "stats": [{"groupId": "EG000", "numEvents": 1, "numAffected": 1, "numAtRisk": 16}]}]}, "moreInfoModule": {"certainAgreement": {"piSponsorEmployee": false, "restrictionType": "OTHER", "restrictiveAgreement": true, "otherDetails": "There IS an agreement between the Principal Investigator and the Sponsor (or its agents) that restricts the PI's rights to discuss or publish trial results after the trial is completed."}, "pointOfContact": {"title": "Caroline Beaudoint", "organization": "Boston Scientific", "email": "Caroline.Beaudoint@bsci.com", "phone": "+32479904163"}}}, "documentSection": {"largeDocumentModule": {"largeDocs": [{"typeAbbrev": "Prot_SAP", "hasProtocol": true, "hasSap": true, "hasIcf": false, "label": "Study Protocol and Statistical Analysis Plan", "date": "2018-03-29", "uploadDate": "2021-08-13T08:28", "filename": "Prot_SAP_000.pdf", "size": 3410582}]}}, "derivedSection": {"miscInfoModule": {"versionHolder": "2024-06-24"}, "conditionBrowseModule": {"meshes": [{"id": "D000006333", "term": "Heart Failure"}, {"id": "D000001145", "term": "Arrhythmias, Cardiac"}, {"id": "D000016757", "term": "Death, Sudden, Cardiac"}, {"id": "D000003643", "term": "Death"}], "ancestors": [{"id": "D000006331", "term": "Heart Diseases"}, {"id": "D000002318", "term": "Cardiovascular Diseases"}, {"id": "D000010335", "term": "Pathologic Processes"}, {"id": "D000006323", "term": "Heart Arrest"}, {"id": "D000003645", "term": "Death, Sudden"}], "browseLeaves": [{"id": "M9421", "name": "Heart Failure", "asFound": "Heart Failure", "relevance": "HIGH"}, {"id": "M19118", "name": "Death, Sudden, Cardiac", "asFound": "Sudden Cardiac Death", "relevance": "HIGH"}, {"id": "M6845", "name": "Death", "asFound": "Cardiac Death", "relevance": "HIGH"}, {"id": "M4453", "name": "Arrhythmias, Cardiac", "asFound": "Arrhythmias, Cardiac", "relevance": "HIGH"}, {"id": "M6847", "name": "Death, Sudden", "relevance": "LOW"}, {"id": "M9419", "name": "Heart Diseases", "relevance": "LOW"}, {"id": "M9411", "name": "Heart Arrest", "relevance": "LOW"}], "browseBranches": [{"abbrev": "BC14", "name": "Heart and Blood Diseases"}, {"abbrev": "All", "name": "All Conditions"}, {"abbrev": "BC23", "name": "Symptoms and General Pathology"}]}}, "hasResults": true}