{"protocolSection": {"identificationModule": {"nctId": "NCT01472757", "orgStudyIdInfo": {"id": "VR506/2/002"}, "organization": {"fullName": "Vectura Limited", "class": "INDUSTRY"}, "briefTitle": "Clinical Study to Evaluate the Efficacy of VR506 Using a New Inhaler for the Treatment of Asthma", "officialTitle": "A Randomised, Double-blind, Placebo-controlled, Parallel Group, Study to Evaluate the Efficacy and Safety of VR506 Inhaled From a New Inhaler in Adolescent and Adult Subjects With Asthma"}, "statusModule": {"statusVerifiedDate": "2020-04", "overallStatus": "COMPLETED", "expandedAccessInfo": {"hasExpandedAccess": false}, "startDateStruct": {"date": "2011-10"}, "primaryCompletionDateStruct": {"date": "2013-05", "type": "ACTUAL"}, "completionDateStruct": {"date": "2013-05", "type": "ACTUAL"}, "studyFirstSubmitDate": "2011-11-11", "studyFirstSubmitQcDate": "2011-11-11", "studyFirstPostDateStruct": {"date": "2011-11-16", "type": "ESTIMATED"}, "resultsFirstSubmitDate": "2020-03-19", "resultsFirstSubmitQcDate": "2020-04-09", "resultsFirstPostDateStruct": {"date": "2020-04-21", "type": "ACTUAL"}, "dispFirstSubmitDate": "2014-05-09", "dispFirstSubmitQcDate": "2014-05-09", "dispFirstPostDateStruct": {"date": "2014-05-26", "type": "ESTIMATED"}, "lastUpdateSubmitDate": "2020-04-09", "lastUpdatePostDateStruct": {"date": "2020-04-21", "type": "ACTUAL"}}, "sponsorCollaboratorsModule": {"responsibleParty": {"type": "SPONSOR"}, "leadSponsor": {"name": "Vectura Limited", "class": "INDUSTRY"}}, "descriptionModule": {"briefSummary": "The purpose of the study is to evaluate the clinical efficacy of three doses of VR506 delivered via a new dry powder inhaler for the treatment of asthma."}, "conditionsModule": {"conditions": ["Asthma"]}, "designModule": {"studyType": "INTERVENTIONAL", "phases": ["PHASE2", "PHASE3"], "designInfo": {"allocation": "RANDOMIZED", "interventionModel": "PARALLEL", "primaryPurpose": "TREATMENT", "maskingInfo": {"masking": "QUADRUPLE", "whoMasked": ["PARTICIPANT", "CARE_PROVIDER", "INVESTIGATOR", "OUTCOMES_ASSESSOR"]}}, "enrollmentInfo": {"count": 374, "type": "ACTUAL"}}, "armsInterventionsModule": {"armGroups": [{"label": "Placebo", "type": "PLACEBO_COMPARATOR", "interventionNames": ["Drug: Placebo"]}, {"label": "Dose 1", "type": "ACTIVE_COMPARATOR", "interventionNames": ["Drug: VR506"]}, {"label": "Dose 2", "type": "ACTIVE_COMPARATOR", "interventionNames": ["Drug: VR506"]}, {"label": "Dose 3", "type": "ACTIVE_COMPARATOR", "interventionNames": ["Drug: VR506"]}], "interventions": [{"type": "DRUG", "name": "VR506", "description": "VR506 inhalation powder delivered via a new dry powder inhaler", "armGroupLabels": ["Dose 1", "Dose 2", "Dose 3"]}, {"type": "DRUG", "name": "Placebo", "description": "Placebo delivered via a new dry powder inhaler", "armGroupLabels": ["Placebo"]}]}, "outcomesModule": {"primaryOutcomes": [{"measure": "Mean Change From Start of Treatment Baseline to End of Study (Week 12) for In-clinic Morning Pre-Dose Forced Expiratory Volume In 1 Second (FEV1)", "timeFrame": "Baseline and 12 weeks"}], "secondaryOutcomes": [{"measure": "Number of Participants With Withdrawals Due to Worsening of Asthma", "timeFrame": "12 weeks"}, {"measure": "Mean Change From Start of Treatment Baseline to End of Study (Week 12) for In-clinic Weekly Morning Pre-dose Peak Expiratory Flow (PEF)", "timeFrame": "Baseline and 12 weeks"}, {"measure": "Assessment of Acceptability of the Device", "description": "Percentage of subjects that overall found it very easy, fairly easy or fairy difficult to use the inhaler, based on inhaler acceptability questionnaire.", "timeFrame": "12 weeks"}]}, "eligibilityModule": {"eligibilityCriteria": "Inclusion Criteria:\n\n* Written informed consent\n* Adolescents aged 12 to 17 years (inclusive) and adults aged 18 to 65 years (inclusive)\n* Documented clinical history of asthma (i.e. made by a physician) for at least 6 months before the Screening Visit\n* Documented asthma reversibility in the 5 years prior to or during Screening, or if the asthma reversibility criterion is not met at Screening, then a repeat test may be carried out at the end of the Run-In Period\n* Subjects with asthma who, in the opinion of the investigator, require maintenance therapy with inhaled corticosteroids (ICS), are believed to have been regularly compliant with this therapy, and are therefore likely to deteriorate within 6 weeks following withdrawal of their usual ICS treatment\n* Mild or moderate asthma, defined as:\n\n  * Mild - good asthma control achieved by low-dose inhaled corticosteroid (daily dose 200-500 \u03bcg beclomethasone dipropionate or equivalent) with or without other low-intensity treatment (e.g. leukotriene modifiers or cromones) for at least 28 days before the Screening Visit\n  * Moderate - good asthma control achieved by low- to moderate-dose ICS (daily dose 200-1000 \u03bcg beclomethasone dipropionate or equivalent), and long acting \u03b22-agonist (LABA) or other extra treatment, for at least 28 days before the Screening Visit\n* Ability to use the new inhaler correctly, based on investigator's review of the completed inhaler operation checklist\n* Ability to use the eDiary correctly, assessed by the investigator during the Screening Period\n* Ability to perform technically satisfactory pulmonary function tests\n* Ability to comply with study procedures, including blood sampling\n* Body mass index (BMI) of 16.0 to 26.0 kg/m2 in adolescents, and in adult subjects recruited in the Philippines, and 18.0 to 32.0 kg/m2 in adults recruited in other countries\n* Available to complete all study visits\n* Oral peak inspiratory flow (PIF) of at least 60 L/min; using an appropriate device set to match the resistance of the new dry powder inhaler (nDPI)\n* Good health, except for the presence of asthma, according to medical history and physical examination\n* Normal (i.e. non-clinically significant abnormality) 12-lead electrocardiogram (ECG)\n* Negative drug, alcohol, and urine cotinine screen; subjects must test negative for amphetamines, barbiturates, benzodiazepines, cannabinoids, cocaine, cotinine (unless related to nicotine-containing therapies), ethanol, and opiates (unless given as a prescription medicine)\n* Non-smokers or ex-smokers with a smoking history of less than 10 pack-years (e.g. \\<20 cigarettes per day for 10 years or 40 cigarettes per day for 5 years) and stopped smoking for at least one year prior to the Screening Visit. Smoking will not be permitted throughout the study\n* Female subjects of child-bearing potential must be using medically acceptable forms of contraception; approved forms of contraception are abstinence, hormonal (oral, implant, transdermal, or injection, in use for \u22653 consecutive months before the start of the Run-In Period), double barrier (condom with spermicide, diaphragm with spermicide), intrauterine device, or vasectomised partner (\u22656 months since vasectomy)\n\nExclusion Criteria:\n\n* Regular use (\u22653 times per week) of topical steroids taken to treat dermatitis, rhinitis or allergic conjunctivitis, within 28 days of the Screening Visit\n* Subjects who have or who have had an upper or lower respiratory tract infection within 28 days of the Screening Visit\n* Subjects with asthma that required admission to an intensive care unit and/or ventilation within the previous 12 months\n* History of lung cancer\n* Subjects with \"brittle asthma\", defined as patients with asthma who either maintain over many months a wide variation (\\>40%) in peak expiratory flow (PEF) between morning and evening measurements despite moderate to high doses of ICS, or are prone to acute, severe and often unpredictable attacks of asthma that may be fatal, on a background of apparently good asthma control\n* History or current diagnosis of human immunodeficiency virus (HIV) infection\n* Active chronic hepatitis B or C infection. If the patient's screening test is positive for hepatitis B surface antigen, the patient should be excluded unless the investigator, after a careful review of the patient's medical history and current laboratory tests of liver function, can exclude the possibility of recent or current infection\n* Persistent arterial hypotension, with average systolic blood pressure (SBP) readings of \u226495 mmHg\n* Subjects who have any clinically significant abnormality or finding from examination, tests, or history that may compromise subject safety, specifically any history of cardiac, renal or hepatic impairment\n* Subjects with an abnormal ECG\n* Persistent elevation of blood pressure, with average SBP readings of \u2265160 mmHg or average diastolic blood pressure (DBP) readings of \u2265100 mmHg\n* Pregnant or lactating females\n* Participation in another clinical study in the 28 days prior to the Screening Visit\n* Current or a history of drug or alcohol abuse or dependence according to World Health Organization criteria in the 12 months prior to the Screening Visit or evidence of such abuse as indicated by laboratory assays conducted during the screening evaluation\n* Evidence of clinically significant renal, hepatic, cardiac, pulmonary (apart from asthma) or metabolic dysfunction, e.g. diabetes mellitus, thyrotoxicosis, uncorrected hypokalaemia, or predisposition to low levels of serum potassium\n* Inability to communicate well with the investigator\n* Evidence of clinically significant renal, hepatic, cardiac, pulmonary (apart from asthma) or metabolic dysfunction, e.g. diabetes mellitus, thyrotoxicosis, uncorrected hypokalaemia, or predisposition to low levels of serum potassium\n* Donation of \u2265450 mL of blood or blood products within the previous 12 weeks prior to the Screening Visit\n* History of allergy, intolerance or contraindications to corticosteroids, lactose, or severe allergy to milk proteins\n* Consumption of alcohol- or caffeine-containing foods or beverages from midnight before or during the Screening Visit. The visit can be rescheduled once before the subject is excluded\n* History of medically diagnosed chronic respiratory diseases (other than asthma) e.g. chronic obstructive pulmonary disease\n* Subjects with previously clinically or radiologically diagnosed osteoporosis and/or those receiving regular treatment (more than 1 month duration) with oral or parenteral corticosteroids in the last year prior to the Screening Visit", "healthyVolunteers": false, "sex": "ALL", "minimumAge": "12 Years", "maximumAge": "65 Years", "stdAges": ["CHILD", "ADULT", "OLDER_ADULT"]}, "contactsLocationsModule": {"overallOfficials": [{"name": "Ronald Dahl, Dr.", "affiliation": "Aarhus University Hospital", "role": "PRINCIPAL_INVESTIGATOR"}], "locations": [{"facility": "Vectura Clinical Trial Site 10038", "city": "Fountain Valley", "state": "California", "zip": "92708", "country": "United States", "geoPoint": {"lat": 33.70918, "lon": -117.95367}}, {"facility": "Vectura Clinical Trial Site 10031", "city": "Los Angeles", "state": "California", "zip": "90048", "country": "United States", "geoPoint": {"lat": 34.05223, "lon": -118.24368}}, {"facility": "Vectura Clinical Trial Site 10044", "city": "Mission Viejo", "state": "California", "zip": "92691", "country": "United States", "geoPoint": {"lat": 33.60002, "lon": -117.672}}, {"facility": "Vectura Clinical Trial Site 10022", "city": "Orange", "state": "California", "zip": "92868", "country": "United States", "geoPoint": {"lat": 33.78779, "lon": -117.85311}}, {"facility": "Vectura Clinical Trial Site 10014", "city": "Rancho Mirage", "state": "California", "zip": "92270", "country": "United States", "geoPoint": {"lat": 33.73974, "lon": -116.41279}}, {"facility": "Vectura Clinical Trial Site 10027", "city": "Rolling Hills Estates", "state": "California", "zip": "90274", "country": "United States", "geoPoint": {"lat": 33.78779, "lon": -118.35813}}, {"facility": "Vectura Clinical Trial Site 10033", "city": "San Jose", "state": "California", "zip": "95117", "country": "United States", "geoPoint": {"lat": 37.33939, "lon": -121.89496}}, {"facility": "Vectura Clinical Trial Site 10016", "city": "Vista", "state": "California", "zip": "90283", "country": "United States", "geoPoint": {"lat": 33.20004, "lon": -117.24254}}, {"facility": "Vectura Clinical Trial Site 10023", "city": "Centennial", "state": "Colorado", "zip": "80112", "country": "United States", "geoPoint": {"lat": 39.57916, "lon": -104.87692}}, {"facility": "Vectura Clinical Trial Site 10001", "city": "Colorado Springs", "state": "Colorado", "zip": "80907", "country": "United States", "geoPoint": {"lat": 38.83388, "lon": -104.82136}}, {"facility": "Vectura Clinical Trial Site 10025", "city": "Denver", "state": "Colorado", "zip": "80230", "country": "United States", "geoPoint": {"lat": 39.73915, "lon": -104.9847}}, {"facility": "Vectura Clinical Trial Site 10041", "city": "Sarasota", "state": "Florida", "zip": "34223", "country": "United States", "geoPoint": {"lat": 27.33643, "lon": -82.53065}}, {"facility": "Vectura Clinical Trial Site 10011", "city": "Albany", "state": "Georgia", "zip": "31707", "country": "United States", "geoPoint": {"lat": 31.57851, "lon": -84.15574}}, {"facility": "Vectura Clinical Trial Site 10002", "city": "Metairie", "state": "Louisiana", "zip": "70006", "country": "United States", "geoPoint": {"lat": 29.98409, "lon": -90.15285}}, {"facility": "Vectura Clinical Trial Site 10042", "city": "Baltimore", "state": "Maryland", "zip": "21236", "country": "United States", "geoPoint": {"lat": 39.29038, "lon": -76.61219}}, {"facility": "Vectura Clinical Trial Site 10029", "city": "North Dartmouth", "state": "Massachusetts", "zip": "02747", "country": "United States", "geoPoint": {"lat": 41.63899, "lon": -70.97032}}, {"facility": "Vectura Clinical Trial Site 10008", "city": "Plymouth", "state": "Minnesota", "zip": "55441", "country": "United States", "geoPoint": {"lat": 45.01052, "lon": -93.45551}}, {"facility": "Vectura Clinical Trial Site 10020", "city": "Warrensburg", "state": "Missouri", "zip": "64093", "country": "United States", "geoPoint": {"lat": 38.76279, "lon": -93.73605}}, {"facility": "Vectura Clinical Trial Site 10009", "city": "Missoula", "state": "Montana", "zip": "59808", "country": "United States", "geoPoint": {"lat": 46.87215, "lon": -113.994}}, {"facility": "Vectura Clinical Trial Site 10034", "city": "Bellevue", "state": "Nebraska", "zip": "68123", "country": "United States", "geoPoint": {"lat": 41.13667, "lon": -95.89084}}, {"facility": "Vectura Clinical Trial Site 10035", "city": "Omaha", "state": "Nebraska", "zip": "68114", "country": "United States", "geoPoint": {"lat": 41.25626, "lon": -95.94043}}, {"facility": "Vectura Clinical Trial Site 10015", "city": "Omaha", "state": "Nebraska", "zip": "68130", "country": "United States", "geoPoint": {"lat": 41.25626, "lon": -95.94043}}, {"facility": "Vectura Clinical Trial Site 10040", "city": "Rochester", "state": "New York", "zip": "14618", "country": "United States", "geoPoint": {"lat": 43.15478, "lon": -77.61556}}, {"facility": "Vectura Clinical Trial Site 10010", "city": "Sylvania", "state": "Ohio", "zip": "43560", "country": "United States", "geoPoint": {"lat": 41.71894, "lon": -83.71299}}, {"facility": "Vectura Clinical Trial Site 10017", "city": "Oklahoma City", "state": "Oklahoma", "zip": "73103", "country": "United States", "geoPoint": {"lat": 35.46756, "lon": -97.51643}}, {"facility": "Vectura Clinical Trial Site 10028", "city": "Medford", "state": "Oregon", "zip": "97504", "country": "United States", "geoPoint": {"lat": 42.32652, "lon": -122.87559}}, {"facility": "Vectura Clinical Trial Site 10024", "city": "Portland", "state": "Oregon", "zip": "97202", "country": "United States", "geoPoint": {"lat": 45.52345, "lon": -122.67621}}, {"facility": "Vectura Clinical Trial Site 10021", "city": "Upland", "state": "Pennsylvania", "zip": "19013", "country": "United States", "geoPoint": {"lat": 39.85261, "lon": -75.38269}}, {"facility": "Vectura Clinical Trial Site 10003", "city": "Charleston", "state": "South Carolina", "zip": "29407", "country": "United States", "geoPoint": {"lat": 32.77657, "lon": -79.93092}}, {"facility": "Vectura Clinical Trial Site 10019", "city": "Boerne", "state": "Texas", "zip": "78006", "country": "United States", "geoPoint": {"lat": 29.79466, "lon": -98.73197}}, {"facility": "Vectura Clinical Trial Site 10039", "city": "Waco", "state": "Texas", "zip": "76712", "country": "United States", "geoPoint": {"lat": 31.54933, "lon": -97.14667}}, {"facility": "Vectura Clinical Trial Site 10004", "city": "Draper", "state": "Utah", "zip": "84020", "country": "United States", "geoPoint": {"lat": 40.52467, "lon": -111.86382}}, {"facility": "Vectura Clinical Trial Site 31001", "city": "Lipa City", "state": "Batangas", "country": "Philippines", "geoPoint": {"lat": 13.9411, "lon": 121.1631}}, {"facility": "Vectura Clinical Trial Site 31002", "city": "Davao City", "country": "Philippines", "geoPoint": {"lat": 7.07306, "lon": 125.61278}}, {"facility": "Vectura Clinical Trial Site 31003", "city": "Iloilo City", "country": "Philippines", "geoPoint": {"lat": 10.69694, "lon": 122.56444}}, {"facility": "Vectura Clinical Trial Site 31004", "city": "Pasig City", "country": "Philippines", "geoPoint": {"lat": 14.58691, "lon": 121.0614}}, {"facility": "Vectura Clinical Trial Site 31005", "city": "Quezon City", "country": "Philippines", "geoPoint": {"lat": 14.6488, "lon": 121.0509}}, {"facility": "Vectura Clinical Trial Site 31007", "city": "Quezon City", "country": "Philippines", "geoPoint": {"lat": 14.6488, "lon": 121.0509}}, {"facility": "Vectura Clinical Trial Site 20018", "city": "Bialystok", "zip": "15-430", "country": "Poland", "geoPoint": {"lat": 53.13333, "lon": 23.16433}}, {"facility": "Vectura Clinical Trial Site 20013", "city": "Bio\u0142ystok", "zip": "15-276", "country": "Poland"}, {"facility": "Vectura Clinical Trial Site 20015", "city": "Krakow", "zip": "30-510", "country": "Poland", "geoPoint": {"lat": 50.06143, "lon": 19.93658}}, {"facility": "Vectura Clinical Trial Site 20019", "city": "Krakow", "zip": "31-024", "country": "Poland", "geoPoint": {"lat": 50.06143, "lon": 19.93658}}, {"facility": "Vectura Clinical Trial Site 20012", "city": "Lublin", "zip": "20-718", "country": "Poland", "geoPoint": {"lat": 51.25, "lon": 22.56667}}, {"facility": "Vectura Clinical Trial Site 20008", "city": "Ostr\u00f3w Wielkopolski", "zip": "63-400", "country": "Poland", "geoPoint": {"lat": 51.65501, "lon": 17.80686}}, {"facility": "Vectura Clinical Trial Site 20003", "city": "Pozna\u0144", "zip": "60-214", "country": "Poland", "geoPoint": {"lat": 52.40692, "lon": 16.92993}}, {"facility": "Vectura Clinical Trial Site 20005", "city": "Pozna\u0144", "zip": "60-823", "country": "Poland", "geoPoint": {"lat": 52.40692, "lon": 16.92993}}, {"facility": "Vectura Clinical Trial Site 20016", "city": "Skiemiewice", "zip": "96-100", "country": "Poland"}, {"facility": "Vectura Clinical Trial Site 20021", "city": "Tarnow", "zip": "33-100", "country": "Poland", "geoPoint": {"lat": 50.01381, "lon": 20.98698}}, {"facility": "Vectura Clinical Trial Site 20010", "city": "Warszawa", "zip": "04-141", "country": "Poland", "geoPoint": {"lat": 52.22977, "lon": 21.01178}}, {"facility": "Vectura Clinical Trial Site 20001", "city": "Wroclaw", "zip": "50-445", "country": "Poland", "geoPoint": {"lat": 51.1, "lon": 17.03333}}, {"facility": "Vectura Clinical Trial Site 20006", "city": "Wroc\u0142aw", "zip": "53-301", "country": "Poland", "geoPoint": {"lat": 51.1, "lon": 17.03333}}, {"facility": "Vectura Clinical Trial Site 20014", "city": "Zawadzkie", "zip": "47-120", "country": "Poland", "geoPoint": {"lat": 50.60503, "lon": 18.48467}}, {"facility": "Vectura Clinical Trial Site 20007", "city": "\u0141od\u017a", "zip": "90-153", "country": "Poland", "geoPoint": {"lat": 51.75, "lon": 19.46667}}, {"facility": "Vectura Clinical Trial Site 20009", "city": "\u0141\u00f3d\u017a", "zip": "90-553", "country": "Poland", "geoPoint": {"lat": 51.75, "lon": 19.46667}}, {"facility": "Vectura Clinical Trial Site 21002", "city": "Brasov", "zip": "500086", "country": "Romania", "geoPoint": {"lat": 45.64861, "lon": 25.60613}}, {"facility": "Vectura Clinical Trial Site 21011", "city": "Bucuresti", "zip": "050554", "country": "Romania", "geoPoint": {"lat": 44.42802, "lon": 26.09665}}, {"facility": "Vectura Clinical Trial Site 21004", "city": "Cluj-Napoca", "zip": "400217", "country": "Romania", "geoPoint": {"lat": 46.76667, "lon": 23.6}}, {"facility": "Vectura Clinical Trial Site 21009", "city": "Cluj-Napoca", "zip": "400371", "country": "Romania", "geoPoint": {"lat": 46.76667, "lon": 23.6}}, {"facility": "Vectura Clinical Trial Site 21010", "city": "Cluj-Napoca", "zip": "400371", "country": "Romania", "geoPoint": {"lat": 46.76667, "lon": 23.6}}, {"facility": "Vectura Clinical Trial Site 21007", "city": "Iasi", "zip": "700115", "country": "Romania", "geoPoint": {"lat": 47.16667, "lon": 27.6}}, {"facility": "Vectura Clinical Trial Site 21008", "city": "Iasi", "zip": "700870", "country": "Romania", "geoPoint": {"lat": 47.16667, "lon": 27.6}}, {"facility": "Vectura Clinical Trial Site 21013", "city": "Judetul Cluj", "zip": "400371", "country": "Romania"}, {"facility": "Vectura Clinical Trial Site 21012", "city": "Judetul Iasi", "zip": "700115", "country": "Romania"}, {"facility": "Vectura Clinical Trial Site 21001", "city": "Targu-Mures", "zip": "540141", "country": "Romania", "geoPoint": {"lat": 46.54245, "lon": 24.55747}}, {"facility": "Vectura Clinical Trial Site 21005", "city": "Timisoara", "zip": "300689", "country": "Romania", "geoPoint": {"lat": 45.75372, "lon": 21.22571}}, {"facility": "Vectura Clinical Trial Site 23013", "city": "Donetsk", "zip": "83099", "country": "Ukraine", "geoPoint": {"lat": 48.023, "lon": 37.80224}}, {"facility": "Vectura Clinical Trial Site 23005", "city": "Kharkiv", "zip": "61002", "country": "Ukraine", "geoPoint": {"lat": 49.98081, "lon": 36.25272}}, {"facility": "Vectura Clinical Trial Site 23004", "city": "Kharkiv", "zip": "61051", "country": "Ukraine", "geoPoint": {"lat": 49.98081, "lon": 36.25272}}, {"facility": "Vectura Clinical Trial Site 23010", "city": "Kharkiv", "zip": "61124", "country": "Ukraine", "geoPoint": {"lat": 49.98081, "lon": 36.25272}}, {"facility": "Vectura Clinical Trial Site 23012", "city": "Kiev", "zip": "02232", "country": "Ukraine", "geoPoint": {"lat": 50.45466, "lon": 30.5238}}, {"facility": "Vectura Clinical Trial Site 23002", "city": "Kiev", "zip": "03680", "country": "Ukraine", "geoPoint": {"lat": 50.45466, "lon": 30.5238}}, {"facility": "Vectura Clinical Trial Site 23009", "city": "Kiev", "zip": "03680", "country": "Ukraine", "geoPoint": {"lat": 50.45466, "lon": 30.5238}}, {"facility": "Vectura Clinical Trial Site 23011", "city": "Kiev", "zip": "03680", "country": "Ukraine", "geoPoint": {"lat": 50.45466, "lon": 30.5238}}, {"facility": "Vectura Clinical Trial Site 23017", "city": "Kiev", "zip": "03680", "country": "Ukraine", "geoPoint": {"lat": 50.45466, "lon": 30.5238}}, {"facility": "Vectura Clinical Trial Site 23001", "city": "Kyiv", "zip": "04050", "country": "Ukraine", "geoPoint": {"lat": 50.45466, "lon": 30.5238}}, {"facility": "Vectura Clinical Trial Site 23003", "city": "Kyiv", "zip": "04050", "country": "Ukraine", "geoPoint": {"lat": 50.45466, "lon": 30.5238}}, {"facility": "Vectura Clinical Trial Site 23018", "city": "Kyiv", "zip": "04201", "country": "Ukraine", "geoPoint": {"lat": 50.45466, "lon": 30.5238}}, {"facility": "Vectura Clinical Trial Site 23007", "city": "Odesa", "zip": "65031", "country": "Ukraine", "geoPoint": {"lat": 46.47747, "lon": 30.73262}}, {"facility": "Vectura Clinical Trial Site 23015", "city": "Simferopol", "zip": "95034", "country": "Ukraine", "geoPoint": {"lat": 44.95719, "lon": 34.11079}}, {"facility": "Vectura Clinical Trial Site 23014", "city": "Vinnytsya", "zip": "21029", "country": "Ukraine", "geoPoint": {"lat": 49.23278, "lon": 28.48097}}, {"facility": "Vectura Clinical Trial Site 23008", "city": "Zaporizhzhya", "zip": "69063", "country": "Ukraine", "geoPoint": {"lat": 50.60727, "lon": 31.78792}}, {"facility": "Vectura Clinical Trial Site 23016", "city": "Zaporizhzhya", "zip": "69118", "country": "Ukraine", "geoPoint": {"lat": 50.60727, "lon": 31.78792}}]}}, "resultsSection": {"participantFlowModule": {"preAssignmentDetails": "374 subjects were randomised, and 373 received at least one dose of study drug; 1 subject was randomised but not treated.", "groups": [{"id": "FG000", "title": "Placebo", "description": "Placebo: Placebo delivered via a new dry powder inhaler"}, {"id": "FG001", "title": "VR506 50 mcg", "description": "VR506 50 mcg inhalation powder delivered via a new dry powder inhaler"}, {"id": "FG002", "title": "VR506 100 mcg", "description": "VR506 100 mcg inhalation powder delivered via a new dry powder inhaler"}, {"id": "FG003", "title": "VR506 250 mcg", "description": "VR506 250 mcg inhalation powder delivered via a new dry powder inhaler"}], "periods": [{"title": "Overall Study", "milestones": [{"type": "STARTED", "achievements": [{"groupId": "FG000", "numSubjects": "91"}, {"groupId": "FG001", "numSubjects": "93"}, {"groupId": "FG002", "numSubjects": "95"}, {"groupId": "FG003", "numSubjects": "94"}]}, {"type": "Full Analysis Set", "comment": "Five subjects had no post-dose efficacy assessments and were excluded from the Full Analysis Set.", "achievements": [{"groupId": "FG000", "numSubjects": "91"}, {"groupId": "FG001", "numSubjects": "93"}, {"groupId": "FG002", "numSubjects": "92"}, {"groupId": "FG003", "numSubjects": "92"}]}, {"type": "COMPLETED", "achievements": [{"groupId": "FG000", "numSubjects": "61"}, {"groupId": "FG001", "numSubjects": "80"}, {"groupId": "FG002", "numSubjects": "76"}, {"groupId": "FG003", "numSubjects": "75"}]}, {"type": "NOT COMPLETED", "achievements": [{"groupId": "FG000", "numSubjects": "30"}, {"groupId": "FG001", "numSubjects": "13"}, {"groupId": "FG002", "numSubjects": "19"}, {"groupId": "FG003", "numSubjects": "19"}]}], "dropWithdraws": [{"type": "Withdrawal by Subject", "reasons": [{"groupId": "FG000", "numSubjects": "1"}, {"groupId": "FG001", "numSubjects": "2"}, {"groupId": "FG002", "numSubjects": "2"}, {"groupId": "FG003", "numSubjects": "0"}]}, {"type": "Asthma exacerbation", "reasons": [{"groupId": "FG000", "numSubjects": "4"}, {"groupId": "FG001", "numSubjects": "1"}, {"groupId": "FG002", "numSubjects": "2"}, {"groupId": "FG003", "numSubjects": "1"}]}, {"type": "Treatment period withdrawal criteria met", "reasons": [{"groupId": "FG000", "numSubjects": "21"}, {"groupId": "FG001", "numSubjects": "8"}, {"groupId": "FG002", "numSubjects": "9"}, {"groupId": "FG003", "numSubjects": "12"}]}, {"type": "Protocol Violation", "reasons": [{"groupId": "FG000", "numSubjects": "3"}, {"groupId": "FG001", "numSubjects": "2"}, {"groupId": "FG002", "numSubjects": "4"}, {"groupId": "FG003", "numSubjects": "4"}]}, {"type": "Other reasons", "reasons": [{"groupId": "FG000", "numSubjects": "1"}, {"groupId": "FG001", "numSubjects": "0"}, {"groupId": "FG002", "numSubjects": "2"}, {"groupId": "FG003", "numSubjects": "2"}]}]}]}, "baselineCharacteristicsModule": {"groups": [{"id": "BG000", "title": "Placebo", "description": "Placebo: Placebo delivered via a new dry powder inhaler"}, {"id": "BG001", "title": "VR506 50 mcg", "description": "VR506 50 mcg inhalation powder delivered via a new dry powder inhaler"}, {"id": "BG002", "title": "VR506 100 mcg", "description": "VR506 100 mcg inhalation powder delivered via a new dry powder inhaler"}, {"id": "BG003", "title": "VR506 250 mcg", "description": "VR506 250 mcg inhalation powder delivered via a new dry powder inhaler"}, {"id": "BG004", "title": "Total", "description": "Total of all reporting groups"}], "denoms": [{"units": "Participants", "counts": [{"groupId": "BG000", "value": "91"}, {"groupId": "BG001", "value": "93"}, {"groupId": "BG002", "value": "95"}, {"groupId": "BG003", "value": "94"}, {"groupId": "BG004", "value": "373"}]}], "measures": [{"title": "Age, Categorical", "paramType": "COUNT_OF_PARTICIPANTS", "unitOfMeasure": "Participants", "classes": [{"categories": [{"title": "<=18 years", "measurements": [{"groupId": "BG000", "value": "14"}, {"groupId": "BG001", "value": "14"}, {"groupId": "BG002", "value": "12"}, {"groupId": "BG003", "value": "14"}, {"groupId": "BG004", "value": "54"}]}, {"title": "Between 18 and 65 years", "measurements": [{"groupId": "BG000", "value": "77"}, {"groupId": "BG001", "value": "79"}, {"groupId": "BG002", "value": "83"}, {"groupId": "BG003", "value": "80"}, {"groupId": "BG004", "value": "319"}]}, {"title": ">=65 years", "measurements": [{"groupId": "BG000", "value": "0"}, {"groupId": "BG001", "value": "0"}, {"groupId": "BG002", "value": "0"}, {"groupId": "BG003", "value": "0"}, {"groupId": "BG004", "value": "0"}]}]}]}, {"title": "Age, Continuous", "paramType": "MEAN", "dispersionType": "STANDARD_DEVIATION", "unitOfMeasure": "years", "classes": [{"categories": [{"measurements": [{"groupId": "BG000", "value": "40.1", "spread": "16.2"}, {"groupId": "BG001", "value": "38.8", "spread": "16.1"}, {"groupId": "BG002", "value": "39.8", "spread": "15.6"}, {"groupId": "BG003", "value": "39.3", "spread": "15.3"}, {"groupId": "BG004", "value": "39.5", "spread": "15.8"}]}]}]}, {"title": "Sex: Female, Male", "paramType": "COUNT_OF_PARTICIPANTS", "unitOfMeasure": "Participants", "classes": [{"categories": [{"title": "Female", "measurements": [{"groupId": "BG000", "value": "57"}, {"groupId": "BG001", "value": "50"}, {"groupId": "BG002", "value": "61"}, {"groupId": "BG003", "value": "58"}, {"groupId": "BG004", "value": "226"}]}, {"title": "Male", "measurements": [{"groupId": "BG000", "value": "34"}, {"groupId": "BG001", "value": "43"}, {"groupId": "BG002", "value": "34"}, {"groupId": "BG003", "value": "36"}, {"groupId": "BG004", "value": "147"}]}]}]}, {"title": "Region of Enrollment", "paramType": "NUMBER", "unitOfMeasure": "participants", "classes": [{"title": "Romania", "categories": [{"measurements": [{"groupId": "BG000", "value": "4"}, {"groupId": "BG001", "value": "5"}, {"groupId": "BG002", "value": "6"}, {"groupId": "BG003", "value": "4"}, {"groupId": "BG004", "value": "19"}]}]}, {"title": "United States", "categories": [{"measurements": [{"groupId": "BG000", "value": "18"}, {"groupId": "BG001", "value": "19"}, {"groupId": "BG002", "value": "19"}, {"groupId": "BG003", "value": "19"}, {"groupId": "BG004", "value": "75"}]}]}, {"title": "Philippines", "categories": [{"measurements": [{"groupId": "BG000", "value": "24"}, {"groupId": "BG001", "value": "22"}, {"groupId": "BG002", "value": "24"}, {"groupId": "BG003", "value": "21"}, {"groupId": "BG004", "value": "91"}]}]}, {"title": "Ukraine", "categories": [{"measurements": [{"groupId": "BG000", "value": "22"}, {"groupId": "BG001", "value": "22"}, {"groupId": "BG002", "value": "22"}, {"groupId": "BG003", "value": "24"}, {"groupId": "BG004", "value": "90"}]}]}, {"title": "Poland", "categories": [{"measurements": [{"groupId": "BG000", "value": "23"}, {"groupId": "BG001", "value": "25"}, {"groupId": "BG002", "value": "24"}, {"groupId": "BG003", "value": "26"}, {"groupId": "BG004", "value": "98"}]}]}]}]}, "outcomeMeasuresModule": {"outcomeMeasures": [{"type": "PRIMARY", "title": "Mean Change From Start of Treatment Baseline to End of Study (Week 12) for In-clinic Morning Pre-Dose Forced Expiratory Volume In 1 Second (FEV1)", "populationDescription": "Full analysis set analyzed, but number of patients represents subjects with both start of treatment baseline value and end of treatment value where a Last Observation Carried Forward (LOCF) approach was used to impute values of missing post-baseline visits; 2 subjects had no post-dose FEV1 assessments, baseline values were not carried forward", "reportingStatus": "POSTED", "paramType": "MEAN", "dispersionType": "Standard Deviation", "unitOfMeasure": "Liters", "timeFrame": "Baseline and 12 weeks", "groups": [{"id": "OG000", "title": "Placebo", "description": "Placebo: Placebo delivered via a new dry powder inhaler"}, {"id": "OG001", "title": "VR506 50 mcg", "description": "VR506 50 mcg inhalation powder delivered via a new dry powder inhaler"}, {"id": "OG002", "title": "VR506 100 mcg", "description": "VR506 100 mcg inhalation powder delivered via a new dry powder inhaler"}, {"id": "OG003", "title": "VR506 250 mcg", "description": "VR506 250 mcg inhalation powder delivered via a new dry powder inhaler"}], "denoms": [{"units": "Participants", "counts": [{"groupId": "OG000", "value": "90"}, {"groupId": "OG001", "value": "93"}, {"groupId": "OG002", "value": "92"}, {"groupId": "OG003", "value": "91"}]}], "classes": [{"categories": [{"measurements": [{"groupId": "OG000", "value": "0.19", "spread": "0.36"}, {"groupId": "OG001", "value": "0.32", "spread": "0.46"}, {"groupId": "OG002", "value": "0.38", "spread": "0.30"}, {"groupId": "OG003", "value": "0.38", "spread": "0.33"}]}]}], "analyses": [{"groupIds": ["OG000", "OG001"], "nonInferiorityType": "SUPERIORITY", "pValue": "0.013", "statisticalMethod": "ANCOVA"}, {"groupIds": ["OG000", "OG002"], "nonInferiorityType": "SUPERIORITY", "pValue": "<0.001", "pValueComment": "Calculated p-value was less than 0.001.", "statisticalMethod": "ANCOVA"}, {"groupIds": ["OG000", "OG003"], "nonInferiorityType": "SUPERIORITY", "pValue": "<0.001", "pValueComment": "Calculated p-value was less than 0.001.", "statisticalMethod": "ANCOVA"}]}, {"type": "SECONDARY", "title": "Number of Participants With Withdrawals Due to Worsening of Asthma", "populationDescription": "Number of participants analyzed aligns with Full Analysis Set.", "reportingStatus": "POSTED", "paramType": "COUNT_OF_PARTICIPANTS", "unitOfMeasure": "Participants", "timeFrame": "12 weeks", "groups": [{"id": "OG000", "title": "Placebo", "description": "Placebo: Placebo delivered via a new dry powder inhaler"}, {"id": "OG001", "title": "VR506 50 mcg", "description": "VR506 50 mcg inhalation powder delivered via a new dry powder inhaler"}, {"id": "OG002", "title": "VR506 100 mcg", "description": "VR506 100 mcg inhalation powder delivered via a new dry powder inhaler"}, {"id": "OG003", "title": "VR506 250 mcg", "description": "VR506 250 mcg inhalation powder delivered via a new dry powder inhaler"}], "denoms": [{"units": "Participants", "counts": [{"groupId": "OG000", "value": "91"}, {"groupId": "OG001", "value": "93"}, {"groupId": "OG002", "value": "92"}, {"groupId": "OG003", "value": "92"}]}], "classes": [{"categories": [{"measurements": [{"groupId": "OG000", "value": "26"}, {"groupId": "OG001", "value": "9"}, {"groupId": "OG002", "value": "11"}, {"groupId": "OG003", "value": "12"}]}]}], "analyses": [{"groupIds": ["OG000", "OG001"], "nonInferiorityType": "SUPERIORITY", "pValue": "0.001", "statisticalMethod": "Fisher Exact"}, {"groupIds": ["OG000", "OG002"], "nonInferiorityType": "SUPERIORITY", "pValue": "0.006", "statisticalMethod": "Fisher Exact"}, {"groupIds": ["OG000", "OG003"], "nonInferiorityType": "SUPERIORITY", "pValue": "0.011", "statisticalMethod": "Fisher Exact"}]}, {"type": "SECONDARY", "title": "Mean Change From Start of Treatment Baseline to End of Study (Week 12) for In-clinic Weekly Morning Pre-dose Peak Expiratory Flow (PEF)", "populationDescription": "Full Analysis Set analyzed, but number of patients analyzed represents subjects with both start of treatment baseline value and end of treatment value where a Last Observation Carried Forward (LOCF) approach was used to impute values of missing post-baseline visits; 1 subject had no post-dose PEF assessment, baseline values were not carried forward", "reportingStatus": "POSTED", "paramType": "MEAN", "dispersionType": "Standard Deviation", "unitOfMeasure": "L/min", "timeFrame": "Baseline and 12 weeks", "groups": [{"id": "OG000", "title": "Placebo", "description": "Placebo: Placebo delivered via a new dry powder inhaler"}, {"id": "OG001", "title": "VR506 50 mcg", "description": "VR506 50 mcg inhalation powder delivered via a new dry powder inhaler"}, {"id": "OG002", "title": "VR506 100 mcg", "description": "VR506 100 mcg inhalation powder delivered via a new dry powder inhaler"}, {"id": "OG003", "title": "VR506 250 mcg", "description": "VR506 250 mcg inhalation powder delivered via a new dry powder inhaler"}], "denoms": [{"units": "Participants", "counts": [{"groupId": "OG000", "value": "90"}, {"groupId": "OG001", "value": "93"}, {"groupId": "OG002", "value": "92"}, {"groupId": "OG003", "value": "92"}]}], "classes": [{"categories": [{"measurements": [{"groupId": "OG000", "value": "1.18", "spread": "47.54"}, {"groupId": "OG001", "value": "25.00", "spread": "58.33"}, {"groupId": "OG002", "value": "27.11", "spread": "56.67"}, {"groupId": "OG003", "value": "21.99", "spread": "45.03"}]}]}], "analyses": [{"groupIds": ["OG000", "OG001"], "nonInferiorityType": "SUPERIORITY", "pValue": "0.002", "statisticalMethod": "ANCOVA"}, {"groupIds": ["OG000", "OG002"], "nonInferiorityType": "SUPERIORITY", "pValue": "0.002", "statisticalMethod": "ANCOVA"}, {"groupIds": ["OG000", "OG003"], "nonInferiorityType": "SUPERIORITY", "pValue": "0.008", "statisticalMethod": "ANCOVA"}]}, {"type": "SECONDARY", "title": "Assessment of Acceptability of the Device", "description": "Percentage of subjects that overall found it very easy, fairly easy or fairy difficult to use the inhaler, based on inhaler acceptability questionnaire.", "populationDescription": "Number of participants analyzed aligns with Full Analysis Set", "reportingStatus": "POSTED", "paramType": "COUNT_OF_PARTICIPANTS", "unitOfMeasure": "Participants", "timeFrame": "12 weeks", "groups": [{"id": "OG000", "title": "Placebo", "description": "Placebo: Placebo delivered via a new dry powder inhaler"}, {"id": "OG001", "title": "VR506 50 mcg", "description": "VR506 50 mcg inhalation powder delivered via a new dry powder inhaler"}, {"id": "OG002", "title": "VR506 100 mcg", "description": "VR506 100 mcg inhalation powder delivered via a new dry powder inhaler"}, {"id": "OG003", "title": "VR506 250 mcg", "description": "VR506 250 mcg inhalation powder delivered via a new dry powder inhaler"}], "denoms": [{"units": "Participants", "counts": [{"groupId": "OG000", "value": "91"}, {"groupId": "OG001", "value": "93"}, {"groupId": "OG002", "value": "92"}, {"groupId": "OG003", "value": "92"}]}], "classes": [{"categories": [{"title": "Very Easy", "measurements": [{"groupId": "OG000", "value": "57"}, {"groupId": "OG001", "value": "66"}, {"groupId": "OG002", "value": "58"}, {"groupId": "OG003", "value": "59"}]}, {"title": "Fairly Easy", "measurements": [{"groupId": "OG000", "value": "20"}, {"groupId": "OG001", "value": "25"}, {"groupId": "OG002", "value": "26"}, {"groupId": "OG003", "value": "22"}]}, {"title": "Fairly Difficult", "measurements": [{"groupId": "OG000", "value": "2"}, {"groupId": "OG001", "value": "0"}, {"groupId": "OG002", "value": "0"}, {"groupId": "OG003", "value": "2"}]}, {"title": "Missing", "measurements": [{"groupId": "OG000", "value": "12"}, {"groupId": "OG001", "value": "2"}, {"groupId": "OG002", "value": "8"}, {"groupId": "OG003", "value": "9"}]}]}]}]}, "adverseEventsModule": {"frequencyThreshold": "0", "timeFrame": "12 weeks", "eventGroups": [{"id": "EG000", "title": "Placebo", "description": "Placebo: Placebo delivered via a new dry powder inhaler", "deathsNumAffected": 0, "deathsNumAtRisk": 91, "seriousNumAffected": 0, "seriousNumAtRisk": 91, "otherNumAffected": 47, "otherNumAtRisk": 91}, {"id": "EG001", "title": "VR506 50 mcg", "description": "VR506 50 mcg inhalation powder delivered via a new dry powder inhaler", "deathsNumAffected": 0, "deathsNumAtRisk": 93, "seriousNumAffected": 1, "seriousNumAtRisk": 93, "otherNumAffected": 42, "otherNumAtRisk": 93}, {"id": "EG002", "title": "VR506 100 mcg", "description": "VR506 100 mcg inhalation powder delivered via a new dry powder inhaler", "deathsNumAffected": 0, "deathsNumAtRisk": 95, "seriousNumAffected": 1, "seriousNumAtRisk": 95, "otherNumAffected": 40, "otherNumAtRisk": 95}, {"id": "EG003", "title": "VR506 250 mcg", "description": "VR506 250 mcg inhalation powder delivered via a new dry powder inhaler", "deathsNumAffected": 0, "deathsNumAtRisk": 94, "seriousNumAffected": 0, "seriousNumAtRisk": 94, "otherNumAffected": 33, "otherNumAtRisk": 94}], "seriousEvents": [{"term": "APPENDICITIS", "organSystem": "Infections and infestations", "sourceVocabulary": "MedDRA 14.0", "assessmentType": "NON_SYSTEMATIC_ASSESSMENT", "stats": [{"groupId": "EG000", "numEvents": 0, "numAffected": 0, "numAtRisk": 91}, {"groupId": "EG001", "numEvents": 0, "numAffected": 0, "numAtRisk": 93}, {"groupId": "EG002", "numEvents": 1, "numAffected": 1, "numAtRisk": 95}, {"groupId": "EG003", "numEvents": 0, "numAffected": 0, "numAtRisk": 94}]}, {"term": "VIRAL INFECTION", "organSystem": "Infections and infestations", "sourceVocabulary": "MedDRA 14.0", "assessmentType": "NON_SYSTEMATIC_ASSESSMENT", "stats": [{"groupId": "EG000", "numEvents": 0, "numAffected": 0, "numAtRisk": 91}, {"groupId": "EG001", "numEvents": 1, "numAffected": 1, "numAtRisk": 93}, {"groupId": "EG002", "numEvents": 0, "numAffected": 0, "numAtRisk": 95}, {"groupId": "EG003", "numEvents": 0, "numAffected": 0, "numAtRisk": 94}]}], "otherEvents": [{"term": "ASTHMA", "organSystem": "Respiratory, thoracic and mediastinal disorders", "sourceVocabulary": "MedDRA 14.0", "assessmentType": "NON_SYSTEMATIC_ASSESSMENT", "stats": [{"groupId": "EG000", "numEvents": 28, "numAffected": 25, "numAtRisk": 91}, {"groupId": "EG001", "numEvents": 18, "numAffected": 16, "numAtRisk": 93}, {"groupId": "EG002", "numEvents": 17, "numAffected": 16, "numAtRisk": 95}, {"groupId": "EG003", "numEvents": 13, "numAffected": 12, "numAtRisk": 94}]}, {"term": "COUGH", "organSystem": "Respiratory, thoracic and mediastinal disorders", "sourceVocabulary": "MedDRA 14.0", "assessmentType": "NON_SYSTEMATIC_ASSESSMENT", "stats": [{"groupId": "EG000", "numEvents": 2, "numAffected": 2, "numAtRisk": 91}, {"groupId": "EG001", "numEvents": 3, "numAffected": 3, "numAtRisk": 93}, {"groupId": "EG002", "numEvents": 3, "numAffected": 3, "numAtRisk": 95}, {"groupId": "EG003", "numEvents": 3, "numAffected": 3, "numAtRisk": 94}]}, {"term": "DYSPNOEA", "organSystem": "Respiratory, thoracic and mediastinal disorders", "sourceVocabulary": "MedDRA 14.0", "assessmentType": "NON_SYSTEMATIC_ASSESSMENT", "stats": [{"groupId": "EG000", "numEvents": 0, "numAffected": 0, "numAtRisk": 91}, {"groupId": "EG001", "numEvents": 3, "numAffected": 2, "numAtRisk": 93}, {"groupId": "EG002", "numEvents": 0, "numAffected": 0, "numAtRisk": 95}, {"groupId": "EG003", "numEvents": 0, "numAffected": 0, "numAtRisk": 94}]}, {"term": "PHARYNGEAL INFLAMMATION", "organSystem": "Respiratory, thoracic and mediastinal disorders", "sourceVocabulary": "MedDRA 14.0", "assessmentType": "NON_SYSTEMATIC_ASSESSMENT", "stats": [{"groupId": "EG000", "numEvents": 0, "numAffected": 0, "numAtRisk": 91}, {"groupId": "EG001", "numEvents": 1, "numAffected": 1, "numAtRisk": 93}, {"groupId": "EG002", "numEvents": 1, "numAffected": 1, "numAtRisk": 95}, {"groupId": "EG003", "numEvents": 0, "numAffected": 0, "numAtRisk": 94}]}, {"term": "RHINORRHOEA", "organSystem": "Respiratory, thoracic and mediastinal disorders", "sourceVocabulary": "MedDRA 14.0", "assessmentType": "NON_SYSTEMATIC_ASSESSMENT", "stats": [{"groupId": "EG000", "numEvents": 1, "numAffected": 1, "numAtRisk": 91}, {"groupId": "EG001", "numEvents": 0, "numAffected": 0, "numAtRisk": 93}, {"groupId": "EG002", "numEvents": 2, "numAffected": 2, "numAtRisk": 95}, {"groupId": "EG003", "numEvents": 0, "numAffected": 0, "numAtRisk": 94}]}, {"term": "DYSPHONIA", "organSystem": "Respiratory, thoracic and mediastinal disorders", "sourceVocabulary": "MedDRA 14.0", "assessmentType": "NON_SYSTEMATIC_ASSESSMENT", "stats": [{"groupId": "EG000", "numEvents": 0, "numAffected": 0, "numAtRisk": 91}, {"groupId": "EG001", "numEvents": 1, "numAffected": 1, "numAtRisk": 93}, {"groupId": "EG002", "numEvents": 0, "numAffected": 0, "numAtRisk": 95}, {"groupId": "EG003", "numEvents": 0, "numAffected": 0, "numAtRisk": 94}]}, {"term": "NASAL CONGESTION", "organSystem": "Respiratory, thoracic and mediastinal disorders", "sourceVocabulary": "MedDRA 14.0", "assessmentType": "NON_SYSTEMATIC_ASSESSMENT", "stats": [{"groupId": "EG000", "numEvents": 0, "numAffected": 0, "numAtRisk": 91}, {"groupId": "EG001", "numEvents": 0, "numAffected": 0, "numAtRisk": 93}, {"groupId": "EG002", "numEvents": 0, "numAffected": 0, "numAtRisk": 95}, {"groupId": "EG003", "numEvents": 1, "numAffected": 1, "numAtRisk": 94}]}, {"term": "OROPHARYNGEAL PAIN", "organSystem": "Respiratory, thoracic and mediastinal disorders", "sourceVocabulary": "MedDRA 14.0", "assessmentType": "NON_SYSTEMATIC_ASSESSMENT", "stats": [{"groupId": "EG000", "numEvents": 1, "numAffected": 1, "numAtRisk": 91}, {"groupId": "EG001", "numEvents": 0, "numAffected": 0, "numAtRisk": 93}, {"groupId": "EG002", "numEvents": 0, "numAffected": 0, "numAtRisk": 95}, {"groupId": "EG003", "numEvents": 1, "numAffected": 1, "numAtRisk": 94}]}, {"term": "THROAT IRRITATION", "organSystem": "Respiratory, thoracic and mediastinal disorders", "sourceVocabulary": "MedDRA 14.0", "assessmentType": "NON_SYSTEMATIC_ASSESSMENT", "stats": [{"groupId": "EG000", "numEvents": 0, "numAffected": 0, "numAtRisk": 91}, {"groupId": "EG001", "numEvents": 0, "numAffected": 0, "numAtRisk": 93}, {"groupId": "EG002", "numEvents": 1, "numAffected": 1, "numAtRisk": 95}, {"groupId": "EG003", "numEvents": 0, "numAffected": 0, "numAtRisk": 94}]}, {"term": "UPPER-AIRWAY COUGH SYNDROME", "organSystem": "Respiratory, thoracic and mediastinal disorders", "sourceVocabulary": "MedDRA 14.0", "assessmentType": "NON_SYSTEMATIC_ASSESSMENT", "stats": [{"groupId": "EG000", "numEvents": 0, "numAffected": 0, "numAtRisk": 91}, {"groupId": "EG001", "numEvents": 0, "numAffected": 0, "numAtRisk": 93}, {"groupId": "EG002", "numEvents": 1, "numAffected": 1, "numAtRisk": 95}, {"groupId": "EG003", "numEvents": 0, "numAffected": 0, "numAtRisk": 94}]}, {"term": "ALLERGIC COUGH", "organSystem": "Respiratory, thoracic and mediastinal disorders", "sourceVocabulary": "MedDRA 14.0", "assessmentType": "NON_SYSTEMATIC_ASSESSMENT", "stats": [{"groupId": "EG000", "numEvents": 1, "numAffected": 1, "numAtRisk": 91}, {"groupId": "EG001", "numEvents": 0, "numAffected": 0, "numAtRisk": 93}, {"groupId": "EG002", "numEvents": 0, "numAffected": 0, "numAtRisk": 95}, {"groupId": "EG003", "numEvents": 0, "numAffected": 0, "numAtRisk": 94}]}, {"term": "DYSPNOEA EXERTIONAL", "organSystem": "Respiratory, thoracic and mediastinal disorders", "sourceVocabulary": "MedDRA 14.0", "assessmentType": "NON_SYSTEMATIC_ASSESSMENT", "stats": [{"groupId": "EG000", "numEvents": 1, "numAffected": 1, "numAtRisk": 91}, {"groupId": "EG001", "numEvents": 0, "numAffected": 0, "numAtRisk": 93}, {"groupId": "EG002", "numEvents": 0, "numAffected": 0, "numAtRisk": 95}, {"groupId": "EG003", "numEvents": 0, "numAffected": 0, "numAtRisk": 94}]}, {"term": "PARANASAL SINUS HYPERSECRETION", "organSystem": "Respiratory, thoracic and mediastinal disorders", "sourceVocabulary": "MedDRA 14.0", "assessmentType": "NON_SYSTEMATIC_ASSESSMENT", "stats": [{"groupId": "EG000", "numEvents": 1, "numAffected": 1, "numAtRisk": 91}, {"groupId": "EG001", "numEvents": 0, "numAffected": 0, "numAtRisk": 93}, {"groupId": "EG002", "numEvents": 0, "numAffected": 0, "numAtRisk": 95}, {"groupId": "EG003", "numEvents": 0, "numAffected": 0, "numAtRisk": 94}]}, {"term": "RHINITIS ALLERGIC", "organSystem": "Respiratory, thoracic and mediastinal disorders", "sourceVocabulary": "MedDRA 14.0", "assessmentType": "NON_SYSTEMATIC_ASSESSMENT", "stats": [{"groupId": "EG000", "numEvents": 2, "numAffected": 2, "numAtRisk": 91}, {"groupId": "EG001", "numEvents": 0, "numAffected": 0, "numAtRisk": 93}, {"groupId": "EG002", "numEvents": 0, "numAffected": 0, "numAtRisk": 95}, {"groupId": "EG003", "numEvents": 0, "numAffected": 0, "numAtRisk": 94}]}, {"term": "SPUTUM RETENTION", "organSystem": "Respiratory, thoracic and mediastinal disorders", "sourceVocabulary": "MedDRA 14.0", "assessmentType": "NON_SYSTEMATIC_ASSESSMENT", "stats": [{"groupId": "EG000", "numEvents": 1, "numAffected": 1, "numAtRisk": 91}, {"groupId": "EG001", "numEvents": 0, "numAffected": 0, "numAtRisk": 93}, {"groupId": "EG002", "numEvents": 0, "numAffected": 0, "numAtRisk": 95}, {"groupId": "EG003", "numEvents": 0, "numAffected": 0, "numAtRisk": 94}]}, {"term": "NASOPHARYNGITIS", "organSystem": "Infections and infestations", "sourceVocabulary": "MedDRA 14.0", "assessmentType": "NON_SYSTEMATIC_ASSESSMENT", "stats": [{"groupId": "EG000", "numEvents": 8, "numAffected": 8, "numAtRisk": 91}, {"groupId": "EG001", "numEvents": 2, "numAffected": 2, "numAtRisk": 93}, {"groupId": "EG002", "numEvents": 4, "numAffected": 3, "numAtRisk": 95}, {"groupId": "EG003", "numEvents": 3, "numAffected": 2, "numAtRisk": 94}]}, {"term": "UPPER RESPIRATORY TRACT INFECTION", "organSystem": "Infections and infestations", "sourceVocabulary": "MedDRA 14.0", "assessmentType": "NON_SYSTEMATIC_ASSESSMENT", "stats": [{"groupId": "EG000", "numEvents": 1, "numAffected": 1, "numAtRisk": 91}, {"groupId": "EG001", "numEvents": 1, "numAffected": 1, "numAtRisk": 93}, {"groupId": "EG002", "numEvents": 6, "numAffected": 5, "numAtRisk": 95}, {"groupId": "EG003", "numEvents": 1, "numAffected": 1, "numAtRisk": 94}]}, {"term": "BRONCHITIS", "organSystem": "Infections and infestations", "sourceVocabulary": "MedDRA 14.0", "assessmentType": "NON_SYSTEMATIC_ASSESSMENT", "stats": [{"groupId": "EG000", "numEvents": 0, "numAffected": 0, "numAtRisk": 91}, {"groupId": "EG001", "numEvents": 1, "numAffected": 1, "numAtRisk": 93}, {"groupId": "EG002", "numEvents": 2, "numAffected": 2, "numAtRisk": 95}, {"groupId": "EG003", "numEvents": 2, "numAffected": 2, "numAtRisk": 94}]}, {"term": "PHARYNGITIS", "organSystem": "Infections and infestations", "sourceVocabulary": "MedDRA 14.0", "assessmentType": "NON_SYSTEMATIC_ASSESSMENT", "stats": [{"groupId": "EG000", "numEvents": 1, "numAffected": 1, "numAtRisk": 91}, {"groupId": "EG001", "numEvents": 2, "numAffected": 2, "numAtRisk": 93}, {"groupId": "EG002", "numEvents": 1, "numAffected": 1, "numAtRisk": 95}, {"groupId": "EG003", "numEvents": 1, "numAffected": 1, "numAtRisk": 94}]}, {"term": "RESPIRATORY TRACT INFECTION", "organSystem": "Infections and infestations", "sourceVocabulary": "MedDRA 14.0", "assessmentType": "NON_SYSTEMATIC_ASSESSMENT", "stats": [{"groupId": "EG000", "numEvents": 2, "numAffected": 2, "numAtRisk": 91}, {"groupId": "EG001", "numEvents": 3, "numAffected": 3, "numAtRisk": 93}, {"groupId": "EG002", "numEvents": 0, "numAffected": 0, "numAtRisk": 95}, {"groupId": "EG003", "numEvents": 1, "numAffected": 1, "numAtRisk": 94}]}, {"term": "SINUSITIS", "organSystem": "Infections and infestations", "sourceVocabulary": "MedDRA 14.0", "assessmentType": "NON_SYSTEMATIC_ASSESSMENT", "stats": [{"groupId": "EG000", "numEvents": 0, "numAffected": 0, "numAtRisk": 91}, {"groupId": "EG001", "numEvents": 3, "numAffected": 3, "numAtRisk": 93}, {"groupId": "EG002", "numEvents": 0, "numAffected": 0, "numAtRisk": 95}, {"groupId": "EG003", "numEvents": 1, "numAffected": 1, "numAtRisk": 94}]}, {"term": "ORAL CANDIDIASIS", "organSystem": "Infections and infestations", "sourceVocabulary": "MedDRA 14.0", "assessmentType": "NON_SYSTEMATIC_ASSESSMENT", "stats": [{"groupId": "EG000", "numEvents": 0, "numAffected": 0, "numAtRisk": 91}, {"groupId": "EG001", "numEvents": 0, "numAffected": 0, "numAtRisk": 93}, {"groupId": "EG002", "numEvents": 1, "numAffected": 1, "numAtRisk": 95}, {"groupId": "EG003", "numEvents": 2, "numAffected": 2, "numAtRisk": 94}]}, {"term": "ACUTE TONSILLITIS", "organSystem": "Infections and infestations", "sourceVocabulary": "MedDRA 14.0", "assessmentType": "NON_SYSTEMATIC_ASSESSMENT", "stats": [{"groupId": "EG000", "numEvents": 0, "numAffected": 0, "numAtRisk": 91}, {"groupId": "EG001", "numEvents": 1, "numAffected": 1, "numAtRisk": 93}, {"groupId": "EG002", "numEvents": 0, "numAffected": 0, "numAtRisk": 95}, {"groupId": "EG003", "numEvents": 1, "numAffected": 1, "numAtRisk": 94}]}, {"term": "GASTROENTERITIS VIRAL", "organSystem": "Infections and infestations", "sourceVocabulary": "MedDRA 14.0", "assessmentType": "NON_SYSTEMATIC_ASSESSMENT", "stats": [{"groupId": "EG000", "numEvents": 1, "numAffected": 1, "numAtRisk": 91}, {"groupId": "EG001", "numEvents": 1, "numAffected": 1, "numAtRisk": 93}, {"groupId": "EG002", "numEvents": 1, "numAffected": 1, "numAtRisk": 95}, {"groupId": "EG003", "numEvents": 0, "numAffected": 0, "numAtRisk": 94}]}, {"term": "ACUTE SINUSITIS", "organSystem": "Infections and infestations", "sourceVocabulary": "MedDRA 14.0", "assessmentType": "NON_SYSTEMATIC_ASSESSMENT", "stats": [{"groupId": "EG000", "numEvents": 1, "numAffected": 1, "numAtRisk": 91}, {"groupId": "EG001", "numEvents": 1, "numAffected": 1, "numAtRisk": 93}, {"groupId": "EG002", "numEvents": 0, "numAffected": 0, "numAtRisk": 95}, {"groupId": "EG003", "numEvents": 0, "numAffected": 0, "numAtRisk": 94}]}, {"term": "APPENDICITIS", "organSystem": "Infections and infestations", "sourceVocabulary": "MedDRA 14.0", "assessmentType": "NON_SYSTEMATIC_ASSESSMENT", "stats": [{"groupId": "EG000", "numEvents": 0, "numAffected": 0, "numAtRisk": 91}, {"groupId": "EG001", "numEvents": 0, "numAffected": 0, "numAtRisk": 93}, {"groupId": "EG002", "numEvents": 1, "numAffected": 1, "numAtRisk": 95}, {"groupId": "EG003", "numEvents": 0, "numAffected": 0, "numAtRisk": 94}]}, {"term": "CANDIDIASIS", "organSystem": "Infections and infestations", "sourceVocabulary": "MedDRA 14.0", "assessmentType": "NON_SYSTEMATIC_ASSESSMENT", "stats": [{"groupId": "EG000", "numEvents": 0, "numAffected": 0, "numAtRisk": 91}, {"groupId": "EG001", "numEvents": 0, "numAffected": 0, "numAtRisk": 93}, {"groupId": "EG002", "numEvents": 1, "numAffected": 1, "numAtRisk": 95}, {"groupId": "EG003", "numEvents": 0, "numAffected": 0, "numAtRisk": 94}]}, {"term": "DENGUE FEVER", "organSystem": "Infections and infestations", "sourceVocabulary": "MedDRA 14.0", "assessmentType": "NON_SYSTEMATIC_ASSESSMENT", "stats": [{"groupId": "EG000", "numEvents": 0, "numAffected": 0, "numAtRisk": 91}, {"groupId": "EG001", "numEvents": 0, "numAffected": 0, "numAtRisk": 93}, {"groupId": "EG002", "numEvents": 0, "numAffected": 0, "numAtRisk": 95}, {"groupId": "EG003", "numEvents": 1, "numAffected": 1, "numAtRisk": 94}]}, {"term": "GASTROENTERITIS", "organSystem": "Infections and infestations", "sourceVocabulary": "MedDRA 14.0", "assessmentType": "NON_SYSTEMATIC_ASSESSMENT", "stats": [{"groupId": "EG000", "numEvents": 0, "numAffected": 0, "numAtRisk": 91}, {"groupId": "EG001", "numEvents": 0, "numAffected": 0, "numAtRisk": 93}, {"groupId": "EG002", "numEvents": 0, "numAffected": 0, "numAtRisk": 95}, {"groupId": "EG003", "numEvents": 1, "numAffected": 1, "numAtRisk": 94}]}, {"term": "TONSILLITIS", "organSystem": "Infections and infestations", "sourceVocabulary": "MedDRA 14.0", "assessmentType": "NON_SYSTEMATIC_ASSESSMENT", "stats": [{"groupId": "EG000", "numEvents": 1, "numAffected": 1, "numAtRisk": 91}, {"groupId": "EG001", "numEvents": 0, "numAffected": 0, "numAtRisk": 93}, {"groupId": "EG002", "numEvents": 1, "numAffected": 1, "numAtRisk": 95}, {"groupId": "EG003", "numEvents": 0, "numAffected": 0, "numAtRisk": 94}]}, {"term": "URINARY TRACT INFECTION", "organSystem": "Infections and infestations", "sourceVocabulary": "MedDRA 14.0", "assessmentType": "NON_SYSTEMATIC_ASSESSMENT", "stats": [{"groupId": "EG000", "numEvents": 0, "numAffected": 0, "numAtRisk": 91}, {"groupId": "EG001", "numEvents": 0, "numAffected": 0, "numAtRisk": 93}, {"groupId": "EG002", "numEvents": 0, "numAffected": 0, "numAtRisk": 95}, {"groupId": "EG003", "numEvents": 1, "numAffected": 1, "numAtRisk": 94}]}, {"term": "VIRAL INFECTION", "organSystem": "Infections and infestations", "sourceVocabulary": "MedDRA 14.0", "assessmentType": "NON_SYSTEMATIC_ASSESSMENT", "stats": [{"groupId": "EG000", "numEvents": 0, "numAffected": 0, "numAtRisk": 91}, {"groupId": "EG001", "numEvents": 1, "numAffected": 1, "numAtRisk": 93}, {"groupId": "EG002", "numEvents": 0, "numAffected": 0, "numAtRisk": 95}, {"groupId": "EG003", "numEvents": 0, "numAffected": 0, "numAtRisk": 94}]}, {"term": "VIRAL UPPER RESPIRATORY TRACT INFECTION", "organSystem": "Infections and infestations", "sourceVocabulary": "MedDRA 14.0", "assessmentType": "NON_SYSTEMATIC_ASSESSMENT", "stats": [{"groupId": "EG000", "numEvents": 2, "numAffected": 2, "numAtRisk": 91}, {"groupId": "EG001", "numEvents": 1, "numAffected": 1, "numAtRisk": 93}, {"groupId": "EG002", "numEvents": 0, "numAffected": 0, "numAtRisk": 95}, {"groupId": "EG003", "numEvents": 0, "numAffected": 0, "numAtRisk": 94}]}, {"term": "FUNGAL INFECTION", "organSystem": "Infections and infestations", "sourceVocabulary": "MedDRA 14.0", "assessmentType": "NON_SYSTEMATIC_ASSESSMENT", "stats": [{"groupId": "EG000", "numEvents": 1, "numAffected": 1, "numAtRisk": 91}, {"groupId": "EG001", "numEvents": 0, "numAffected": 0, "numAtRisk": 93}, {"groupId": "EG002", "numEvents": 0, "numAffected": 0, "numAtRisk": 95}, {"groupId": "EG003", "numEvents": 0, "numAffected": 0, "numAtRisk": 94}]}, {"term": "INFLUENZA", "organSystem": "Infections and infestations", "sourceVocabulary": "MedDRA 14.0", "assessmentType": "NON_SYSTEMATIC_ASSESSMENT", "stats": [{"groupId": "EG000", "numEvents": 2, "numAffected": 2, "numAtRisk": 91}, {"groupId": "EG001", "numEvents": 0, "numAffected": 0, "numAtRisk": 93}, {"groupId": "EG002", "numEvents": 0, "numAffected": 0, "numAtRisk": 95}, {"groupId": "EG003", "numEvents": 0, "numAffected": 0, "numAtRisk": 94}]}, {"term": "LOWER RESPIRATORY TRACT INFECTION", "organSystem": "Infections and infestations", "sourceVocabulary": "MedDRA 14.0", "assessmentType": "NON_SYSTEMATIC_ASSESSMENT", "stats": [{"groupId": "EG000", "numEvents": 1, "numAffected": 1, "numAtRisk": 91}, {"groupId": "EG001", "numEvents": 0, "numAffected": 0, "numAtRisk": 93}, {"groupId": "EG002", "numEvents": 0, "numAffected": 0, "numAtRisk": 95}, {"groupId": "EG003", "numEvents": 0, "numAffected": 0, "numAtRisk": 94}]}, {"term": "TRACHEITIS", "organSystem": "Infections and infestations", "sourceVocabulary": "MedDRA 14.0", "assessmentType": "NON_SYSTEMATIC_ASSESSMENT", "stats": [{"groupId": "EG000", "numEvents": 1, "numAffected": 1, "numAtRisk": 91}, {"groupId": "EG001", "numEvents": 0, "numAffected": 0, "numAtRisk": 93}, {"groupId": "EG002", "numEvents": 0, "numAffected": 0, "numAtRisk": 95}, {"groupId": "EG003", "numEvents": 0, "numAffected": 0, "numAtRisk": 94}]}, {"term": "HEADACHE", "organSystem": "Nervous system disorders", "sourceVocabulary": "MedDRA 14.0", "assessmentType": "NON_SYSTEMATIC_ASSESSMENT", "stats": [{"groupId": "EG000", "numEvents": 4, "numAffected": 4, "numAtRisk": 91}, {"groupId": "EG001", "numEvents": 5, "numAffected": 4, "numAtRisk": 93}, {"groupId": "EG002", "numEvents": 3, "numAffected": 3, "numAtRisk": 95}, {"groupId": "EG003", "numEvents": 4, "numAffected": 4, "numAtRisk": 94}]}, {"term": "SINUS HEADACHE", "organSystem": "Nervous system disorders", "sourceVocabulary": "MedDRA 14.0", "assessmentType": "NON_SYSTEMATIC_ASSESSMENT", "stats": [{"groupId": "EG000", "numEvents": 0, "numAffected": 0, "numAtRisk": 91}, {"groupId": "EG001", "numEvents": 1, "numAffected": 1, "numAtRisk": 93}, {"groupId": "EG002", "numEvents": 0, "numAffected": 0, "numAtRisk": 95}, {"groupId": "EG003", "numEvents": 0, "numAffected": 0, "numAtRisk": 94}]}, {"term": "APHTHOUS STOMATITIS", "organSystem": "Gastrointestinal disorders", "sourceVocabulary": "MedDRA 14.0", "assessmentType": "NON_SYSTEMATIC_ASSESSMENT", "stats": [{"groupId": "EG000", "numEvents": 0, "numAffected": 0, "numAtRisk": 91}, {"groupId": "EG001", "numEvents": 1, "numAffected": 1, "numAtRisk": 93}, {"groupId": "EG002", "numEvents": 0, "numAffected": 0, "numAtRisk": 95}, {"groupId": "EG003", "numEvents": 0, "numAffected": 0, "numAtRisk": 94}]}, {"term": "DYSPEPSIA", "organSystem": "Gastrointestinal disorders", "sourceVocabulary": "MedDRA 14.0", "assessmentType": "NON_SYSTEMATIC_ASSESSMENT", "stats": [{"groupId": "EG000", "numEvents": 0, "numAffected": 0, "numAtRisk": 91}, {"groupId": "EG001", "numEvents": 1, "numAffected": 1, "numAtRisk": 93}, {"groupId": "EG002", "numEvents": 0, "numAffected": 0, "numAtRisk": 95}, {"groupId": "EG003", "numEvents": 0, "numAffected": 0, "numAtRisk": 94}]}, {"term": "ENTEROCOLITIS", "organSystem": "Gastrointestinal disorders", "sourceVocabulary": "MedDRA 14.0", "assessmentType": "NON_SYSTEMATIC_ASSESSMENT", "stats": [{"groupId": "EG000", "numEvents": 0, "numAffected": 0, "numAtRisk": 91}, {"groupId": "EG001", "numEvents": 0, "numAffected": 0, "numAtRisk": 93}, {"groupId": "EG002", "numEvents": 1, "numAffected": 1, "numAtRisk": 95}, {"groupId": "EG003", "numEvents": 0, "numAffected": 0, "numAtRisk": 94}]}, {"term": "GASTRITIS", "organSystem": "Gastrointestinal disorders", "sourceVocabulary": "MedDRA 14.0", "assessmentType": "NON_SYSTEMATIC_ASSESSMENT", "stats": [{"groupId": "EG000", "numEvents": 0, "numAffected": 0, "numAtRisk": 91}, {"groupId": "EG001", "numEvents": 0, "numAffected": 0, "numAtRisk": 93}, {"groupId": "EG002", "numEvents": 0, "numAffected": 0, "numAtRisk": 95}, {"groupId": "EG003", "numEvents": 2, "numAffected": 1, "numAtRisk": 94}]}, {"term": "GASTRODUODENITIS", "organSystem": "Gastrointestinal disorders", "sourceVocabulary": "MedDRA 14.0", "assessmentType": "NON_SYSTEMATIC_ASSESSMENT", "stats": [{"groupId": "EG000", "numEvents": 0, "numAffected": 0, "numAtRisk": 91}, {"groupId": "EG001", "numEvents": 0, "numAffected": 0, "numAtRisk": 93}, {"groupId": "EG002", "numEvents": 1, "numAffected": 1, "numAtRisk": 95}, {"groupId": "EG003", "numEvents": 0, "numAffected": 0, "numAtRisk": 94}]}, {"term": "HYPERCHLORHYDRIA", "organSystem": "Gastrointestinal disorders", "sourceVocabulary": "MedDRA 14.0", "assessmentType": "NON_SYSTEMATIC_ASSESSMENT", "stats": [{"groupId": "EG000", "numEvents": 0, "numAffected": 0, "numAtRisk": 91}, {"groupId": "EG001", "numEvents": 1, "numAffected": 1, "numAtRisk": 93}, {"groupId": "EG002", "numEvents": 0, "numAffected": 0, "numAtRisk": 95}, {"groupId": "EG003", "numEvents": 0, "numAffected": 0, "numAtRisk": 94}]}, {"term": "NAUSEA", "organSystem": "Gastrointestinal disorders", "sourceVocabulary": "MedDRA 14.0", "assessmentType": "NON_SYSTEMATIC_ASSESSMENT", "stats": [{"groupId": "EG000", "numEvents": 0, "numAffected": 0, "numAtRisk": 91}, {"groupId": "EG001", "numEvents": 1, "numAffected": 1, "numAtRisk": 93}, {"groupId": "EG002", "numEvents": 0, "numAffected": 0, "numAtRisk": 95}, {"groupId": "EG003", "numEvents": 0, "numAffected": 0, "numAtRisk": 94}]}, {"term": "PARAESTHESIA ORAL", "organSystem": "Gastrointestinal disorders", "sourceVocabulary": "MedDRA 14.0", "assessmentType": "NON_SYSTEMATIC_ASSESSMENT", "stats": [{"groupId": "EG000", "numEvents": 0, "numAffected": 0, "numAtRisk": 91}, {"groupId": "EG001", "numEvents": 1, "numAffected": 1, "numAtRisk": 93}, {"groupId": "EG002", "numEvents": 0, "numAffected": 0, "numAtRisk": 95}, {"groupId": "EG003", "numEvents": 0, "numAffected": 0, "numAtRisk": 94}]}, {"term": "TOOTHACHE", "organSystem": "Gastrointestinal disorders", "sourceVocabulary": "MedDRA 14.0", "assessmentType": "NON_SYSTEMATIC_ASSESSMENT", "stats": [{"groupId": "EG000", "numEvents": 0, "numAffected": 0, "numAtRisk": 91}, {"groupId": "EG001", "numEvents": 0, "numAffected": 0, "numAtRisk": 93}, {"groupId": "EG002", "numEvents": 1, "numAffected": 1, "numAtRisk": 95}, {"groupId": "EG003", "numEvents": 0, "numAffected": 0, "numAtRisk": 94}]}, {"term": "GINGIVITIS", "organSystem": "Gastrointestinal disorders", "sourceVocabulary": "MedDRA 14.0", "assessmentType": "NON_SYSTEMATIC_ASSESSMENT", "stats": [{"groupId": "EG000", "numEvents": 1, "numAffected": 1, "numAtRisk": 91}, {"groupId": "EG001", "numEvents": 0, "numAffected": 0, "numAtRisk": 93}, {"groupId": "EG002", "numEvents": 0, "numAffected": 0, "numAtRisk": 95}, {"groupId": "EG003", "numEvents": 0, "numAffected": 0, "numAtRisk": 94}]}, {"term": "DERMATITIS CONTACT", "organSystem": "Skin and subcutaneous tissue disorders", "sourceVocabulary": "MedDRA 14.0", "assessmentType": "NON_SYSTEMATIC_ASSESSMENT", "stats": [{"groupId": "EG000", "numEvents": 0, "numAffected": 0, "numAtRisk": 91}, {"groupId": "EG001", "numEvents": 1, "numAffected": 1, "numAtRisk": 93}, {"groupId": "EG002", "numEvents": 0, "numAffected": 0, "numAtRisk": 95}, {"groupId": "EG003", "numEvents": 0, "numAffected": 0, "numAtRisk": 94}]}, {"term": "ECZEMA", "organSystem": "Skin and subcutaneous tissue disorders", "sourceVocabulary": "MedDRA 14.0", "assessmentType": "NON_SYSTEMATIC_ASSESSMENT", "stats": [{"groupId": "EG000", "numEvents": 0, "numAffected": 0, "numAtRisk": 91}, {"groupId": "EG001", "numEvents": 1, "numAffected": 1, "numAtRisk": 93}, {"groupId": "EG002", "numEvents": 0, "numAffected": 0, "numAtRisk": 95}, {"groupId": "EG003", "numEvents": 0, "numAffected": 0, "numAtRisk": 94}]}, {"term": "PRURITUS", "organSystem": "Skin and subcutaneous tissue disorders", "sourceVocabulary": "MedDRA 14.0", "assessmentType": "NON_SYSTEMATIC_ASSESSMENT", "stats": [{"groupId": "EG000", "numEvents": 0, "numAffected": 0, "numAtRisk": 91}, {"groupId": "EG001", "numEvents": 0, "numAffected": 0, "numAtRisk": 93}, {"groupId": "EG002", "numEvents": 1, "numAffected": 1, "numAtRisk": 95}, {"groupId": "EG003", "numEvents": 0, "numAffected": 0, "numAtRisk": 94}]}, {"term": "SEBORRHOEA", "organSystem": "Skin and subcutaneous tissue disorders", "sourceVocabulary": "MedDRA 14.0", "assessmentType": "NON_SYSTEMATIC_ASSESSMENT", "stats": [{"groupId": "EG000", "numEvents": 0, "numAffected": 0, "numAtRisk": 91}, {"groupId": "EG001", "numEvents": 0, "numAffected": 0, "numAtRisk": 93}, {"groupId": "EG002", "numEvents": 1, "numAffected": 1, "numAtRisk": 95}, {"groupId": "EG003", "numEvents": 0, "numAffected": 0, "numAtRisk": 94}]}, {"term": "COSTOCHONDRITIS", "organSystem": "Musculoskeletal and connective tissue disorders", "sourceVocabulary": "MedDRA 14.0", "assessmentType": "NON_SYSTEMATIC_ASSESSMENT", "stats": [{"groupId": "EG000", "numEvents": 0, "numAffected": 0, "numAtRisk": 91}, {"groupId": "EG001", "numEvents": 0, "numAffected": 0, "numAtRisk": 93}, {"groupId": "EG002", "numEvents": 0, "numAffected": 0, "numAtRisk": 95}, {"groupId": "EG003", "numEvents": 1, "numAffected": 1, "numAtRisk": 94}]}, {"term": "FOOT DEFORMITY", "organSystem": "Musculoskeletal and connective tissue disorders", "sourceVocabulary": "MedDRA 14.0", "assessmentType": "NON_SYSTEMATIC_ASSESSMENT", "stats": [{"groupId": "EG000", "numEvents": 0, "numAffected": 0, "numAtRisk": 91}, {"groupId": "EG001", "numEvents": 1, "numAffected": 1, "numAtRisk": 93}, {"groupId": "EG002", "numEvents": 0, "numAffected": 0, "numAtRisk": 95}, {"groupId": "EG003", "numEvents": 0, "numAffected": 0, "numAtRisk": 94}]}, {"term": "OSTEOARTHRITIS", "organSystem": "Musculoskeletal and connective tissue disorders", "sourceVocabulary": "MedDRA 14.0", "assessmentType": "NON_SYSTEMATIC_ASSESSMENT", "stats": [{"groupId": "EG000", "numEvents": 0, "numAffected": 0, "numAtRisk": 91}, {"groupId": "EG001", "numEvents": 1, "numAffected": 1, "numAtRisk": 93}, {"groupId": "EG002", "numEvents": 0, "numAffected": 0, "numAtRisk": 95}, {"groupId": "EG003", "numEvents": 0, "numAffected": 0, "numAtRisk": 94}]}, {"term": "TORTICOLLIS", "organSystem": "Musculoskeletal and connective tissue disorders", "sourceVocabulary": "MedDRA 14.0", "assessmentType": "NON_SYSTEMATIC_ASSESSMENT", "stats": [{"groupId": "EG000", "numEvents": 0, "numAffected": 0, "numAtRisk": 91}, {"groupId": "EG001", "numEvents": 1, "numAffected": 1, "numAtRisk": 93}, {"groupId": "EG002", "numEvents": 0, "numAffected": 0, "numAtRisk": 95}, {"groupId": "EG003", "numEvents": 0, "numAffected": 0, "numAtRisk": 94}]}, {"term": "MUSCULOSKELETAL CHEST PAIN", "organSystem": "Musculoskeletal and connective tissue disorders", "sourceVocabulary": "MedDRA 14.0", "assessmentType": "NON_SYSTEMATIC_ASSESSMENT", "stats": [{"groupId": "EG000", "numEvents": 1, "numAffected": 1, "numAtRisk": 91}, {"groupId": "EG001", "numEvents": 0, "numAffected": 0, "numAtRisk": 93}, {"groupId": "EG002", "numEvents": 0, "numAffected": 0, "numAtRisk": 95}, {"groupId": "EG003", "numEvents": 0, "numAffected": 0, "numAtRisk": 94}]}, {"term": "PAIN IN EXTREMITY", "organSystem": "Musculoskeletal and connective tissue disorders", "sourceVocabulary": "MedDRA 14.0", "assessmentType": "NON_SYSTEMATIC_ASSESSMENT", "stats": [{"groupId": "EG000", "numEvents": 4, "numAffected": 1, "numAtRisk": 91}, {"groupId": "EG001", "numEvents": 0, "numAffected": 0, "numAtRisk": 93}, {"groupId": "EG002", "numEvents": 0, "numAffected": 0, "numAtRisk": 95}, {"groupId": "EG003", "numEvents": 0, "numAffected": 0, "numAtRisk": 94}]}, {"term": "FATIGUE", "organSystem": "General disorders", "sourceVocabulary": "MedDRA 14.0", "assessmentType": "NON_SYSTEMATIC_ASSESSMENT", "stats": [{"groupId": "EG000", "numEvents": 0, "numAffected": 0, "numAtRisk": 91}, {"groupId": "EG001", "numEvents": 0, "numAffected": 0, "numAtRisk": 93}, {"groupId": "EG002", "numEvents": 1, "numAffected": 1, "numAtRisk": 95}, {"groupId": "EG003", "numEvents": 0, "numAffected": 0, "numAtRisk": 94}]}, {"term": "PYREXIA", "organSystem": "General disorders", "sourceVocabulary": "MedDRA 14.0", "assessmentType": "NON_SYSTEMATIC_ASSESSMENT", "stats": [{"groupId": "EG000", "numEvents": 1, "numAffected": 1, "numAtRisk": 91}, {"groupId": "EG001", "numEvents": 1, "numAffected": 1, "numAtRisk": 93}, {"groupId": "EG002", "numEvents": 0, "numAffected": 0, "numAtRisk": 95}, {"groupId": "EG003", "numEvents": 0, "numAffected": 0, "numAtRisk": 94}]}, {"term": "CHEST DISCOMFORT", "organSystem": "General disorders", "sourceVocabulary": "MedDRA 14.0", "assessmentType": "NON_SYSTEMATIC_ASSESSMENT", "stats": [{"groupId": "EG000", "numEvents": 1, "numAffected": 1, "numAtRisk": 91}, {"groupId": "EG001", "numEvents": 0, "numAffected": 0, "numAtRisk": 93}, {"groupId": "EG002", "numEvents": 0, "numAffected": 0, "numAtRisk": 95}, {"groupId": "EG003", "numEvents": 0, "numAffected": 0, "numAtRisk": 94}]}, {"term": "MALAISE", "organSystem": "General disorders", "sourceVocabulary": "MedDRA 14.0", "assessmentType": "NON_SYSTEMATIC_ASSESSMENT", "stats": [{"groupId": "EG000", "numEvents": 1, "numAffected": 1, "numAtRisk": 91}, {"groupId": "EG001", "numEvents": 0, "numAffected": 0, "numAtRisk": 93}, {"groupId": "EG002", "numEvents": 0, "numAffected": 0, "numAtRisk": 95}, {"groupId": "EG003", "numEvents": 0, "numAffected": 0, "numAtRisk": 94}]}, {"term": "PAIN", "organSystem": "General disorders", "sourceVocabulary": "MedDRA 14.0", "assessmentType": "NON_SYSTEMATIC_ASSESSMENT", "stats": [{"groupId": "EG000", "numEvents": 1, "numAffected": 1, "numAtRisk": 91}, {"groupId": "EG001", "numEvents": 0, "numAffected": 0, "numAtRisk": 93}, {"groupId": "EG002", "numEvents": 0, "numAffected": 0, "numAtRisk": 95}, {"groupId": "EG003", "numEvents": 0, "numAffected": 0, "numAtRisk": 94}]}, {"term": "HYPOGLYCAEMIA", "organSystem": "Metabolism and nutrition disorders", "sourceVocabulary": "MedDRA 14.0", "assessmentType": "NON_SYSTEMATIC_ASSESSMENT", "stats": [{"groupId": "EG000", "numEvents": 0, "numAffected": 0, "numAtRisk": 91}, {"groupId": "EG001", "numEvents": 0, "numAffected": 0, "numAtRisk": 93}, {"groupId": "EG002", "numEvents": 1, "numAffected": 1, "numAtRisk": 95}, {"groupId": "EG003", "numEvents": 0, "numAffected": 0, "numAtRisk": 94}]}, {"term": "TYPE 2 DIABETES MELLITUS", "organSystem": "Metabolism and nutrition disorders", "sourceVocabulary": "MedDRA 14.0", "assessmentType": "NON_SYSTEMATIC_ASSESSMENT", "stats": [{"groupId": "EG000", "numEvents": 0, "numAffected": 0, "numAtRisk": 91}, {"groupId": "EG001", "numEvents": 0, "numAffected": 0, "numAtRisk": 93}, {"groupId": "EG002", "numEvents": 0, "numAffected": 0, "numAtRisk": 95}, {"groupId": "EG003", "numEvents": 1, "numAffected": 1, "numAtRisk": 94}]}, {"term": "HYPERTENSION", "organSystem": "Vascular disorders", "sourceVocabulary": "MedDRA 14.0", "assessmentType": "NON_SYSTEMATIC_ASSESSMENT", "stats": [{"groupId": "EG000", "numEvents": 0, "numAffected": 0, "numAtRisk": 91}, {"groupId": "EG001", "numEvents": 0, "numAffected": 0, "numAtRisk": 93}, {"groupId": "EG002", "numEvents": 0, "numAffected": 0, "numAtRisk": 95}, {"groupId": "EG003", "numEvents": 2, "numAffected": 2, "numAtRisk": 94}]}, {"term": "IRON DEFICIENCY ANAEMIA", "organSystem": "Blood and lymphatic system disorders", "sourceVocabulary": "MedDRA 14.0", "assessmentType": "NON_SYSTEMATIC_ASSESSMENT", "stats": [{"groupId": "EG000", "numEvents": 0, "numAffected": 0, "numAtRisk": 91}, {"groupId": "EG001", "numEvents": 0, "numAffected": 0, "numAtRisk": 93}, {"groupId": "EG002", "numEvents": 0, "numAffected": 0, "numAtRisk": 95}, {"groupId": "EG003", "numEvents": 1, "numAffected": 1, "numAtRisk": 94}]}, {"term": "BUNDLE BRANCH BLOCK RIGHT", "organSystem": "Cardiac disorders", "sourceVocabulary": "MedDRA 14.0", "assessmentType": "NON_SYSTEMATIC_ASSESSMENT", "stats": [{"groupId": "EG000", "numEvents": 0, "numAffected": 0, "numAtRisk": 91}, {"groupId": "EG001", "numEvents": 0, "numAffected": 0, "numAtRisk": 93}, {"groupId": "EG002", "numEvents": 1, "numAffected": 1, "numAtRisk": 95}, {"groupId": "EG003", "numEvents": 0, "numAffected": 0, "numAtRisk": 94}]}, {"term": "INJURY", "organSystem": "Injury, poisoning and procedural complications", "sourceVocabulary": "MedDRA 14.0", "assessmentType": "NON_SYSTEMATIC_ASSESSMENT", "stats": [{"groupId": "EG000", "numEvents": 0, "numAffected": 0, "numAtRisk": 91}, {"groupId": "EG001", "numEvents": 1, "numAffected": 1, "numAtRisk": 93}, {"groupId": "EG002", "numEvents": 0, "numAffected": 0, "numAtRisk": 95}, {"groupId": "EG003", "numEvents": 0, "numAffected": 0, "numAtRisk": 94}]}, {"term": "THERMAL BURN", "organSystem": "Injury, poisoning and procedural complications", "sourceVocabulary": "MedDRA 14.0", "assessmentType": "NON_SYSTEMATIC_ASSESSMENT", "stats": [{"groupId": "EG000", "numEvents": 0, "numAffected": 0, "numAtRisk": 91}, {"groupId": "EG001", "numEvents": 1, "numAffected": 1, "numAtRisk": 93}, {"groupId": "EG002", "numEvents": 0, "numAffected": 0, "numAtRisk": 95}, {"groupId": "EG003", "numEvents": 0, "numAffected": 0, "numAtRisk": 94}]}, {"term": "WEIGHT INCREASED", "organSystem": "Investigations", "sourceVocabulary": "MedDRA 14.0", "assessmentType": "NON_SYSTEMATIC_ASSESSMENT", "stats": [{"groupId": "EG000", "numEvents": 0, "numAffected": 0, "numAtRisk": 91}, {"groupId": "EG001", "numEvents": 0, "numAffected": 0, "numAtRisk": 93}, {"groupId": "EG002", "numEvents": 0, "numAffected": 0, "numAtRisk": 95}, {"groupId": "EG003", "numEvents": 1, "numAffected": 1, "numAtRisk": 94}]}, {"term": "NEPHROLITHIASIS", "organSystem": "Renal and urinary disorders", "sourceVocabulary": "MedDRA 14.0", "assessmentType": "NON_SYSTEMATIC_ASSESSMENT", "stats": [{"groupId": "EG000", "numEvents": 0, "numAffected": 0, "numAtRisk": 91}, {"groupId": "EG001", "numEvents": 0, "numAffected": 0, "numAtRisk": 93}, {"groupId": "EG002", "numEvents": 0, "numAffected": 0, "numAtRisk": 95}, {"groupId": "EG003", "numEvents": 1, "numAffected": 1, "numAtRisk": 94}]}, {"term": "VAGINAL HAEMORRHAGE", "organSystem": "Reproductive system and breast disorders", "sourceVocabulary": "MedDRA 14.0", "assessmentType": "NON_SYSTEMATIC_ASSESSMENT", "stats": [{"groupId": "EG000", "numEvents": 0, "numAffected": 0, "numAtRisk": 91}, {"groupId": "EG001", "numEvents": 1, "numAffected": 1, "numAtRisk": 93}, {"groupId": "EG002", "numEvents": 0, "numAffected": 0, "numAtRisk": 95}, {"groupId": "EG003", "numEvents": 0, "numAffected": 0, "numAtRisk": 94}]}, {"term": "LACRIMATION INCREASED", "organSystem": "Eye disorders", "sourceVocabulary": "MedDRA 14.0", "assessmentType": "NON_SYSTEMATIC_ASSESSMENT", "stats": [{"groupId": "EG000", "numEvents": 1, "numAffected": 1, "numAtRisk": 91}, {"groupId": "EG001", "numEvents": 0, "numAffected": 0, "numAtRisk": 93}, {"groupId": "EG002", "numEvents": 0, "numAffected": 0, "numAtRisk": 95}, {"groupId": "EG003", "numEvents": 0, "numAffected": 0, "numAtRisk": 94}]}, {"term": "CYTOLYTIC HEPATITIS", "organSystem": "Hepatobiliary disorders", "sourceVocabulary": "MedDRA 14.0", "assessmentType": "NON_SYSTEMATIC_ASSESSMENT", "stats": [{"groupId": "EG000", "numEvents": 1, "numAffected": 1, "numAtRisk": 91}, {"groupId": "EG001", "numEvents": 0, "numAffected": 0, "numAtRisk": 93}, {"groupId": "EG002", "numEvents": 0, "numAffected": 0, "numAtRisk": 95}, {"groupId": "EG003", "numEvents": 0, "numAffected": 0, "numAtRisk": 94}]}, {"term": "GALLBLADDER PAIN", "organSystem": "Hepatobiliary disorders", "sourceVocabulary": "MedDRA 14.0", "assessmentType": "NON_SYSTEMATIC_ASSESSMENT", "stats": [{"groupId": "EG000", "numEvents": 1, "numAffected": 1, "numAtRisk": 91}, {"groupId": "EG001", "numEvents": 0, "numAffected": 0, "numAtRisk": 93}, {"groupId": "EG002", "numEvents": 0, "numAffected": 0, "numAtRisk": 95}, {"groupId": "EG003", "numEvents": 0, "numAffected": 0, "numAtRisk": 94}]}]}, "moreInfoModule": {"certainAgreement": {"piSponsorEmployee": false, "restrictionType": "OTHER", "restrictiveAgreement": true, "otherDetails": "Publication can be delayed for 60 days for Sponsor review and revisions/deletions can be required. Furthermore, a 6-month delay to publication can be required by the Sponsor in order to take steps to protect its proprietary information and/or intellectual property rights."}, "pointOfContact": {"title": "Gary Burgess, MD", "organization": "Vectura Limited", "email": "clinical.enquiries@vectura.com", "phone": "+44(0)1249 667700"}}}, "derivedSection": {"miscInfoModule": {"versionHolder": "2024-06-24"}, "conditionBrowseModule": {"meshes": [{"id": "D000001249", "term": "Asthma"}], "ancestors": [{"id": "D000001982", "term": "Bronchial Diseases"}, {"id": "D000012140", "term": "Respiratory Tract Diseases"}, {"id": "D000008173", "term": "Lung Diseases, Obstructive"}, {"id": "D000008171", "term": "Lung Diseases"}, {"id": "D000012130", "term": "Respiratory Hypersensitivity"}, {"id": "D000006969", "term": "Hypersensitivity, Immediate"}, {"id": "D000006967", "term": "Hypersensitivity"}, {"id": "D000007154", "term": "Immune System Diseases"}], "browseLeaves": [{"id": "M27137", "name": "Respiratory Aspiration", "relevance": "LOW"}, {"id": "M4556", "name": "Asthma", "asFound": "Asthma", "relevance": "HIGH"}, {"id": "M5258", "name": "Bronchial Diseases", "relevance": "LOW"}, {"id": "M14977", "name": "Respiratory Tract Diseases", "relevance": "LOW"}, {"id": "M11168", "name": "Lung Diseases", "relevance": "LOW"}, {"id": "M11170", "name": "Lung Diseases, Obstructive", "relevance": "LOW"}, {"id": "M10018", "name": "Hypersensitivity", "relevance": "LOW"}, {"id": "M14967", "name": "Respiratory Hypersensitivity", "relevance": "LOW"}, {"id": "M10020", "name": "Hypersensitivity, Immediate", "relevance": "LOW"}, {"id": "M10200", "name": "Immune System Diseases", "relevance": "LOW"}], "browseBranches": [{"abbrev": "BC08", "name": "Respiratory Tract (Lung and Bronchial) Diseases"}, {"abbrev": "BC23", "name": "Symptoms and General Pathology"}, {"abbrev": "All", "name": "All Conditions"}, {"abbrev": "BC20", "name": "Immune System Diseases"}]}}, "hasResults": true}