{"protocolSection": {"identificationModule": {"nctId": "NCT01312961", "orgStudyIdInfo": {"id": "ACT11457"}, "secondaryIdInfos": [{"id": "U1111-1117-7826", "type": "OTHER", "domain": "UTN"}], "organization": {"fullName": "Sanofi", "class": "INDUSTRY"}, "briefTitle": "Efficacy, Safety, and Tolerability of Dupilumab in Patients With Persistent Moderate to Severe Eosinophilic Asthma", "officialTitle": "Randomized, Double-blind, Placebo-controlled, Parallel Group Study to Assess the Efficacy, Safety, and Tolerability of SAR231893/REGN668 Administered Subcutaneously Once Weekly for 12 Weeks in Patients With Persistent Moderate to Severe Eosinophilic Asthma Who Are Partially Controlled/Uncontrolled by Inhaled Corticosteroid Plus Long-acting beta2 Agonist Therapy"}, "statusModule": {"statusVerifiedDate": "2017-06", "overallStatus": "COMPLETED", "expandedAccessInfo": {"hasExpandedAccess": false}, "startDateStruct": {"date": "2011-03"}, "primaryCompletionDateStruct": {"date": "2012-10", "type": "ACTUAL"}, "completionDateStruct": {"date": "2012-10", "type": "ACTUAL"}, "studyFirstSubmitDate": "2011-03-09", "studyFirstSubmitQcDate": "2011-03-09", "studyFirstPostDateStruct": {"date": "2011-03-11", "type": "ESTIMATED"}, "resultsFirstSubmitDate": "2017-04-27", "resultsFirstSubmitQcDate": "2017-06-07", "resultsFirstPostDateStruct": {"date": "2017-06-08", "type": "ACTUAL"}, "dispFirstSubmitDate": "2013-12-05", "dispFirstSubmitQcDate": "2014-01-13", "dispFirstPostDateStruct": {"date": "2014-02-10", "type": "ESTIMATED"}, "lastUpdateSubmitDate": "2017-06-07", "lastUpdatePostDateStruct": {"date": "2017-06-08", "type": "ACTUAL"}}, "sponsorCollaboratorsModule": {"responsibleParty": {"type": "SPONSOR"}, "leadSponsor": {"name": "Sanofi", "class": "INDUSTRY"}, "collaborators": [{"name": "Regeneron Pharmaceuticals", "class": "INDUSTRY"}]}, "oversightModule": {"oversightHasDmc": true}, "descriptionModule": {"briefSummary": "Primary Objective:\n\nTo investigate the effects of Dupilumab (SAR231893/REGN668) administered subcutaneously (SC) once weekly (qw) for 12 weeks as compared to placebo on reducing the incidence of asthma exacerbation in participants with persistent moderate to severe eosinophilic asthma.\n\nSecondary Objectives:\n\n* To assess the safety and tolerability of Dupilumab administered SC qw for 12 weeks in participants with persistent moderate to severe eosinophilic asthma.\n* To assess Dupilumab serum concentrations following qw SC dosing for 12 weeks in participants with persistent moderate to severe eosinophilic asthma.", "detailedDescription": "The total duration of the study period per participant was 20-22 weeks broken down as follows:\n\n* Screening period: up to 14 days,\n* Treatment period: 12 weeks,\n* Follow-up period: 6-8 weeks."}, "conditionsModule": {"conditions": ["Asthma"]}, "designModule": {"studyType": "INTERVENTIONAL", "phases": ["PHASE2"], "designInfo": {"allocation": "RANDOMIZED", "interventionModel": "PARALLEL", "primaryPurpose": "TREATMENT", "maskingInfo": {"masking": "TRIPLE", "whoMasked": ["PARTICIPANT", "CARE_PROVIDER", "INVESTIGATOR"]}}, "enrollmentInfo": {"count": 104, "type": "ACTUAL"}}, "armsInterventionsModule": {"armGroups": [{"label": "Placebo (for Dupilumab)", "type": "PLACEBO_COMPARATOR", "description": "Placebo (for Dupilumab) subcutaneous (SC) injection once weekly (qw) for 12 weeks added to background therapy of inhaled corticosteroids/long-acting beta2-adrenergic agonist (ICS/LABA) (Fluticasone/Salmeterol combination therapy at stable dose for 4 weeks followed by Fluticasone monotherapy, dose progressively decreased and discontinued at Week 9). Albuterol or Levalbuterol was given as rescue medication.", "interventionNames": ["Drug: Placebo (for Dupilumab)", "Drug: Fluticasone/Salmeterol combination therapy", "Drug: Fluticasone monotherapy", "Drug: Albuterol", "Drug: Levalbuterol"]}, {"label": "Dupilumab 300 mg qw", "type": "EXPERIMENTAL", "description": "Dupilumab 300 mg SC injection qw for 12 weeks added to background therapy of ICS/LABA (Fluticasone/Salmeterol combination therapy at stable dose for 4 weeks followed by Fluticasone monotherapy, dose progressively decreased and discontinued at Week 9). Albuterol or Levalbuterol was given as rescue medication.", "interventionNames": ["Drug: Dupilumab", "Drug: Fluticasone/Salmeterol combination therapy", "Drug: Fluticasone monotherapy", "Drug: Albuterol", "Drug: Levalbuterol"]}], "interventions": [{"type": "DRUG", "name": "Dupilumab", "description": "Solution for injection, one subcutaneous injection.", "armGroupLabels": ["Dupilumab 300 mg qw"], "otherNames": ["SAR231893", "REGN668"]}, {"type": "DRUG", "name": "Placebo (for Dupilumab)", "description": "Solution for injection, one subcutaneous injection.", "armGroupLabels": ["Placebo (for Dupilumab)"]}, {"type": "DRUG", "name": "Fluticasone/Salmeterol combination therapy", "description": "Oral inhalation twice daily.", "armGroupLabels": ["Dupilumab 300 mg qw", "Placebo (for Dupilumab)"]}, {"type": "DRUG", "name": "Fluticasone monotherapy", "description": "Oral inhalation twice daily.", "armGroupLabels": ["Dupilumab 300 mg qw", "Placebo (for Dupilumab)"]}, {"type": "DRUG", "name": "Albuterol", "description": "Oral inhalation as needed.", "armGroupLabels": ["Dupilumab 300 mg qw", "Placebo (for Dupilumab)"]}, {"type": "DRUG", "name": "Levalbuterol", "description": "Oral inhalation as needed.", "armGroupLabels": ["Dupilumab 300 mg qw", "Placebo (for Dupilumab)"]}]}, "outcomesModule": {"primaryOutcomes": [{"measure": "Percentage of Participants With Asthma Exacerbation", "description": "An asthma exacerbation was defined as the occurrence of any of the following: \u226530% reduction from baseline in morning PEF on 2 consecutive days; or \u22656 additional reliever puffs of albuterol or levalbuterol in a 24-hour period (compared to baseline) on 2 consecutive days; or deterioration of asthma, as determined by the investigator, requiring systemic steroid treatment, or an increase in inhaled corticosteroid (ICS) of \u22654 times the last dose received prior to discontinuation from the study, or hospitalization. The occurrence of asthma exacerbations by individual criteria are reported.", "timeFrame": "Baseline up to Week 12"}], "secondaryOutcomes": [{"measure": "Time to First Asthma Exacerbation: Kaplan-Meier Estimates at Week 4, Week 8 and Week 12", "description": "The time-to-asthma exacerbation was defined as the time from the date of randomization to the date of the first asthma exacerbation event; for participants without asthma exacerbation, it was censored at the end of treatment visit date. The median time to first asthma exacerbation was not estimated because the number of asthma exacerbations was too low in the Dupilumab arm. Therefore, alternative Kaplan-Meier statistics, the probability of asthma exacerbation at Week 4, 8 and 12, are presented as the descriptive measure statistics.", "timeFrame": "Baseline up to Week 12"}, {"measure": "Percentage of Participants With Composite Asthma Events", "description": "Composite asthma event was defined as a 30% or greater reduction from baseline in morning PEF on 2 consecutive days together with 6 or more additional reliever puffs of albuterol or levalbuterol in a 24-hour period (compared to baseline) on 2 consecutive days.", "timeFrame": "Baseline up to Week 12"}, {"measure": "Change From Baseline in Forced Expiratory Flow in One Second (FEV1) to Week 12", "description": "FEV1 is the amount of air which can be forcibly exhaled from the lungs in the first second of a forced exhalation.", "timeFrame": "Baseline, Week 12"}, {"measure": "Change From Baseline in Peak Expiratory Flow (PEF) to Week 12", "description": "The PEF is a participant's maximum speed of expiration, as measured with a peak flow meter. Peak flow testing for PEF was performed at home (morning and evening) while sitting or standing prior to using any medication (if needed) for asthma.", "timeFrame": "Baseline, Week 12"}, {"measure": "Change From Baseline in Asthma Control Questionnaire (5-question Version [ACQ-5]) to Week 12", "description": "ACQ-5 questionnaire is a validated questionnaire comprising of 5 questions for asthma symptoms: woken at night by symptoms, wake in the mornings with symptoms, limitation of daily activities, shortness of breath, and wheeze. Participants were asked to rate their asthma symptoms during the previous week on a 7-point scale as 0=no impairment, 6=maximum impairment. ACQ-5 score is the mean of the 5 questions and range between 0 (disease totally controlled) and 6 (disease severely uncontrolled), a higher score indicated lower asthma control.", "timeFrame": "Baseline, Week 12"}, {"measure": "Change From Baseline in 22-item Sinonasal Outcome Test (SNOT-22) Score to Week 12", "description": "The SNOT-22 is a validated measure of health related quality of life in sinonasal disease. It is a 22 item questionnaire with each item assigned a score ranging from 0-5. The total score may range from 0 (no disease) -110 (worst disease), lower scores represent better health related quality of life.", "timeFrame": "Baseline, Week 12"}, {"measure": "Change From Baseline in Morning Asthma Symptom Scores to Week 12", "description": "AM (ante meridiem) symptom scoring system rates were participant's overall asthma symptoms experienced during the night. It ranges from 0 to 4 as: 0 = No asthma symptoms, slept through the night, 1= Slept well, but some complaints in the morning. No nighttime awakenings,2= Woke up once because of asthma (including early awakening),3= Woke up several times because of asthma (including early awakening), 4= Bad night, awake most of the night because of asthma.", "timeFrame": "Baseline, Week 12"}, {"measure": "Change From Baseline in Evening Asthma Symptom Scores to Week 12", "description": "PM (post meridiem) symptom scoring system rates were participant's overall asthma symptoms experienced during the day. It ranges from 0 to 4 as: 0=very well, no asthma symptoms, 1=one episode of wheezing, cough, or breathlessness, 2=more than one episode of wheezing, cough, or breathlessness without interference of normal activities, 3=wheezing, cough, or breathlessness most of the day, which interfered to some extent with normal activities, 4=asthma very bad, unable to carry out daily activities as usual.", "timeFrame": "Baseline, Week 12"}, {"measure": "Change From Baseline in Number of Nocturnal Awakenings Per Day to Week 12", "description": "Participants recorded every morning on awakening the number of asthma-related nocturnal awakenings requiring use of rescue medication that occurred during the previous night.", "timeFrame": "Baseline, Week 12"}, {"measure": "Change From Baseline in Number of Inhalations Per Day of Albuterol or Levalbuterol to Week 12", "description": "Number of Albuterol or Levalbuterol inhalations were recorded daily by the participants in their electronic diary as Albuterol or Levalbuterol was to be used only as needed for symptoms, not on a regular basis or prophylactically.", "timeFrame": "Baseline, Week 12"}]}, "eligibilityModule": {"eligibilityCriteria": "Inclusion criteria:\n\nMedical diagnosis of persistent asthma for at least 12 months whose:\n\n* airway inflammation likely to be eosinophilic,\n* asthma partially controlled or uncontrolled on ICS plus LABA therapy.\n* On a stable dose of either Fluticasone/Salmeterol, Budesonide/Formoterol, Mometasone/Formoterol combination therapy for at least 1 month prior to screening.\n* Signed an Informed Consent Form and Health Insurance Portability and Accountability Act (HIPAA) Authorization Form.\n\nExclusion criteria:\n\n* Less than 18 years or greater than 65 years of age.\n* Clinically relevant abnormal laboratory values suggesting an unknown disease and requiring further evaluation.\n* Chronic obstructive pulmonary disease and/or other lung diseases impairing Pulmonary Function Tests.\n* Beta-adrenergic receptor blockers required for any reason.\n* Current smoker or cessation of smoking within the 6 months prior to screening.\n* Previous smoking with a smoking history \\>10 cigarette pack/years.\n* Participation in another study within 6 months prior to screening if the study medication was an antibody or within 30 days prior to screening for all other study medications.\n* Known or suspected non-compliance, alcohol or drug abuse.\n* Inability to follow the procedures of the study (e.g, due to language problems, psychological disorders).\n* Concomitant severe diseases or diseases for which the use of ICS or LABA were contraindicated.\n* Known allergy to doxycycline or related compounds.\n* Pregnancy or intention to become pregnant during the course of the study, breast feeding, or unwillingness to use a highly effective method of contraception throughout the study in women of childbearing potential.\n* Recent history of a parasitic infection or travel to a parasitic endemic area within 6 months prior to screening.\n\nThe above information is not intended to contain all considerations relevant to a participant's potential participation in a clinical trial.", "healthyVolunteers": false, "sex": "ALL", "minimumAge": "18 Years", "maximumAge": "65 Years", "stdAges": ["ADULT", "OLDER_ADULT"]}, "contactsLocationsModule": {"overallOfficials": [{"name": "Clinical Sciences & Operations", "affiliation": "Sanofi", "role": "STUDY_DIRECTOR"}], "locations": [{"facility": "Investigational Site Number 840047", "city": "Anaheim", "state": "California", "zip": "92804", "country": "United States", "geoPoint": {"lat": 33.83529, "lon": -117.9145}}, {"facility": "Investigational Site Number 840046", "city": "Long Beach", "state": "California", "zip": "90806", "country": "United States", "geoPoint": {"lat": 33.76696, "lon": -118.18923}}, {"facility": "Investigational Site Number 840032", "city": "Los Angeles", "state": "California", "zip": "90025", "country": "United States", "geoPoint": {"lat": 34.05223, "lon": -118.24368}}, {"facility": "Investigational Site Number 840036", "city": "Los Angeles", "state": "California", "zip": "90048", "country": "United States", "geoPoint": {"lat": 34.05223, "lon": -118.24368}}, {"facility": "Investigational Site Number 840005", "city": "Mission Viejo", "state": "California", "zip": "92691", "country": "United States", "geoPoint": {"lat": 33.60002, "lon": -117.672}}, {"facility": "Investigational Site Number 840007", "city": "Orange", "state": "California", "zip": "92868", "country": "United States", "geoPoint": {"lat": 33.78779, "lon": -117.85311}}, {"facility": "Investigational Site Number 840048", "city": "Riverside", "state": "California", "zip": "92506", "country": "United States", "geoPoint": {"lat": 33.95335, "lon": -117.39616}}, {"facility": "Investigational Site Number 840035", "city": "Rolling Hills Estates", "state": "California", "zip": "90274", "country": "United States", "geoPoint": {"lat": 33.78779, "lon": -118.35813}}, {"facility": "Investigational Site Number 840041", "city": "San Francisco", "state": "California", "zip": "94143", "country": "United States", "geoPoint": {"lat": 37.77493, "lon": -122.41942}}, {"facility": "Investigational Site Number 840042", "city": "San Francisco", "state": "California", "zip": "94143", "country": "United States", "geoPoint": {"lat": 37.77493, "lon": -122.41942}}, {"facility": "Investigational Site Number 840039", "city": "San Jose", "state": "California", "zip": "95117", "country": "United States", "geoPoint": {"lat": 37.33939, "lon": -121.89496}}, {"facility": "Investigational Site Number 840024", "city": "Santa Rosa", "state": "California", "zip": "95405", "country": "United States", "geoPoint": {"lat": 38.44047, "lon": -122.71443}}, {"facility": "Investigational Site Number 840002", "city": "Stockton", "state": "California", "zip": "95207", "country": "United States", "geoPoint": {"lat": 37.9577, "lon": -121.29078}}, {"facility": "Investigational Site Number 840031", "city": "Colorado Springs", "state": "Colorado", "zip": "80907", "country": "United States", "geoPoint": {"lat": 38.83388, "lon": -104.82136}}, {"facility": "Investigational Site Number 840011", "city": "Denver", "state": "Colorado", "zip": "80206", "country": "United States", "geoPoint": {"lat": 39.73915, "lon": -104.9847}}, {"facility": "Investigational Site Number 840017", "city": "Denver", "state": "Colorado", "zip": "80230", "country": "United States", "geoPoint": {"lat": 39.73915, "lon": -104.9847}}, {"facility": "Investigational Site Number 840026", "city": "New Haven", "state": "Connecticut", "zip": "06510", "country": "United States", "geoPoint": {"lat": 41.30815, "lon": -72.92816}}, {"facility": "Investigational Site Number 840044", "city": "Tallahassee", "state": "Florida", "zip": "32308", "country": "United States", "geoPoint": {"lat": 30.43826, "lon": -84.28073}}, {"facility": "Investigational Site Number 840029", "city": "Tampa", "state": "Florida", "zip": "33612", "country": "United States", "geoPoint": {"lat": 27.94752, "lon": -82.45843}}, {"facility": "Investigational Site Number 840028", "city": "Indianapolis", "state": "Indiana", "zip": "46208", "country": "United States", "geoPoint": {"lat": 39.76838, "lon": -86.15804}}, {"facility": "Investigational Site Number 840038", "city": "Iowa City", "state": "Iowa", "zip": "52240", "country": "United States", "geoPoint": {"lat": 41.66113, "lon": -91.53017}}, {"facility": "Investigational Site Number 840021", "city": "Overland Park", "state": "Kansas", "zip": "66210", "country": "United States", "geoPoint": {"lat": 38.98223, "lon": -94.67079}}, {"facility": "Investigational Site Number 840053", "city": "Owensboro", "state": "Kentucky", "zip": "42303", "country": "United States", "geoPoint": {"lat": 37.77422, "lon": -87.11333}}, {"facility": "Investigational Site Number 840014", "city": "Baltimore", "state": "Maryland", "zip": "21287", "country": "United States", "geoPoint": {"lat": 39.29038, "lon": -76.61219}}, {"facility": "Investigational Site Number 840015", "city": "North Dartmouth", "state": "Massachusetts", "zip": "02747", "country": "United States", "geoPoint": {"lat": 41.63899, "lon": -70.97032}}, {"facility": "Investigational Site Number 840003", "city": "Minneapolis", "state": "Minnesota", "zip": "55402", "country": "United States", "geoPoint": {"lat": 44.97997, "lon": -93.26384}}, {"facility": "Investigational Site Number 840010", "city": "Minneapolis", "state": "Minnesota", "zip": "55402", "country": "United States", "geoPoint": {"lat": 44.97997, "lon": -93.26384}}, {"facility": "Investigational Site Number 840006", "city": "Saint Louis", "state": "Missouri", "zip": "63110", "country": "United States", "geoPoint": {"lat": 38.62727, "lon": -90.19789}}, {"facility": "Investigational Site Number 840013", "city": "Saint Louis", "state": "Missouri", "zip": "63141", "country": "United States", "geoPoint": {"lat": 38.62727, "lon": -90.19789}}, {"facility": "Investigational Site Number 840022", "city": "Bozeman", "state": "Montana", "zip": "59718", "country": "United States", "geoPoint": {"lat": 45.67965, "lon": -111.03856}}, {"facility": "Investigational Site Number 840025", "city": "Omaha", "state": "Nebraska", "zip": "68131", "country": "United States", "geoPoint": {"lat": 41.25626, "lon": -95.94043}}, {"facility": "Investigational Site Number 840008", "city": "Papillion", "state": "Nebraska", "zip": "27103", "country": "United States", "geoPoint": {"lat": 41.15444, "lon": -96.04224}}, {"facility": "Investigational Site Number 840018", "city": "Princeton", "state": "New Jersey", "zip": "08540", "country": "United States", "geoPoint": {"lat": 40.34872, "lon": -74.65905}}, {"facility": "Investigational Site Number 840004", "city": "Winston-Salem", "state": "North Carolina", "zip": "27157-1071", "country": "United States", "geoPoint": {"lat": 36.09986, "lon": -80.24422}}, {"facility": "Investigational Site Number 840023", "city": "Sylvania", "state": "Ohio", "zip": "43560", "country": "United States", "geoPoint": {"lat": 41.71894, "lon": -83.71299}}, {"facility": "Investigational Site Number 840045", "city": "Oklahoma City", "state": "Oklahoma", "zip": "73120", "country": "United States", "geoPoint": {"lat": 35.46756, "lon": -97.51643}}, {"facility": "Investigational Site Number 840001", "city": "Lake Oswego", "state": "Oregon", "zip": "97035", "country": "United States", "geoPoint": {"lat": 45.42067, "lon": -122.67065}}, {"facility": "Investigational Site Number 840012", "city": "Medford", "state": "Oregon", "zip": "97504", "country": "United States", "geoPoint": {"lat": 42.32652, "lon": -122.87559}}, {"facility": "Investigational Site Number 840016", "city": "Portland", "state": "Oregon", "zip": "97209", "country": "United States", "geoPoint": {"lat": 45.52345, "lon": -122.67621}}, {"facility": "Investigational Site Number 840040", "city": "Hershey", "state": "Pennsylvania", "zip": "17033", "country": "United States", "geoPoint": {"lat": 40.28592, "lon": -76.65025}}, {"facility": "Investigational Site Number 840037", "city": "Pittsburgh", "state": "Pennsylvania", "zip": "15213", "country": "United States", "geoPoint": {"lat": 40.44062, "lon": -79.99589}}, {"facility": "Investigational Site Number 840009", "city": "Upland", "state": "Pennsylvania", "zip": "19013", "country": "United States", "geoPoint": {"lat": 39.85261, "lon": -75.38269}}, {"facility": "Investigational Site Number 840027", "city": "Charleston", "state": "South Carolina", "zip": "29407", "country": "United States", "geoPoint": {"lat": 32.77657, "lon": -79.93092}}, {"facility": "Investigational Site Number 840030", "city": "El Paso", "state": "Texas", "zip": "79902", "country": "United States", "geoPoint": {"lat": 31.75872, "lon": -106.48693}}, {"facility": "Investigational Site Number 840050", "city": "San Antonio", "state": "Texas", "zip": "78229", "country": "United States", "geoPoint": {"lat": 29.42412, "lon": -98.49363}}, {"facility": "Investigational Site Number 840052", "city": "South Burlington", "state": "Vermont", "zip": "05403", "country": "United States", "geoPoint": {"lat": 44.46699, "lon": -73.17096}}, {"facility": "Investigational Site Number 840049", "city": "Richmond", "state": "Virginia", "zip": "23229", "country": "United States", "geoPoint": {"lat": 37.55376, "lon": -77.46026}}, {"facility": "Investigational Site Number 840020", "city": "Seattle", "state": "Washington", "zip": "98105", "country": "United States", "geoPoint": {"lat": 47.60621, "lon": -122.33207}}, {"facility": "Investigational Site Number 840019", "city": "Tacoma", "state": "Washington", "zip": "98415-0299", "country": "United States", "geoPoint": {"lat": 47.25288, "lon": -122.44429}}, {"facility": "Investigational Site Number 840034", "city": "Madison", "state": "Wisconsin", "zip": "53792", "country": "United States", "geoPoint": {"lat": 43.07305, "lon": -89.40123}}]}, "referencesModule": {"references": [{"pmid": "23688323", "type": "RESULT", "citation": "Wenzel S, Ford L, Pearlman D, Spector S, Sher L, Skobieranda F, Wang L, Kirkesseli S, Rocklin R, Bock B, Hamilton J, Ming JE, Radin A, Stahl N, Yancopoulos GD, Graham N, Pirozzi G. Dupilumab in persistent asthma with elevated eosinophil levels. N Engl J Med. 2013 Jun 27;368(26):2455-66. doi: 10.1056/NEJMoa1304048. Epub 2013 May 21."}]}}, "resultsSection": {"participantFlowModule": {"preAssignmentDetails": "Randomization was stratified according to prior inhaled corticosteroids/long-acting beta2-adrenergic agonist (ICS/LABA) combination therapy dose. Assignment to arms was done centrally using Interactive Voice Response System in 1:1 ratio to receive either Dupilumab 300 mg or Placebo.", "recruitmentDetails": "The study was conducted at 50 sites in the United States. A total of 491 participants were screened between March 2011 and June 2012, of whom 104 were randomized at 28 sites. A total of 387 participants were screen failures mainly due to inclusion criteria for eosinophilic asthma not met.", "groups": [{"id": "FG000", "title": "Placebo (for Dupilumab)", "description": "Placebo (for Dupilumab) subcutaneous (SC) injection once weekly (qw) for 12 weeks added to background therapy of ICS/LABA (Fluticasone/Salmeterol combination therapy at stable dose for 4 weeks followed by Fluticasone monotherapy, dose progressively decreased and discontinued at Week 9). Albuterol or Levalbuterol were given as rescue medication."}, {"id": "FG001", "title": "Dupilumab 300 mg qw", "description": "Dupilumab 300 mg SC injection qw for 12 weeks added to background therapy of ICS/LABA (Fluticasone/Salmeterol combination therapy at stable dose for 4 weeks followed by Fluticasone monotherapy, dose progressively decreased and discontinued at Week 9). Albuterol or Levalbuterol was given as rescue medication."}], "periods": [{"title": "Overall Study", "milestones": [{"type": "STARTED", "achievements": [{"groupId": "FG000", "numSubjects": "52"}, {"groupId": "FG001", "numSubjects": "52"}]}, {"type": "Treated", "achievements": [{"groupId": "FG000", "numSubjects": "52"}, {"groupId": "FG001", "numSubjects": "52"}]}, {"type": "COMPLETED", "achievements": [{"groupId": "FG000", "numSubjects": "35"}, {"groupId": "FG001", "numSubjects": "45"}]}, {"type": "NOT COMPLETED", "achievements": [{"groupId": "FG000", "numSubjects": "17"}, {"groupId": "FG001", "numSubjects": "7"}]}], "dropWithdraws": [{"type": "Adverse Event", "reasons": [{"groupId": "FG000", "numSubjects": "3"}, {"groupId": "FG001", "numSubjects": "3"}]}, {"type": "Lack of Efficacy", "reasons": [{"groupId": "FG000", "numSubjects": "11"}, {"groupId": "FG001", "numSubjects": "1"}]}, {"type": "Poor compliance to protocol", "reasons": [{"groupId": "FG000", "numSubjects": "1"}, {"groupId": "FG001", "numSubjects": "0"}]}, {"type": "Other than specified above", "reasons": [{"groupId": "FG000", "numSubjects": "2"}, {"groupId": "FG001", "numSubjects": "3"}]}]}]}, "baselineCharacteristicsModule": {"populationDescription": "Baseline participants included all randomized participants.", "groups": [{"id": "BG000", "title": "Placebo (for Dupilumab)", "description": "Placebo (for Dupilumab) SC injection qw for 12 weeks added to background therapy of ICS/LABA (Fluticasone/Salmeterol combination therapy at stable dose for 4 weeks followed by Fluticasone monotherapy, dose progressively decreased and discontinued at Week 9). Albuterol or Levalbuterol were given as rescue medication."}, {"id": "BG001", "title": "Dupilumab 300 mg qw", "description": "Dupilumab 300 mg SC injection qw for 12 weeks added to background therapy of ICS/LABA (Fluticasone/Salmeterol combination therapy at stable dose for 4 weeks followed by Fluticasone monotherapy, dose progressively decreased and discontinued at Week 9). Albuterol or Levalbuterol was given as rescue medication."}, {"id": "BG002", "title": "Total", "description": "Total of all reporting groups"}], "denoms": [{"units": "Participants", "counts": [{"groupId": "BG000", "value": "52"}, {"groupId": "BG001", "value": "52"}, {"groupId": "BG002", "value": "104"}]}], "measures": [{"title": "Age, Continuous", "paramType": "MEAN", "dispersionType": "STANDARD_DEVIATION", "unitOfMeasure": "years", "classes": [{"denoms": [{"units": "Participants", "counts": [{"groupId": "BG000", "value": "52"}, {"groupId": "BG001", "value": "52"}, {"groupId": "BG002", "value": "104"}]}], "categories": [{"measurements": [{"groupId": "BG000", "value": "41.6", "spread": "13.1"}, {"groupId": "BG001", "value": "37.8", "spread": "13.2"}, {"groupId": "BG002", "value": "39.7", "spread": "13.2"}]}]}]}, {"title": "Sex: Female, Male", "paramType": "COUNT_OF_PARTICIPANTS", "unitOfMeasure": "Participants", "classes": [{"denoms": [{"units": "Participants", "counts": [{"groupId": "BG000", "value": "52"}, {"groupId": "BG001", "value": "52"}, {"groupId": "BG002", "value": "104"}]}], "categories": [{"title": "Female", "measurements": [{"groupId": "BG000", "value": "26"}, {"groupId": "BG001", "value": "26"}, {"groupId": "BG002", "value": "52"}]}, {"title": "Male", "measurements": [{"groupId": "BG000", "value": "26"}, {"groupId": "BG001", "value": "26"}, {"groupId": "BG002", "value": "52"}]}]}]}, {"title": "Ethnicity (NIH/OMB)", "paramType": "COUNT_OF_PARTICIPANTS", "unitOfMeasure": "Participants", "classes": [{"denoms": [{"units": "Participants", "counts": [{"groupId": "BG000", "value": "52"}, {"groupId": "BG001", "value": "52"}, {"groupId": "BG002", "value": "104"}]}], "categories": [{"title": "Hispanic or Latino", "measurements": [{"groupId": "BG000", "value": "4"}, {"groupId": "BG001", "value": "12"}, {"groupId": "BG002", "value": "16"}]}, {"title": "Not Hispanic or Latino", "measurements": [{"groupId": "BG000", "value": "48"}, {"groupId": "BG001", "value": "40"}, {"groupId": "BG002", "value": "88"}]}, {"title": "Unknown or Not Reported", "measurements": [{"groupId": "BG000", "value": "0"}, {"groupId": "BG001", "value": "0"}, {"groupId": "BG002", "value": "0"}]}]}]}, {"title": "Race", "paramType": "COUNT_OF_PARTICIPANTS", "unitOfMeasure": "Participants", "classes": [{"denoms": [{"units": "Participants", "counts": [{"groupId": "BG000", "value": "52"}, {"groupId": "BG001", "value": "52"}, {"groupId": "BG002", "value": "104"}]}], "categories": [{"title": "Caucasian/White", "measurements": [{"groupId": "BG000", "value": "38"}, {"groupId": "BG001", "value": "45"}, {"groupId": "BG002", "value": "83"}]}, {"title": "Black", "measurements": [{"groupId": "BG000", "value": "9"}, {"groupId": "BG001", "value": "5"}, {"groupId": "BG002", "value": "14"}]}, {"title": "Asian/Oriental", "measurements": [{"groupId": "BG000", "value": "3"}, {"groupId": "BG001", "value": "1"}, {"groupId": "BG002", "value": "4"}]}, {"title": "Other than specified above", "measurements": [{"groupId": "BG000", "value": "2"}, {"groupId": "BG001", "value": "1"}, {"groupId": "BG002", "value": "3"}]}]}]}, {"title": "Prior ICS/LABA Combination Therapy Dose", "description": "High-Dose combination therapy was defined as Fluticasone (\u2265500 \u00b5g) and Salmeterol (50 \u00b5g) twice daily or the equivalent. Medium-dose combination therapy was defined as Fluticasone (250-499 \u00b5g) and Salmeterol (50 \u00b5g) twice daily or the equivalent.", "paramType": "COUNT_OF_PARTICIPANTS", "unitOfMeasure": "Participants", "classes": [{"denoms": [{"units": "Participants", "counts": [{"groupId": "BG000", "value": "52"}, {"groupId": "BG001", "value": "52"}, {"groupId": "BG002", "value": "104"}]}], "categories": [{"title": "High Dose", "measurements": [{"groupId": "BG000", "value": "41"}, {"groupId": "BG001", "value": "42"}, {"groupId": "BG002", "value": "83"}]}, {"title": "Medium Dose", "measurements": [{"groupId": "BG000", "value": "11"}, {"groupId": "BG001", "value": "10"}, {"groupId": "BG002", "value": "21"}]}]}]}, {"title": "Morning Peak Expiratory Flow (PEF)", "description": "PEF is a participant's maximum speed of expiration, as measured with a peak flow meter. Testing for PEF was performed at home while sitting or standing prior to using any medication for asthma.", "populationDescription": "Number of participants analyzed = participants with available data for this baseline measure.", "paramType": "MEAN", "dispersionType": "STANDARD_DEVIATION", "unitOfMeasure": "L/min", "classes": [{"denoms": [{"units": "Participants", "counts": [{"groupId": "BG000", "value": "52"}, {"groupId": "BG001", "value": "51"}, {"groupId": "BG002", "value": "103"}]}], "categories": [{"measurements": [{"groupId": "BG000", "value": "406.87", "spread": "110.74"}, {"groupId": "BG001", "value": "393.04", "spread": "101.13"}, {"groupId": "BG002", "value": "400.02", "spread": "105.80"}]}]}]}, {"title": "Number of Inhalations of Albuterol or Levalbuterol in a 24-hour Period", "description": "Number of Albuterol or Levalbuterol inhalations were recorded daily by the participants in their electronic diary.", "populationDescription": "Number of participants analyzed = participants with available data for this baseline measure.", "paramType": "MEAN", "dispersionType": "STANDARD_DEVIATION", "unitOfMeasure": "number of inhalations", "classes": [{"denoms": [{"units": "Participants", "counts": [{"groupId": "BG000", "value": "52"}, {"groupId": "BG001", "value": "50"}, {"groupId": "BG002", "value": "102"}]}], "categories": [{"measurements": [{"groupId": "BG000", "value": "2.04", "spread": "1.78"}, {"groupId": "BG001", "value": "2.16", "spread": "2.40"}, {"groupId": "BG002", "value": "2.10", "spread": "2.10"}]}]}]}]}, "outcomeMeasuresModule": {"outcomeMeasures": [{"type": "PRIMARY", "title": "Percentage of Participants With Asthma Exacerbation", "description": "An asthma exacerbation was defined as the occurrence of any of the following: \u226530% reduction from baseline in morning PEF on 2 consecutive days; or \u22656 additional reliever puffs of albuterol or levalbuterol in a 24-hour period (compared to baseline) on 2 consecutive days; or deterioration of asthma, as determined by the investigator, requiring systemic steroid treatment, or an increase in inhaled corticosteroid (ICS) of \u22654 times the last dose received prior to discontinuation from the study, or hospitalization. The occurrence of asthma exacerbations by individual criteria are reported.", "populationDescription": "Modified intent-to-treat (mITT) population that included all randomized participants who received at least one dose of study drug. Participants were analysed in the treatment group to which they were randomized.", "reportingStatus": "POSTED", "paramType": "NUMBER", "unitOfMeasure": "percentage of participants", "timeFrame": "Baseline up to Week 12", "groups": [{"id": "OG000", "title": "Placebo (for Dupilumab)", "description": "Placebo (for Dupilumab) SC injection qw for 12 weeks added to background therapy of ICS/LABA (Fluticasone/Salmeterol combination therapy at stable dose for 4 weeks followed by Fluticasone monotherapy, dose progressively decreased and discontinued at Week 9). Albuterol or Levalbuterol was given as rescue medication."}, {"id": "OG001", "title": "Dupilumab 300 mg qw", "description": "Dupilumab 300 mg SC injection qw for 12 weeks added to background therapy of ICS/LABA (Fluticasone/Salmeterol combination therapy at stable dose for 4 weeks followed by Fluticasone monotherapy, dose progressively decreased and discontinued at Week 9). Albuterol or Levalbuterol was given as rescue medication."}], "denoms": [{"units": "Participants", "counts": [{"groupId": "OG000", "value": "52"}, {"groupId": "OG001", "value": "52"}]}], "classes": [{"title": "Asthma exacerbation", "categories": [{"measurements": [{"groupId": "OG000", "value": "44.2"}, {"groupId": "OG001", "value": "5.8"}]}]}, {"title": "\u226530% reduction from baseline in morning PEF", "categories": [{"measurements": [{"groupId": "OG000", "value": "19.2"}, {"groupId": "OG001", "value": "1.9"}]}]}, {"title": "\u22656additional albuterol/levalbuterol puffs", "categories": [{"measurements": [{"groupId": "OG000", "value": "19.2"}, {"groupId": "OG001", "value": "1.9"}]}]}, {"title": "Systemic steroid treatment", "categories": [{"measurements": [{"groupId": "OG000", "value": "9.6"}, {"groupId": "OG001", "value": "1.9"}]}]}, {"title": "Increase in ICS \u22654 times baseline dose of ICS", "categories": [{"measurements": [{"groupId": "OG000", "value": "5.8"}, {"groupId": "OG001", "value": "0.0"}]}]}, {"title": "Hospitalization", "categories": [{"measurements": [{"groupId": "OG000", "value": "0.0"}, {"groupId": "OG001", "value": "0.0"}]}]}], "analyses": [{"groupIds": ["OG000", "OG001"], "groupDescription": "Analysis was performed using a logistic regression model with treatment groups and stratification factor (prior ICS/LABA combination therapy dose) as covariates.", "nonInferiorityType": "SUPERIORITY", "pValue": "<0.0001", "pValueComment": "Threshold for significance at 0.05 level.", "statisticalMethod": "Regression, Logistic", "paramType": "Odds Ratio (OR)", "paramValue": "0.077", "ciPctValue": "95", "ciNumSides": "TWO_SIDED", "ciLowerLimit": "0.021", "ciUpperLimit": "0.280", "estimateComment": "Dupilumab 300 mg vs. Placebo"}]}, {"type": "SECONDARY", "title": "Time to First Asthma Exacerbation: Kaplan-Meier Estimates at Week 4, Week 8 and Week 12", "description": "The time-to-asthma exacerbation was defined as the time from the date of randomization to the date of the first asthma exacerbation event; for participants without asthma exacerbation, it was censored at the end of treatment visit date. The median time to first asthma exacerbation was not estimated because the number of asthma exacerbations was too low in the Dupilumab arm. Therefore, alternative Kaplan-Meier statistics, the probability of asthma exacerbation at Week 4, 8 and 12, are presented as the descriptive measure statistics.", "populationDescription": "mITT population.", "reportingStatus": "POSTED", "paramType": "NUMBER", "dispersionType": "95% Confidence Interval", "unitOfMeasure": "Probability of asthma exacerbation", "timeFrame": "Baseline up to Week 12", "groups": [{"id": "OG000", "title": "Placebo (for Dupilumab)", "description": "Placebo (for Dupilumab) SC injection qw for 12 weeks added to background therapy of ICS/LABA (Fluticasone/Salmeterol combination therapy at stable dose for 4 weeks followed by Fluticasone monotherapy, dose progressively decreased and discontinued at Week 9). Albuterol or Levalbuterol was given as rescue medication."}, {"id": "OG001", "title": "Dupilumab 300 mg qw", "description": "Dupilumab 300 mg SC injection qw for 12 weeks added to background therapy of ICS/LABA (Fluticasone/Salmeterol combination therapy at stable dose for 4 weeks followed by Fluticasone monotherapy, dose progressively decreased and discontinued at Week 9). Albuterol or Levalbuterol was given as rescue medication."}], "denoms": [{"units": "Participants", "counts": [{"groupId": "OG000", "value": "52"}, {"groupId": "OG001", "value": "52"}]}], "classes": [{"title": "Probability at Week 4", "categories": [{"measurements": [{"groupId": "OG000", "value": "0.058", "lowerLimit": "0.000", "upperLimit": "0.122"}, {"groupId": "OG001", "value": "0.038", "lowerLimit": "0.000", "upperLimit": "0.091"}]}]}, {"title": "Probability at Week 8", "categories": [{"measurements": [{"groupId": "OG000", "value": "0.245", "lowerLimit": "0.124", "upperLimit": "0.366"}, {"groupId": "OG001", "value": "0.058", "lowerLimit": "0.000", "upperLimit": "0.121"}]}]}, {"title": "Probability at Week 12", "categories": [{"measurements": [{"groupId": "OG000", "value": "0.460", "lowerLimit": "0.318", "upperLimit": "0.602"}, {"groupId": "OG001", "value": "0.058", "lowerLimit": "0.000", "upperLimit": "0.121"}]}]}]}, {"type": "SECONDARY", "title": "Percentage of Participants With Composite Asthma Events", "description": "Composite asthma event was defined as a 30% or greater reduction from baseline in morning PEF on 2 consecutive days together with 6 or more additional reliever puffs of albuterol or levalbuterol in a 24-hour period (compared to baseline) on 2 consecutive days.", "populationDescription": "mITT population.", "reportingStatus": "POSTED", "paramType": "NUMBER", "unitOfMeasure": "percentage of participants", "timeFrame": "Baseline up to Week 12", "groups": [{"id": "OG000", "title": "Placebo (for Dupilumab)", "description": "Placebo (for Dupilumab) SC injection qw for 12 weeks added to background therapy of ICS/LABA (Fluticasone/Salmeterol combination therapy at stable dose for 4 weeks followed by Fluticasone monotherapy, dose progressively decreased and discontinued at Week 9). Albuterol or Levalbuterol was given as rescue medication."}, {"id": "OG001", "title": "Dupilumab 300 mg qw", "description": "Dupilumab 300 mg SC injection qw for 12 weeks added to background therapy of ICS/LABA (Fluticasone/Salmeterol combination therapy at stable dose for 4 weeks followed by Fluticasone monotherapy, dose progressively decreased and discontinued at Week 9). Albuterol or Levalbuterol was given as rescue medication."}], "denoms": [{"units": "Participants", "counts": [{"groupId": "OG000", "value": "52"}, {"groupId": "OG001", "value": "52"}]}], "classes": [{"categories": [{"measurements": [{"groupId": "OG000", "value": "1.9"}, {"groupId": "OG001", "value": "0"}]}]}]}, {"type": "SECONDARY", "title": "Change From Baseline in Forced Expiratory Flow in One Second (FEV1) to Week 12", "description": "FEV1 is the amount of air which can be forcibly exhaled from the lungs in the first second of a forced exhalation.", "populationDescription": "mITT population. Number of participants analyzed = participants with at least one post-baseline assessment.", "reportingStatus": "POSTED", "paramType": "MEAN", "dispersionType": "Standard Deviation", "unitOfMeasure": "Liters", "timeFrame": "Baseline, Week 12", "groups": [{"id": "OG000", "title": "Placebo", "description": "Placebo (for Dupilumab) SC injection qw for 12 weeks added to background therapy of ICS/LABA (Fluticasone/Salmeterol combination therapy at stable dose for 4 weeks followed by Fluticasone monotherapy, dose progressively decreased and discontinued at Week 9). Albuterol or Levalbuterol was given as rescue medication."}, {"id": "OG001", "title": "Dupilumab 300 mg qw", "description": "Dupilumab 300 mg SC injection qw for 12 weeks added to background therapy of ICS/LABA (Fluticasone/Salmeterol combination therapy at stable dose for 4 weeks followed by Fluticasone monotherapy, dose progressively decreased and discontinued at Week 9). Albuterol or Levalbuterol was given as rescue medication."}], "denoms": [{"units": "Participants", "counts": [{"groupId": "OG000", "value": "36"}, {"groupId": "OG001", "value": "45"}]}], "classes": [{"categories": [{"measurements": [{"groupId": "OG000", "value": "-0.12", "spread": "0.35"}, {"groupId": "OG001", "value": "0.06", "spread": "0.32"}]}]}]}, {"type": "SECONDARY", "title": "Change From Baseline in Peak Expiratory Flow (PEF) to Week 12", "description": "The PEF is a participant's maximum speed of expiration, as measured with a peak flow meter. Peak flow testing for PEF was performed at home (morning and evening) while sitting or standing prior to using any medication (if needed) for asthma.", "populationDescription": "mITT population. Number analyzed = participants with at least one post-baseline assessment for each category.", "reportingStatus": "POSTED", "paramType": "MEAN", "dispersionType": "Standard Deviation", "unitOfMeasure": "liters/minute", "timeFrame": "Baseline, Week 12", "groups": [{"id": "OG000", "title": "Placebo (for Dupilumab)", "description": "Placebo (for Dupilumab) SC injection qw for 12 weeks added to background therapy of ICS/LABA (Fluticasone/Salmeterol combination therapy at stable dose for 4 weeks followed by Fluticasone monotherapy, dose progressively decreased and discontinued at Week 9). Albuterol or Levalbuterol was given as rescue medication."}, {"id": "OG001", "title": "Dupilumab 300 mg qw", "description": "Dupilumab 300 mg SC injection qw for 12 weeks added to background therapy of ICS/LABA (Fluticasone/Salmeterol combination therapy at stable dose for 4 weeks followed by Fluticasone monotherapy, dose progressively decreased and discontinued at Week 9). Albuterol or Levalbuterol was given as rescue medication."}], "denoms": [{"units": "Participants", "counts": [{"groupId": "OG000", "value": "52"}, {"groupId": "OG001", "value": "52"}]}], "classes": [{"title": "Change in morning PEF", "denoms": [{"units": "Participants", "counts": [{"groupId": "OG000", "value": "36"}, {"groupId": "OG001", "value": "44"}]}], "categories": [{"measurements": [{"groupId": "OG000", "value": "-11.2", "spread": "66.1"}, {"groupId": "OG001", "value": "10.6", "spread": "48.5"}]}]}, {"title": "Change in evening PEF", "denoms": [{"units": "Participants", "counts": [{"groupId": "OG000", "value": "35"}, {"groupId": "OG001", "value": "45"}]}], "categories": [{"measurements": [{"groupId": "OG000", "value": "-15.6", "spread": "70.7"}, {"groupId": "OG001", "value": "-3.4", "spread": "49.3"}]}]}]}, {"type": "SECONDARY", "title": "Change From Baseline in Asthma Control Questionnaire (5-question Version [ACQ-5]) to Week 12", "description": "ACQ-5 questionnaire is a validated questionnaire comprising of 5 questions for asthma symptoms: woken at night by symptoms, wake in the mornings with symptoms, limitation of daily activities, shortness of breath, and wheeze. Participants were asked to rate their asthma symptoms during the previous week on a 7-point scale as 0=no impairment, 6=maximum impairment. ACQ-5 score is the mean of the 5 questions and range between 0 (disease totally controlled) and 6 (disease severely uncontrolled), a higher score indicated lower asthma control.", "populationDescription": "mITT population. Number of participants analyzed = participants with at least one post-baseline assessment.", "reportingStatus": "POSTED", "paramType": "MEAN", "dispersionType": "Standard Deviation", "unitOfMeasure": "units on a scale", "timeFrame": "Baseline, Week 12", "groups": [{"id": "OG000", "title": "Placebo (for Dupilumab)", "description": "Placebo (for Dupilumab) SC injection qw for 12 weeks added to background therapy of ICS/LABA (Fluticasone/Salmeterol combination therapy at stable dose for 4 weeks followed by Fluticasone monotherapy, dose progressively decreased and discontinued at Week 9). Albuterol or Levalbuterol was given as rescue medication."}, {"id": "OG001", "title": "Dupilumab 300 mg qw", "description": "Dupilumab 300 mg SC injection qw for 12 weeks added to background therapy of ICS/LABA (Fluticasone/Salmeterol combination therapy at stable dose for 4 weeks followed by Fluticasone monotherapy, dose progressively decreased and discontinued at Week 9). Albuterol or Levalbuterol was given as rescue medication."}], "denoms": [{"units": "Participants", "counts": [{"groupId": "OG000", "value": "36"}, {"groupId": "OG001", "value": "44"}]}], "classes": [{"categories": [{"measurements": [{"groupId": "OG000", "value": "-0.50", "spread": "1.12"}, {"groupId": "OG001", "value": "-1.07", "spread": "0.94"}]}]}]}, {"type": "SECONDARY", "title": "Change From Baseline in 22-item Sinonasal Outcome Test (SNOT-22) Score to Week 12", "description": "The SNOT-22 is a validated measure of health related quality of life in sinonasal disease. It is a 22 item questionnaire with each item assigned a score ranging from 0-5. The total score may range from 0 (no disease) -110 (worst disease), lower scores represent better health related quality of life.", "populationDescription": "mITT population. Number of participants analyzed = participants with at least one post-baseline assessment.", "reportingStatus": "POSTED", "paramType": "MEAN", "dispersionType": "Standard Deviation", "unitOfMeasure": "units on a scale", "timeFrame": "Baseline, Week 12", "groups": [{"id": "OG000", "title": "Placebo (for Dupilumab)", "description": "Placebo (for Dupilumab) SC injection qw for 12 weeks added to background therapy of ICS/LABA (Fluticasone/Salmeterol combination therapy at stable dose for 4 weeks followed by Fluticasone monotherapy, dose progressively decreased and discontinued at Week 9). Albuterol or Levalbuterol was given as rescue medication."}, {"id": "OG001", "title": "Dupilumab 300 mg qw", "description": "Dupilumab 300 mg SC injection qw for 12 weeks added to background therapy of ICS/LABA (Fluticasone/Salmeterol combination therapy at stable dose for 4 weeks followed by Fluticasone monotherapy, dose progressively decreased and discontinued at Week 9). Albuterol or Levalbuterol was given as rescue medication."}], "denoms": [{"units": "Participants", "counts": [{"groupId": "OG000", "value": "51"}, {"groupId": "OG001", "value": "50"}]}], "classes": [{"categories": [{"measurements": [{"groupId": "OG000", "value": "1.27", "spread": "15.85"}, {"groupId": "OG001", "value": "-9.17", "spread": "15.40"}]}]}]}, {"type": "SECONDARY", "title": "Change From Baseline in Morning Asthma Symptom Scores to Week 12", "description": "AM (ante meridiem) symptom scoring system rates were participant's overall asthma symptoms experienced during the night. It ranges from 0 to 4 as: 0 = No asthma symptoms, slept through the night, 1= Slept well, but some complaints in the morning. No nighttime awakenings,2= Woke up once because of asthma (including early awakening),3= Woke up several times because of asthma (including early awakening), 4= Bad night, awake most of the night because of asthma.", "populationDescription": "mITT population. Number of participants analyzed = participants with at least one post-baseline assessment.", "reportingStatus": "POSTED", "paramType": "MEAN", "dispersionType": "Standard Deviation", "unitOfMeasure": "units on a scale", "timeFrame": "Baseline, Week 12", "groups": [{"id": "OG000", "title": "Placebo (for Dupilumab)", "description": "Placebo (for Dupilumab) SC injection qw for 12 weeks added to background therapy of ICS/LABA (Fluticasone/Salmeterol combination therapy at stable dose for 4 weeks followed by Fluticasone monotherapy, dose progressively decreased and discontinued at Week 9). Albuterol or Levalbuterol was given as rescue medication."}, {"id": "OG001", "title": "Dupilumab 300 mg qw", "description": "Dupilumab 300 mg SC injection qw for 12 weeks added to background therapy of ICS/LABA (Fluticasone/Salmeterol combination therapy at stable dose for 4 weeks followed by Fluticasone monotherapy, dose progressively decreased and discontinued at Week 9). Albuterol or Levalbuterol was given as rescue medication."}], "denoms": [{"units": "Participants", "counts": [{"groupId": "OG000", "value": "36"}, {"groupId": "OG001", "value": "45"}]}], "classes": [{"categories": [{"measurements": [{"groupId": "OG000", "value": "0.3", "spread": "0.7"}, {"groupId": "OG001", "value": "-0.4", "spread": "0.7"}]}]}]}, {"type": "SECONDARY", "title": "Change From Baseline in Evening Asthma Symptom Scores to Week 12", "description": "PM (post meridiem) symptom scoring system rates were participant's overall asthma symptoms experienced during the day. It ranges from 0 to 4 as: 0=very well, no asthma symptoms, 1=one episode of wheezing, cough, or breathlessness, 2=more than one episode of wheezing, cough, or breathlessness without interference of normal activities, 3=wheezing, cough, or breathlessness most of the day, which interfered to some extent with normal activities, 4=asthma very bad, unable to carry out daily activities as usual.", "populationDescription": "mITT population. Number of participants analyzed = participants with at least one post-baseline assessment.", "reportingStatus": "POSTED", "paramType": "MEAN", "dispersionType": "Standard Deviation", "unitOfMeasure": "units on a scale", "timeFrame": "Baseline, Week 12", "groups": [{"id": "OG000", "title": "Placebo (for Dupilumab)", "description": "Placebo (for Dupilumab) SC injection qw for 12 weeks added to background therapy of ICS/LABA (Fluticasone/Salmeterol combination therapy at stable dose for 4 weeks followed by Fluticasone monotherapy, dose progressively decreased and discontinued at Week 9). Albuterol or Levalbuterol was given as rescue medication."}, {"id": "OG001", "title": "Dupilumab 300 mg qw", "description": "Dupilumab 300 mg SC injection qw for 12 weeks added to background therapy of ICS/LABA (Fluticasone/Salmeterol combination therapy at stable dose for 4 weeks followed by Fluticasone monotherapy, dose progressively decreased and discontinued at Week 9). Albuterol or Levalbuterol was given as rescue medication."}], "denoms": [{"units": "Participants", "counts": [{"groupId": "OG000", "value": "36"}, {"groupId": "OG001", "value": "45"}]}], "classes": [{"categories": [{"measurements": [{"groupId": "OG000", "value": "0.1", "spread": "0.9"}, {"groupId": "OG001", "value": "-0.5", "spread": "0.6"}]}]}]}, {"type": "SECONDARY", "title": "Change From Baseline in Number of Nocturnal Awakenings Per Day to Week 12", "description": "Participants recorded every morning on awakening the number of asthma-related nocturnal awakenings requiring use of rescue medication that occurred during the previous night.", "populationDescription": "mITT population. Number of participants analyzed = participants with at least one post-baseline assessment.", "reportingStatus": "POSTED", "paramType": "MEAN", "dispersionType": "Standard Deviation", "unitOfMeasure": "number of awakenings/day", "timeFrame": "Baseline, Week 12", "groups": [{"id": "OG000", "title": "Placebo (for Dupilumab)", "description": "Placebo (for Dupilumab) SC injection qw for 12 weeks added to background therapy of ICS/LABA (Fluticasone/Salmeterol combination therapy at stable dose for 4 weeks followed by Fluticasone monotherapy, dose progressively decreased and discontinued at Week 9). Albuterol or Levalbuterol was given as rescue medication."}, {"id": "OG001", "title": "Dupilumab 300 mg qw", "description": "Dupilumab 300 mg SC injection qw for 12 weeks added to background therapy of ICS/LABA (Fluticasone/Salmeterol combination therapy at stable dose for 4 weeks followed by Fluticasone monotherapy, dose progressively decreased and discontinued at Week 9). Albuterol or Levalbuterol was given as rescue medication."}], "denoms": [{"units": "Participants", "counts": [{"groupId": "OG000", "value": "36"}, {"groupId": "OG001", "value": "45"}]}], "classes": [{"categories": [{"measurements": [{"groupId": "OG000", "value": "0.1", "spread": "0.7"}, {"groupId": "OG001", "value": "-0.3", "spread": "0.7"}]}]}]}, {"type": "SECONDARY", "title": "Change From Baseline in Number of Inhalations Per Day of Albuterol or Levalbuterol to Week 12", "description": "Number of Albuterol or Levalbuterol inhalations were recorded daily by the participants in their electronic diary as Albuterol or Levalbuterol was to be used only as needed for symptoms, not on a regular basis or prophylactically.", "populationDescription": "mITT population. Number of participants analyzed = participants with at least one post-baseline assessment.", "reportingStatus": "POSTED", "paramType": "MEAN", "dispersionType": "Standard Deviation", "unitOfMeasure": "number of inhalations/day", "timeFrame": "Baseline, Week 12", "groups": [{"id": "OG000", "title": "Placebo (for Dupilumab)", "description": "Placebo (for Dupilumab) SC injection qw for 12 weeks added to background therapy of ICS/LABA (Fluticasone/Salmeterol combination therapy at stable dose for 4 weeks followed by Fluticasone monotherapy, dose progressively decreased and discontinued at Week 9). Albuterol or Levalbuterol was given as rescue medication."}, {"id": "OG001", "title": "Dupilumab 300 mg qw", "description": "Dupilumab 300 mg SC injection qw for 12 weeks added to background therapy of ICS/LABA (Fluticasone/Salmeterol combination therapy at stable dose for 4 weeks followed by Fluticasone monotherapy, dose progressively decreased and discontinued at Week 9). Albuterol or Levalbuterol was given as rescue medication."}], "denoms": [{"units": "Participants", "counts": [{"groupId": "OG000", "value": "36"}, {"groupId": "OG001", "value": "44"}]}], "classes": [{"categories": [{"measurements": [{"groupId": "OG000", "value": "0.4", "spread": "2.4"}, {"groupId": "OG001", "value": "-1.3", "spread": "1.7"}]}]}]}]}, "adverseEventsModule": {"frequencyThreshold": "5", "timeFrame": "All Adverse Events (AEs) were collected from signature of the informed consent form up to the final visit (Week 20) regardless of seriousness or relationship to investigational product.", "description": "Reported AEs and deaths are treatment emergent AEs that developed/worsened and deaths that occurred during the 'on treatment period' (time from first dose of investigatory medicinal product (IMP) up to the end of the follow-up period \\[i.e. up to 7 weeks after the last dose of IMP\\]).", "eventGroups": [{"id": "EG000", "title": "Placebo (for Dupilumab)", "description": "Participants exposed to Placebo (for Dupilumab) SC injection qw for 12 weeks added to background therapy of ICS/LABA (mean exposure of 11 weeks).", "deathsNumAffected": 0, "deathsNumAtRisk": 52, "seriousNumAffected": 3, "seriousNumAtRisk": 52, "otherNumAffected": 24, "otherNumAtRisk": 52}, {"id": "EG001", "title": "Dupilumab 300 mg qw", "description": "Participants exposed to Dupilumab 300 mg SC injection qw for 12 weeks added to background therapy of ICS/LABA (mean exposure of 11 weeks).", "deathsNumAffected": 0, "deathsNumAtRisk": 52, "seriousNumAffected": 1, "seriousNumAtRisk": 52, "otherNumAffected": 33, "otherNumAtRisk": 52}], "seriousEvents": [{"term": "Pneumonia", "organSystem": "Infections and infestations", "sourceVocabulary": "MedDRA 15.1", "assessmentType": "SYSTEMATIC_ASSESSMENT", "stats": [{"groupId": "EG000", "numAffected": 1, "numAtRisk": 52}, {"groupId": "EG001", "numAffected": 0, "numAtRisk": 52}]}, {"term": "Bipolar disorder", "organSystem": "Psychiatric disorders", "sourceVocabulary": "MedDRA 15.1", "assessmentType": "SYSTEMATIC_ASSESSMENT", "stats": [{"groupId": "EG000", "numAffected": 0, "numAtRisk": 52}, {"groupId": "EG001", "numAffected": 1, "numAtRisk": 52}]}, {"term": "Asthma", "organSystem": "Respiratory, thoracic and mediastinal disorders", "sourceVocabulary": "MedDRA 15.1", "assessmentType": "SYSTEMATIC_ASSESSMENT", "stats": [{"groupId": "EG000", "numAffected": 1, "numAtRisk": 52}, {"groupId": "EG001", "numAffected": 0, "numAtRisk": 52}]}, {"term": "Pneumothorax", "organSystem": "Respiratory, thoracic and mediastinal disorders", "sourceVocabulary": "MedDRA 15.1", "assessmentType": "SYSTEMATIC_ASSESSMENT", "stats": [{"groupId": "EG000", "numAffected": 1, "numAtRisk": 52}, {"groupId": "EG001", "numAffected": 0, "numAtRisk": 52}]}, {"term": "Ankle fracture", "organSystem": "Injury, poisoning and procedural complications", "sourceVocabulary": "MedDRA 15.1", "assessmentType": "SYSTEMATIC_ASSESSMENT", "stats": [{"groupId": "EG000", "numAffected": 1, "numAtRisk": 52}, {"groupId": "EG001", "numAffected": 0, "numAtRisk": 52}]}, {"term": "Gun shot wound", "organSystem": "Injury, poisoning and procedural complications", "sourceVocabulary": "MedDRA 15.1", "assessmentType": "SYSTEMATIC_ASSESSMENT", "stats": [{"groupId": "EG000", "numAffected": 1, "numAtRisk": 52}, {"groupId": "EG001", "numAffected": 0, "numAtRisk": 52}]}], "otherEvents": [{"term": "Gastroenteritis viral", "organSystem": "Infections and infestations", "sourceVocabulary": "MedDRA 15.1", "assessmentType": "SYSTEMATIC_ASSESSMENT", "stats": [{"groupId": "EG000", "numAffected": 3, "numAtRisk": 52}, {"groupId": "EG001", "numAffected": 0, "numAtRisk": 52}]}, {"term": "Nasopharyngitis", "organSystem": "Infections and infestations", "sourceVocabulary": "MedDRA 15.1", "assessmentType": "SYSTEMATIC_ASSESSMENT", "stats": [{"groupId": "EG000", "numAffected": 2, "numAtRisk": 52}, {"groupId": "EG001", "numAffected": 7, "numAtRisk": 52}]}, {"term": "Sinusitis", "organSystem": "Infections and infestations", "sourceVocabulary": "MedDRA 15.1", "assessmentType": "SYSTEMATIC_ASSESSMENT", "stats": [{"groupId": "EG000", "numAffected": 5, "numAtRisk": 52}, {"groupId": "EG001", "numAffected": 1, "numAtRisk": 52}]}, {"term": "Upper respiratory tract infection", "organSystem": "Infections and infestations", "sourceVocabulary": "MedDRA 15.1", "assessmentType": "SYSTEMATIC_ASSESSMENT", "stats": [{"groupId": "EG000", "numAffected": 9, "numAtRisk": 52}, {"groupId": "EG001", "numAffected": 7, "numAtRisk": 52}]}, {"term": "Viral upper respiratory tract infection", "organSystem": "Infections and infestations", "sourceVocabulary": "MedDRA 15.1", "assessmentType": "SYSTEMATIC_ASSESSMENT", "stats": [{"groupId": "EG000", "numAffected": 0, "numAtRisk": 52}, {"groupId": "EG001", "numAffected": 3, "numAtRisk": 52}]}, {"term": "Headache", "organSystem": "Nervous system disorders", "sourceVocabulary": "MedDRA 15.1", "assessmentType": "SYSTEMATIC_ASSESSMENT", "stats": [{"groupId": "EG000", "numAffected": 3, "numAtRisk": 52}, {"groupId": "EG001", "numAffected": 6, "numAtRisk": 52}]}, {"term": "Nasal congestion", "organSystem": "Respiratory, thoracic and mediastinal disorders", "sourceVocabulary": "MedDRA 15.1", "assessmentType": "SYSTEMATIC_ASSESSMENT", "stats": [{"groupId": "EG000", "numAffected": 1, "numAtRisk": 52}, {"groupId": "EG001", "numAffected": 3, "numAtRisk": 52}]}, {"term": "Rhinitis seasonal", "organSystem": "Respiratory, thoracic and mediastinal disorders", "sourceVocabulary": "MedDRA 15.1", "assessmentType": "SYSTEMATIC_ASSESSMENT", "stats": [{"groupId": "EG000", "numAffected": 3, "numAtRisk": 52}, {"groupId": "EG001", "numAffected": 0, "numAtRisk": 52}]}, {"term": "Nausea", "organSystem": "Gastrointestinal disorders", "sourceVocabulary": "MedDRA 15.1", "assessmentType": "SYSTEMATIC_ASSESSMENT", "stats": [{"groupId": "EG000", "numAffected": 1, "numAtRisk": 52}, {"groupId": "EG001", "numAffected": 4, "numAtRisk": 52}]}, {"term": "Rash", "organSystem": "Skin and subcutaneous tissue disorders", "sourceVocabulary": "MedDRA 15.1", "assessmentType": "SYSTEMATIC_ASSESSMENT", "stats": [{"groupId": "EG000", "numAffected": 1, "numAtRisk": 52}, {"groupId": "EG001", "numAffected": 3, "numAtRisk": 52}]}, {"term": "Urticaria", "organSystem": "Skin and subcutaneous tissue disorders", "sourceVocabulary": "MedDRA 15.1", "assessmentType": "SYSTEMATIC_ASSESSMENT", "stats": [{"groupId": "EG000", "numAffected": 0, "numAtRisk": 52}, {"groupId": "EG001", "numAffected": 3, "numAtRisk": 52}]}, {"term": "Muscle spasms", "organSystem": "Musculoskeletal and connective tissue disorders", "sourceVocabulary": "MedDRA 15.1", "assessmentType": "SYSTEMATIC_ASSESSMENT", "stats": [{"groupId": "EG000", "numAffected": 0, "numAtRisk": 52}, {"groupId": "EG001", "numAffected": 3, "numAtRisk": 52}]}, {"term": "Injection site erythema", "organSystem": "General disorders", "sourceVocabulary": "MedDRA 15.1", "assessmentType": "SYSTEMATIC_ASSESSMENT", "stats": [{"groupId": "EG000", "numAffected": 0, "numAtRisk": 52}, {"groupId": "EG001", "numAffected": 3, "numAtRisk": 52}]}, {"term": "Injection site pain", "organSystem": "General disorders", "sourceVocabulary": "MedDRA 15.1", "assessmentType": "SYSTEMATIC_ASSESSMENT", "stats": [{"groupId": "EG000", "numAffected": 3, "numAtRisk": 52}, {"groupId": "EG001", "numAffected": 5, "numAtRisk": 52}]}, {"term": "Injection site rash", "organSystem": "General disorders", "sourceVocabulary": "MedDRA 15.1", "assessmentType": "SYSTEMATIC_ASSESSMENT", "stats": [{"groupId": "EG000", "numAffected": 0, "numAtRisk": 52}, {"groupId": "EG001", "numAffected": 3, "numAtRisk": 52}]}, {"term": "Injection site reaction", "organSystem": "General disorders", "sourceVocabulary": "MedDRA 15.1", "assessmentType": "SYSTEMATIC_ASSESSMENT", "stats": [{"groupId": "EG000", "numAffected": 0, "numAtRisk": 52}, {"groupId": "EG001", "numAffected": 5, "numAtRisk": 52}]}, {"term": "Arthropod bite", "organSystem": "Injury, poisoning and procedural complications", "sourceVocabulary": "MedDRA 15.1", "assessmentType": "SYSTEMATIC_ASSESSMENT", "stats": [{"groupId": "EG000", "numAffected": 0, "numAtRisk": 52}, {"groupId": "EG001", "numAffected": 3, "numAtRisk": 52}]}]}, "moreInfoModule": {"certainAgreement": {"piSponsorEmployee": false, "restrictionType": "OTHER", "restrictiveAgreement": true, "otherDetails": "If no publication has occurred within 12 months of the completion of the study, the Investigator shall have the right to publish/present independently the results of the study. The Investigator shall provide the Sponsor with a copy of any such presentation/publication for comment at least 30 days before any presentation/submission for publication. If requested by the Sponsor, any presentation/submission shall be delayed up to 90 days, to allow the Sponsor to preserve its proprietary rights."}, "pointOfContact": {"title": "Trial Transparency Team", "organization": "Sanofi", "email": "Contact-US@sanofi.com"}}}, "derivedSection": {"miscInfoModule": {"versionHolder": "2024-06-24"}, "conditionBrowseModule": {"meshes": [{"id": "D000001249", "term": "Asthma"}, {"id": "D000011657", "term": "Pulmonary Eosinophilia"}], "ancestors": [{"id": "D000001982", "term": "Bronchial Diseases"}, {"id": "D000012140", "term": "Respiratory Tract Diseases"}, {"id": "D000008173", "term": "Lung Diseases, Obstructive"}, {"id": "D000008171", "term": "Lung Diseases"}, {"id": "D000012130", "term": "Respiratory Hypersensitivity"}, {"id": "D000006969", "term": "Hypersensitivity, Immediate"}, {"id": "D000006967", "term": "Hypersensitivity"}, {"id": "D000007154", "term": "Immune System Diseases"}, {"id": "D000017681", "term": "Hypereosinophilic Syndrome"}, {"id": "D000004802", "term": "Eosinophilia"}, {"id": "D000007960", "term": "Leukocyte Disorders"}, {"id": "D000006402", "term": "Hematologic Diseases"}], "browseLeaves": [{"id": "M27137", "name": "Respiratory Aspiration", "relevance": "LOW"}, {"id": "M4556", "name": "Asthma", "asFound": "Asthma", "relevance": "HIGH"}, {"id": "M14511", "name": "Pulmonary Eosinophilia", "asFound": "Eosinophilic Asthma", "relevance": "HIGH"}, {"id": "M7961", "name": "Eosinophilia", "relevance": "LOW"}, {"id": "M5258", "name": "Bronchial Diseases", "relevance": "LOW"}, {"id": "M14977", "name": "Respiratory Tract Diseases", "relevance": "LOW"}, {"id": "M11168", "name": "Lung Diseases", "relevance": "LOW"}, {"id": "M11170", "name": "Lung Diseases, Obstructive", "relevance": "LOW"}, {"id": "M10018", "name": "Hypersensitivity", "relevance": "LOW"}, {"id": "M14967", "name": "Respiratory Hypersensitivity", "relevance": "LOW"}, {"id": "M10020", "name": "Hypersensitivity, Immediate", "relevance": "LOW"}, {"id": "M10200", "name": "Immune System Diseases", "relevance": "LOW"}, {"id": "M16355", "name": "Syndrome", "relevance": "LOW"}, {"id": "M19901", "name": "Hypereosinophilic Syndrome", "relevance": "LOW"}, {"id": "M10963", "name": "Leukocyte Disorders", "relevance": "LOW"}, {"id": "M9490", "name": "Hematologic Diseases", "relevance": "LOW"}, {"id": "T2886", "name": "Hypereosinophilic Syndrome", "relevance": "LOW"}], "browseBranches": [{"abbrev": "BC08", "name": "Respiratory Tract (Lung and Bronchial) Diseases"}, {"abbrev": "BC23", "name": "Symptoms and General Pathology"}, {"abbrev": "All", "name": "All Conditions"}, {"abbrev": "BC20", "name": "Immune System Diseases"}, {"abbrev": "BC15", "name": "Blood and Lymph Conditions"}, {"abbrev": "Rare", "name": "Rare Diseases"}]}, "interventionBrowseModule": {"meshes": [{"id": "D000068298", "term": "Fluticasone"}, {"id": "C000716389", "term": "Xhance"}, {"id": "D000000420", "term": "Albuterol"}, {"id": "D000068299", "term": "Salmeterol Xinafoate"}, {"id": "D000068297", "term": "Fluticasone-Salmeterol Drug Combination"}, {"id": "D000000911", "term": "Antibodies, Monoclonal"}], "ancestors": [{"id": "D000000893", "term": "Anti-Inflammatory Agents"}, {"id": "D000001993", "term": "Bronchodilator Agents"}, {"id": "D000001337", "term": "Autonomic Agents"}, {"id": "D000018373", "term": "Peripheral Nervous System Agents"}, {"id": "D000045505", "term": "Physiological Effects of Drugs"}, {"id": "D000018927", "term": "Anti-Asthmatic Agents"}, {"id": "D000019141", "term": "Respiratory System Agents"}, {"id": "D000003879", "term": "Dermatologic Agents"}, {"id": "D000018926", "term": "Anti-Allergic Agents"}, {"id": "D000058666", "term": "Adrenergic beta-2 Receptor Agonists"}, {"id": "D000000318", "term": "Adrenergic beta-Agonists"}, {"id": "D000000322", "term": "Adrenergic Agonists"}, {"id": "D000018663", "term": "Adrenergic Agents"}, {"id": "D000018377", "term": "Neurotransmitter Agents"}, {"id": "D000045504", "term": "Molecular Mechanisms of Pharmacological Action"}, {"id": "D000015149", "term": "Tocolytic Agents"}, {"id": "D000012102", "term": "Reproductive Control Agents"}, {"id": "D000007155", "term": "Immunologic Factors"}, {"id": "D000005938", "term": "Glucocorticoids"}, {"id": "D000006728", "term": "Hormones"}, {"id": "D000006730", "term": "Hormones, Hormone Substitutes, and Hormone Antagonists"}, {"id": "D000013566", "term": "Sympathomimetics"}], "browseLeaves": [{"id": "M3767", "name": "Albuterol", "asFound": "Diameter", "relevance": "HIGH"}, {"id": "M21860", "name": "Pharmaceutical Solutions", "relevance": "LOW"}, {"id": "M250", "name": "Fluticasone", "asFound": "Pembrolizumab", "relevance": "HIGH"}, {"id": "M353494", "name": "Xhance", "asFound": "Pembrolizumab", "relevance": "HIGH"}, {"id": "M20746", "name": "Adrenergic Agents", "relevance": "LOW"}, {"id": "M251", "name": "Salmeterol Xinafoate", "asFound": "Metabolism", "relevance": "HIGH"}, {"id": "M3673", "name": "Adrenergic Agonists", "relevance": "LOW"}, {"id": "M249", "name": "Fluticasone-Salmeterol Drug Combination", "asFound": "Blood culture", "relevance": "HIGH"}, {"id": "M10184", "name": "Immunoglobulins", "relevance": "LOW"}, {"id": "M4225", "name": "Antibodies", "relevance": "LOW"}, {"id": "M4230", "name": "Antibodies, Monoclonal", "asFound": "IOL", "relevance": "HIGH"}, {"id": "M4217", "name": "Anti-Inflammatory Agents", "relevance": "LOW"}, {"id": "M5269", "name": "Bronchodilator Agents", "relevance": "LOW"}, {"id": "M20963", "name": "Anti-Asthmatic Agents", "relevance": "LOW"}, {"id": "M21137", "name": "Respiratory System Agents", "relevance": "LOW"}, {"id": "M7074", "name": "Dermatologic Agents", "relevance": "LOW"}, {"id": "M20962", "name": "Anti-Allergic Agents", "relevance": "LOW"}, {"id": "M3670", "name": "Adrenergic beta-Agonists", "relevance": "LOW"}, {"id": "M20504", "name": "Neurotransmitter Agents", "relevance": "LOW"}, {"id": "M17869", "name": "Tocolytic Agents", "relevance": "LOW"}, {"id": "M10201", "name": "Immunologic Factors", "relevance": "LOW"}, {"id": "M9047", "name": "Glucocorticoids", "relevance": "LOW"}, {"id": "M9789", "name": "Hormones", "relevance": "LOW"}, {"id": "M9788", "name": "Hormone Antagonists", "relevance": "LOW"}, {"id": "M16345", "name": "Sympathomimetics", "relevance": "LOW"}], "browseBranches": [{"abbrev": "Repr", "name": "Reproductive Control Agents"}, {"abbrev": "Resp", "name": "Respiratory System Agents"}, {"abbrev": "All", "name": "All Drugs and Chemicals"}, {"abbrev": "PhSol", "name": "Pharmaceutical Solutions"}, {"abbrev": "AAll", "name": "Anti-Allergic Agents"}, {"abbrev": "Infl", "name": "Anti-Inflammatory Agents"}, {"abbrev": "Derm", "name": "Dermatologic Agents"}]}}, "hasResults": true}