{"protocolSection": {"identificationModule": {"nctId": "NCT03015259", "orgStudyIdInfo": {"id": "CSP-07-000034"}, "organization": {"fullName": "Kindeva Drug Delivery", "class": "INDUSTRY"}, "briefTitle": "Randomized, Placebo-controlled, Multi-dose, Study Comparing Budesonide/Formoterol to Symbicort\u00ae in Asthmatic Patients", "officialTitle": "Randomized, Single Blind, Parallel Group, Placebo Controlled, Multidose Study Comparing the Therapeutic Equivalence of a 3M Budesonide/Formoterol Fumarate Inhaler and a Symbicort\u00ae Reference Inhaler in Adult Subjects With Asthma"}, "statusModule": {"statusVerifiedDate": "2022-05", "overallStatus": "COMPLETED", "expandedAccessInfo": {"hasExpandedAccess": false}, "startDateStruct": {"date": "2016-12-29", "type": "ACTUAL"}, "primaryCompletionDateStruct": {"date": "2018-02-08", "type": "ACTUAL"}, "completionDateStruct": {"date": "2018-02-08", "type": "ACTUAL"}, "studyFirstSubmitDate": "2017-01-06", "studyFirstSubmitQcDate": "2017-01-06", "studyFirstPostDateStruct": {"date": "2017-01-10", "type": "ESTIMATED"}, "resultsFirstSubmitDate": "2022-06-13", "resultsFirstSubmitQcDate": "2022-08-01", "resultsFirstPostDateStruct": {"date": "2022-08-24", "type": "ACTUAL"}, "dispFirstSubmitDate": "2018-12-13", "dispFirstSubmitQcDate": "2018-12-13", "dispFirstPostDateStruct": {"date": "2018-12-17", "type": "ACTUAL"}, "lastUpdateSubmitDate": "2022-08-01", "lastUpdatePostDateStruct": {"date": "2022-08-24", "type": "ACTUAL"}}, "sponsorCollaboratorsModule": {"responsibleParty": {"type": "SPONSOR"}, "leadSponsor": {"name": "Kindeva Drug Delivery", "class": "INDUSTRY"}}, "oversightModule": {"oversightHasDmc": false, "isFdaRegulatedDrug": true, "isFdaRegulatedDevice": false, "isUsExport": false}, "descriptionModule": {"briefSummary": "A randomized multiple-dose, placebo-controlled, parallel group design consisting of a 2-week run-in period followed by a 6-week treatment period of the placebo, Test product (Budesonide 80 mcg / Formoterol fumarate dihydrate 4.5 mcg), or Reference product Symbicort\u00ae inhalation aerosol.", "detailedDescription": "This is a pivotal trial that will examine therapeutic equivalence of a new generic fixed-dose combination product containing Budesonide 80 mcg / Formoterol fumarate dihydrate 4.5 mcg and reference listed drug (RLD) Symbicort\u00ae inhalation aerosol in adult patients with chronic but stable asthma as defined in National Asthma Education and Prevention Program Expert Panel Report 3 (NAEPP 3) guidelines. To ensure adequate study sensitivity the test and reference products should both be statistically superior to placebo (p\\<0.05) with regard to the bioequivalent study primary endpoints.\n\nA secondary study objective is the safety and tolerability of the test compound."}, "conditionsModule": {"conditions": ["Asthma"], "keywords": ["bioequivalence"]}, "designModule": {"studyType": "INTERVENTIONAL", "phases": ["PHASE3"], "designInfo": {"allocation": "RANDOMIZED", "interventionModel": "PARALLEL", "primaryPurpose": "TREATMENT", "maskingInfo": {"masking": "SINGLE", "whoMasked": ["PARTICIPANT"]}}, "enrollmentInfo": {"count": 1762, "type": "ACTUAL"}}, "armsInterventionsModule": {"armGroups": [{"label": "Treatment 1", "type": "EXPERIMENTAL", "description": "Generic Budesonide/Formoterol Fumarate Dihydrate (80mcg/4.5mcg) Inhalation Aerosol, two inhalation twice daily, consisting of a 2-week run-in period followed by a 6-week treatment period", "interventionNames": ["Drug: Budesonide/Formoterol fumarate dihydrate"]}, {"label": "Treatment 2", "type": "ACTIVE_COMPARATOR", "description": "Symbicort (Budesonide/Formoterol Fumarate Dihydrate) Inhalation Aerosol, two inhalation twice daily, consisting of a 2-week run-in period followed by a 6-week treatment period", "interventionNames": ["Drug: Symbicort"]}, {"label": "Treatment 3", "type": "PLACEBO_COMPARATOR", "description": "Placebo Inhalation Aerosol, two inhalation twice daily, consisting of a 2-week run-in period followed by a 6-week treatment period", "interventionNames": ["Drug: Placebo"]}], "interventions": [{"type": "DRUG", "name": "Budesonide/Formoterol fumarate dihydrate", "description": "Experimental: Treatment 1", "armGroupLabels": ["Treatment 1"], "otherNames": ["Generic Budesonide/Formoterol fumarate dihydrate"]}, {"type": "DRUG", "name": "Symbicort", "description": "Active Comparator: Treatment 2", "armGroupLabels": ["Treatment 2"], "otherNames": ["Budesonide/Formoterol fumarate dihydrate"]}, {"type": "DRUG", "name": "Placebo", "description": "Placebo Comparator: Treatment 3", "armGroupLabels": ["Treatment 3"]}]}, "outcomesModule": {"primaryOutcomes": [{"measure": "Area Under the Serial Forced Expiratory Volume in 1 Second (FEV1)", "description": "FEV1 Area calculated over 12 hours (measurements at 0, 1, 2, 3, 4, 6, 8, 12 hours post-dose) on Day 1 of treatment. Because this was a primary endpoint, Per Protocol Population used to calculate this endpoint.", "timeFrame": "Day 1"}, {"measure": "Change From Baseline in FEV1 Measured in the Morning at the End of Treatment Visit", "description": "Average predose FEV1 at End of Treatment defined as the average of all predose assessments on Day 42 (+/- 7 days). Baseline was defined as the average of 2 predose FEV1 values obtained on Day 1. The endpoint of baseline-adjusted predose FEV1 at end of treatment was calculated as follows: \\[FEV1 at end of treatment\\] - \\[Baseline FEV1\\].", "timeFrame": "Day 1 - Day 49"}], "secondaryOutcomes": [{"measure": "Number of Participants With Adverse Events", "description": "Number of participants reporting at least one adverse event (safety population)", "timeFrame": "6 Weeks"}]}, "eligibilityModule": {"eligibilityCriteria": "Inclusion Criteria:\n\n* Adult male or female subjects of non-childbearing or of childbearing potential committed to consistent and correct use of an acceptable method of birth control\n* Diagnosed with asthma, as defined by the National Asthma Education and Prevention Program (NAEPP),at least 6 months prior to screening\n* Moderate-to-severe asthma with a pre-bronchodilator FEV1 of \\>45% and \\<85% of predicted normal, measured at least 6 hours after short-acting \u03b2 agonist (SABA)and at least 24 hours after the last dose of long-acting \u03b2 agonist (LABA), at the screening visit and on the day of treatment\n* \\>15% and \\>0.20 L reversibility of FEV1 within 30 minutes following 360 mcg of albuterol inhalation (pMDI)\n* Patients should be stable on their chronic asthma treatment regimen for at least 4 weeks prior to enrollment\n* Currently non-smoking; having not used tobacco products (i.e., cigarettes, cigars, pipe tobacco) within the past year, and having \\< 10 pack-years of historical use\n* Able to replace current regularly scheduled short-acting \u03b2 agonists (SABAs) with salbutamol/albuterol inhaler for use only on an as-needed basis for the duration of the study (subjects should be able to withhold all inhaled SABAs for at least 6 hours prior to lung function assessments on study visits)\n* Willing to discontinue their asthma medications (inhaled corticosteroids and long-acting \u03b2 agonists) during the run-in period and for the remainder of the study\n* Willingness to give their written informed consent to participate in the study\n\nExclusion Criteria:\n\n* Life-threatening asthma, defined as a history of asthma episodes(s) requiring intubation, and/or associated with hypercapnia, respiratory arrest or hypoxic seizures, asthma-related syncopal episodes(s), or hospitalizations within the past year or during the run-in period\n* Significant respiratory disease other than asthma (chronic obstructive pulmonary disease (COPD), interstitial lung disease, etc.)\n* Evidence or history of clinically significant disease or abnormality including congestive heart failure, uncontrolled hypertension, uncontrolled coronary artery disease, myocardial infarction, or cardiac dysrhythmia. In addition, historical or current evidence of significant hematologic, hepatic, neurologic, psychiatric, renal, or other diseases that, in the opinion of the investigator, would put the patient at risk through study participation, or would affect the study analyses if the disease exacerbated during the study\n* Patients who required systemic corticosteroids (for any reason) within the past 4 weeks\n* Hypersensitivity to any sympathomimetic drug (e.g., formoterol or albuterol) or any inhaled, intranasal, or systemic corticosteroid therapy\n* Patients currently receiving \u03b2-blockers", "healthyVolunteers": false, "sex": "ALL", "minimumAge": "18 Years", "stdAges": ["ADULT", "OLDER_ADULT"]}, "contactsLocationsModule": {"overallOfficials": [{"name": "KINDEVA I DD, PhD", "affiliation": "Kindeva Drug Delivery", "role": "STUDY_CHAIR"}], "locations": [{"facility": "Clinical Research Center of Alabama LLC", "city": "Birmingham", "state": "Alabama", "zip": "35209", "country": "United States", "geoPoint": {"lat": 33.52066, "lon": -86.80249}}, {"facility": "Elite Clinical Studies", "city": "Phoenix", "state": "Arizona", "zip": "85018", "country": "United States", "geoPoint": {"lat": 33.44838, "lon": -112.07404}}, {"facility": "Clinical Research Consortuim Arizona", "city": "Tempe", "state": "Arizona", "zip": "85253", "country": "United States", "geoPoint": {"lat": 33.41477, "lon": -111.90931}}, {"facility": "Little Rock Allergy and Asthma Clinical Research Center", "city": "Little Rock", "state": "Arkansas", "zip": "72205", "country": "United States", "geoPoint": {"lat": 34.74648, "lon": -92.28959}}, {"facility": "Anaheim Clinical Trials LLC", "city": "Anaheim", "state": "California", "zip": "92801", "country": "United States", "geoPoint": {"lat": 33.83529, "lon": -117.9145}}, {"facility": "Warren W Pleskow MD", "city": "Encinitas", "state": "California", "zip": "98104", "country": "United States", "geoPoint": {"lat": 33.03699, "lon": -117.29198}}, {"facility": "Allergy and Asthma Specialists Medical Group", "city": "Huntington Beach", "state": "California", "zip": "92647", "country": "United States", "geoPoint": {"lat": 33.6603, "lon": -117.99923}}, {"facility": "California Allergy and Asthma Medical Group Inc", "city": "Los Angeles", "state": "California", "zip": "90025", "country": "United States", "geoPoint": {"lat": 34.05223, "lon": -118.24368}}, {"facility": "Jonathan Corren MD, Inc.", "city": "Los Angeles", "state": "California", "zip": "90025", "country": "United States", "geoPoint": {"lat": 34.05223, "lon": -118.24368}}, {"facility": "Southern California Institute For Respiratory Diseases, Inc.", "city": "Los Angeles", "state": "California", "zip": "90048", "country": "United States", "geoPoint": {"lat": 34.05223, "lon": -118.24368}}, {"facility": "Allergy and Asthma Associates of Southern California, A Medical Group, Inc.", "city": "Mission Viejo", "state": "California", "zip": "92691", "country": "United States", "geoPoint": {"lat": 33.60002, "lon": -117.672}}, {"facility": "Integrated Research Group Inc", "city": "Riverside", "state": "California", "zip": "92506", "country": "United States", "geoPoint": {"lat": 33.95335, "lon": -117.39616}}, {"facility": "Allied Clinical Research LLC", "city": "Sacramento", "state": "California", "zip": "95842", "country": "United States", "geoPoint": {"lat": 38.58157, "lon": -121.4944}}, {"facility": "Allergy and Asthma Associates of Northern California", "city": "San Jose", "state": "California", "zip": "95117", "country": "United States", "geoPoint": {"lat": 37.33939, "lon": -121.89496}}, {"facility": "Allergy & Asthma Clinical Research", "city": "Walnut Creek", "state": "California", "zip": "94598", "country": "United States", "geoPoint": {"lat": 37.90631, "lon": -122.06496}}, {"facility": "Allainz Research Institute Inc", "city": "Westminster", "state": "California", "zip": "92683", "country": "United States", "geoPoint": {"lat": 33.75918, "lon": -118.00673}}, {"facility": "Western States Clinical Research Inc", "city": "Arvada", "state": "Colorado", "zip": "80401", "country": "United States", "geoPoint": {"lat": 39.80276, "lon": -105.08748}}, {"facility": "Colorado Allergy and Asthma Centers PC", "city": "Centennial", "state": "Colorado", "zip": "80112", "country": "United States", "geoPoint": {"lat": 39.57916, "lon": -104.87692}}, {"facility": "IMMUNOe Research Centers", "city": "Centennial", "state": "Colorado", "zip": "80112", "country": "United States", "geoPoint": {"lat": 39.57916, "lon": -104.87692}}, {"facility": "Asthma and Allergy Associates PC", "city": "Colorado Springs", "state": "Colorado", "zip": "80907", "country": "United States", "geoPoint": {"lat": 38.83388, "lon": -104.82136}}, {"facility": "Colorado Allergy and Asthma Centers PC", "city": "Denver", "state": "Colorado", "zip": "80230", "country": "United States", "geoPoint": {"lat": 39.73915, "lon": -104.9847}}, {"facility": "Innovative Clinical Research Inc", "city": "Lafayette", "state": "Colorado", "zip": "80026", "country": "United States", "geoPoint": {"lat": 39.9936, "lon": -105.08971}}, {"facility": "Rocky Mountain Center for Clinical Research", "city": "Wheat Ridge", "state": "Colorado", "zip": "80033", "country": "United States", "geoPoint": {"lat": 39.7661, "lon": -105.07721}}, {"facility": "Saint Francis Sleep Allergy and Lung Institute", "city": "Clearwater", "state": "Florida", "zip": "33765", "country": "United States", "geoPoint": {"lat": 27.96585, "lon": -82.8001}}, {"facility": "Southeastern Integrated Medical", "city": "Gainesville", "state": "Florida", "zip": "32607", "country": "United States", "geoPoint": {"lat": 29.65163, "lon": -82.32483}}, {"facility": "Innovative Research of West Florida", "city": "Largo", "state": "Florida", "zip": "33756", "country": "United States", "geoPoint": {"lat": 27.90979, "lon": -82.78842}}, {"facility": "San Marcus Research Clinic Inc", "city": "Miami", "state": "Florida", "zip": "33015", "country": "United States", "geoPoint": {"lat": 25.77427, "lon": -80.19366}}, {"facility": "Prestige Clinical Research Center Inc", "city": "Miami", "state": "Florida", "zip": "33133", "country": "United States", "geoPoint": {"lat": 25.77427, "lon": -80.19366}}, {"facility": "Clintex Research Group, Inc", "city": "Miami", "state": "Florida", "zip": "33135", "country": "United States", "geoPoint": {"lat": 25.77427, "lon": -80.19366}}, {"facility": "Suncoast Research Group LLC", "city": "Miami", "state": "Florida", "zip": "33135", "country": "United States", "geoPoint": {"lat": 25.77427, "lon": -80.19366}}, {"facility": "Applemed Research Inc", "city": "Miami", "state": "Florida", "zip": "33155", "country": "United States", "geoPoint": {"lat": 25.77427, "lon": -80.19366}}, {"facility": "Biotech Pharmaceutical Group, LLC", "city": "Miami", "state": "Florida", "zip": "33155", "country": "United States", "geoPoint": {"lat": 25.77427, "lon": -80.19366}}, {"facility": "Research Institute of South Florida Inc", "city": "Miami", "state": "Florida", "zip": "33173", "country": "United States", "geoPoint": {"lat": 25.77427, "lon": -80.19366}}, {"facility": "Advanced Research Institute Inc", "city": "New Port Richey", "state": "Florida", "zip": "34653", "country": "United States", "geoPoint": {"lat": 28.24418, "lon": -82.71927}}, {"facility": "Emerald Coast Research Associates", "city": "Panama City", "state": "Florida", "zip": "32405", "country": "United States", "geoPoint": {"lat": 30.15946, "lon": -85.65983}}, {"facility": "Allergy and Asthma Dtc", "city": "Tallahassee", "state": "Florida", "zip": "32308", "country": "United States", "geoPoint": {"lat": 30.43826, "lon": -84.28073}}, {"facility": "Asthma and Allergy Center of Chicago Sc", "city": "River Forest", "state": "Illinois", "zip": "60305", "country": "United States", "geoPoint": {"lat": 41.89781, "lon": -87.81395}}, {"facility": "Analab Clinical Research Inc", "city": "Lenexa", "state": "Kansas", "zip": "66219", "country": "United States", "geoPoint": {"lat": 38.95362, "lon": -94.73357}}, {"facility": "Paul Shapero's Private Practice", "city": "Bangor", "state": "Maine", "zip": "04401", "country": "United States", "geoPoint": {"lat": 44.80118, "lon": -68.77781}}, {"facility": "Chesapeake Clinical Research Inc", "city": "Baltimore", "state": "Maryland", "zip": "212236", "country": "United States", "geoPoint": {"lat": 39.29038, "lon": -76.61219}}, {"facility": "Bethesda Allergy Asthma and Research Center LLC", "city": "Bethesda", "state": "Maryland", "zip": "20814", "country": "United States", "geoPoint": {"lat": 38.98067, "lon": -77.10026}}, {"facility": "Genesis Clinical Research and Consulting LLC", "city": "Fall River", "state": "Massachusetts", "zip": "02723", "country": "United States", "geoPoint": {"lat": 41.70149, "lon": -71.15505}}, {"facility": "Infinity Medical Research LLC", "city": "North Dartmouth", "state": "Massachusetts", "zip": "02747", "country": "United States", "geoPoint": {"lat": 41.63899, "lon": -70.97032}}, {"facility": "Northeast Medical Research Associates Inc", "city": "North Dartmouth", "state": "Massachusetts", "zip": "02747", "country": "United States", "geoPoint": {"lat": 41.63899, "lon": -70.97032}}, {"facility": "Clinical Research Institute, Inc.", "city": "Minneapolis", "state": "Minnesota", "zip": "55402", "country": "United States", "geoPoint": {"lat": 44.97997, "lon": -93.26384}}, {"facility": "Clinical Research of the Ozarks INC", "city": "Columbia", "state": "Missouri", "zip": "65203", "country": "United States", "geoPoint": {"lat": 38.95171, "lon": -92.33407}}, {"facility": "Clinical Research of the Ozarks Inc", "city": "Rolla", "state": "Missouri", "zip": "65401", "country": "United States", "geoPoint": {"lat": 37.95143, "lon": -91.77127}}, {"facility": "Midwest Clinical Research LLC", "city": "Saint Louis", "state": "Missouri", "zip": "63141", "country": "United States", "geoPoint": {"lat": 38.62727, "lon": -90.19789}}, {"facility": "The Clinical Research Center LLC", "city": "Saint Louis", "state": "Missouri", "zip": "63141", "country": "United States", "geoPoint": {"lat": 38.62727, "lon": -90.19789}}, {"facility": "Montana Medical Research", "city": "Missoula", "state": "Montana", "zip": "59808", "country": "United States", "geoPoint": {"lat": 46.87215, "lon": -113.994}}, {"facility": "Pioneer Clinical Research LLC", "city": "Bellevue", "state": "Nebraska", "zip": "68005", "country": "United States", "geoPoint": {"lat": 41.13667, "lon": -95.89084}}, {"facility": "The Asthma and Allergy Center PC", "city": "Bellevue", "state": "Nebraska", "zip": "68123", "country": "United States", "geoPoint": {"lat": 41.13667, "lon": -95.89084}}, {"facility": "Clinical Research Consortium Nevada", "city": "Las Vegas", "state": "Nevada", "zip": "89102", "country": "United States", "geoPoint": {"lat": 36.17497, "lon": -115.13722}}, {"facility": "Allied Clinical Research LLC", "city": "Reno", "state": "Nevada", "zip": "89523", "country": "United States", "geoPoint": {"lat": 39.52963, "lon": -119.8138}}, {"facility": "Ocean Allergy & Respiratory Research Center", "city": "Brick", "state": "New Jersey", "zip": "08724", "country": "United States", "geoPoint": {"lat": 40.05928, "lon": -74.13708}}, {"facility": "Atlantic Research Center LLC", "city": "Ocean Township", "state": "New Jersey", "zip": "07712", "country": "United States", "geoPoint": {"lat": 40.248, "lon": -74.0298}}, {"facility": "Princeton Center For Clinical Research", "city": "Skillman", "state": "New Jersey", "zip": "08558", "country": "United States", "geoPoint": {"lat": 40.42011, "lon": -74.7146}}, {"facility": "Allergy Partners of Western North Carolina", "city": "Asheville", "state": "North Carolina", "zip": "28801", "country": "United States", "geoPoint": {"lat": 35.60095, "lon": -82.55402}}, {"facility": "Rapha Institute for Clinical Research", "city": "Fayetteville", "state": "North Carolina", "zip": "28314", "country": "United States", "geoPoint": {"lat": 35.05266, "lon": -78.87836}}, {"facility": "North Carolina Clinical Research", "city": "Raleigh", "state": "North Carolina", "zip": "27607", "country": "United States", "geoPoint": {"lat": 35.7721, "lon": -78.63861}}, {"facility": "Empirical Medical Research", "city": "Canton", "state": "Ohio", "zip": "44718", "country": "United States", "geoPoint": {"lat": 40.79895, "lon": -81.37845}}, {"facility": "Bernstein Clinical Research Center Inc", "city": "Cincinnati", "state": "Ohio", "zip": "45231", "country": "United States", "geoPoint": {"lat": 39.12713, "lon": -84.51435}}, {"facility": "New Horizons Clinical Research", "city": "Cincinnati", "state": "Ohio", "zip": "45242", "country": "United States", "geoPoint": {"lat": 39.12713, "lon": -84.51435}}, {"facility": "Toledo Center For Clinical Research", "city": "Sylvania", "state": "Ohio", "zip": "43560", "country": "United States", "geoPoint": {"lat": 41.71894, "lon": -83.71299}}, {"facility": "Toledo Institute of Clinical Research", "city": "Toledo", "state": "Ohio", "zip": "93617", "country": "United States", "geoPoint": {"lat": 41.66394, "lon": -83.55521}}, {"facility": "OK Clinical Research, LLC", "city": "Edmond", "state": "Oklahoma", "zip": "73034", "country": "United States", "geoPoint": {"lat": 35.65283, "lon": -97.4781}}, {"facility": "Oklahoma Institute of Allergy and Asthma Clinical Research LLC", "city": "Edmond", "state": "Oklahoma", "zip": "73131", "country": "United States", "geoPoint": {"lat": 35.65283, "lon": -97.4781}}, {"facility": "Santiago Reyes, MD", "city": "Oklahoma City", "state": "Oklahoma", "zip": "73112", "country": "United States", "geoPoint": {"lat": 35.46756, "lon": -97.51643}}, {"facility": "Vital Prospects Clinical Research Institute PC", "city": "Tulsa", "state": "Oklahoma", "zip": "74136", "country": "United States", "geoPoint": {"lat": 36.15398, "lon": -95.99277}}, {"facility": "Allergy and Asthma Research Group", "city": "Eugene", "state": "Oregon", "zip": "97401", "country": "United States", "geoPoint": {"lat": 44.05207, "lon": -123.08675}}, {"facility": "Clinical Research Institute of Southern Oregon PC", "city": "Medford", "state": "Oregon", "zip": "97504", "country": "United States", "geoPoint": {"lat": 42.32652, "lon": -122.87559}}, {"facility": "Allergy Associates Research Center LLC", "city": "Portland", "state": "Oregon", "zip": "97202", "country": "United States", "geoPoint": {"lat": 45.52345, "lon": -122.67621}}, {"facility": "Clinical Trial Center LLC", "city": "Jenkintown", "state": "Pennsylvania", "zip": "19046", "country": "United States", "geoPoint": {"lat": 40.09594, "lon": -75.12517}}, {"facility": "Montgomery Medical Inc", "city": "Smithfield", "state": "Pennsylvania", "zip": "15478", "country": "United States", "geoPoint": {"lat": 39.80313, "lon": -79.80783}}, {"facility": "Asthma & Allergy Physicians of Rhode Island Clinical Research Institute", "city": "Warwick", "state": "Rhode Island", "zip": "02886", "country": "United States", "geoPoint": {"lat": 41.7001, "lon": -71.41617}}, {"facility": "ADAC Research", "city": "Greenville", "state": "South Carolina", "zip": "29607", "country": "United States", "geoPoint": {"lat": 34.85262, "lon": -82.39401}}, {"facility": "National Allergy and Asthma Research, LLC", "city": "North Charleston", "state": "South Carolina", "zip": "29420", "country": "United States", "geoPoint": {"lat": 32.85462, "lon": -79.97481}}, {"facility": "S. Carolina Pharmaceutical Research", "city": "Spartanburg", "state": "South Carolina", "zip": "29303", "country": "United States", "geoPoint": {"lat": 34.94957, "lon": -81.93205}}, {"facility": "Spartanburg Medical Research", "city": "Spartanburg", "state": "South Carolina", "zip": "29303", "country": "United States", "geoPoint": {"lat": 34.94957, "lon": -81.93205}}, {"facility": "New Phase Research & Development", "city": "Knoxville", "state": "Tennessee", "zip": "37909", "country": "United States", "geoPoint": {"lat": 35.96064, "lon": -83.92074}}, {"facility": "AARA Research Center", "city": "Dallas", "state": "Texas", "zip": "75231", "country": "United States", "geoPoint": {"lat": 32.78306, "lon": -96.80667}}, {"facility": "Pharmaceutical Research & Consulting Inc", "city": "Dallas", "state": "Texas", "zip": "75231", "country": "United States", "geoPoint": {"lat": 32.78306, "lon": -96.80667}}, {"facility": "Western Sky Medical Research", "city": "El Paso", "state": "Texas", "zip": "79903", "country": "United States", "geoPoint": {"lat": 31.75872, "lon": -106.48693}}, {"facility": "Pioneer Research Solutions", "city": "Houston", "state": "Texas", "zip": "77099", "country": "United States", "geoPoint": {"lat": 29.76328, "lon": -95.36327}}, {"facility": "Metroplex Pulmonology & Sleep Center", "city": "McKinney", "state": "Texas", "zip": "75069", "country": "United States", "geoPoint": {"lat": 33.19762, "lon": -96.61527}}, {"facility": "Central Texas Health Research Corporation", "city": "New Braunfels", "state": "Texas", "zip": "78130", "country": "United States", "geoPoint": {"lat": 29.703, "lon": -98.12445}}, {"facility": "Quality Assurance Research Center", "city": "San Antonio", "state": "Texas", "zip": "78207", "country": "United States", "geoPoint": {"lat": 29.42412, "lon": -98.49363}}, {"facility": "Allergy and Asthma Research Center PA", "city": "San Antonio", "state": "Texas", "zip": "78229", "country": "United States", "geoPoint": {"lat": 29.42412, "lon": -98.49363}}, {"facility": "Sylvana Research Associates", "city": "San Antonio", "state": "Texas", "zip": "78229", "country": "United States", "geoPoint": {"lat": 29.42412, "lon": -98.49363}}, {"facility": "Allergy Asthma Research Institute", "city": "Waco", "state": "Texas", "zip": "76712", "country": "United States", "geoPoint": {"lat": 31.54933, "lon": -97.14667}}, {"facility": "National Clinical Resources Inc", "city": "Provo", "state": "Utah", "zip": "84604", "country": "United States", "geoPoint": {"lat": 40.23384, "lon": -111.65853}}, {"facility": "Timber Lane Allergy and Asthma Research LLC", "city": "South Burlington", "state": "Vermont", "zip": "05403", "country": "United States", "geoPoint": {"lat": 44.46699, "lon": -73.17096}}, {"facility": "Clinical Research Partners LLC", "city": "Henrico", "state": "Virginia", "zip": "23233", "country": "United States", "geoPoint": {"lat": 36.59264, "lon": -78.61611}}, {"facility": "Marycliff Allergy Specialists PS", "city": "Spokane", "state": "Washington", "zip": "99202", "country": "United States", "geoPoint": {"lat": 47.65966, "lon": -117.42908}}, {"facility": "Allergy Asthma and Sinus Center", "city": "Greenfield", "state": "Wisconsin", "zip": "53228", "country": "United States", "geoPoint": {"lat": 42.9614, "lon": -88.01259}}]}, "ipdSharingStatementModule": {"ipdSharing": "NO"}}, "resultsSection": {"participantFlowModule": {"preAssignmentDetails": "Participants (N=1762) were provided a generic placebo pressurized metered dose inhaler (pMDI) device for use during a 2-week Run-in Period for device training. Then, qualified participants (N=1439) were randomly assigned to treatment on a 3:3:1 ratio of generic budesonide/formoterol fumarate dihydrate, Symbicort, or Placebo, respectively.", "groups": [{"id": "FG000", "title": "Treatment 1", "description": "Generic Budesonide/Formoterol Fumarate Dihydrate (80mcg/4.5mcg) Inhalation Aerosol, two inhalation twice daily, consisting of a 2-week run-in period followed by a 6-week treatment period\n\nBudesonide/Formoterol fumarate dihydrate: Experimental: Treatment 1"}, {"id": "FG001", "title": "Treatment 2", "description": "Symbicort (Budesonide/Formoterol Fumarate Dihydrate) Inhalation Aerosol, two inhalation twice daily, consisting of a 2-week run-in period followed by a 6-week treatment period\n\nSymbicort: Active Comparator: Treatment 2"}, {"id": "FG002", "title": "Treatment 3", "description": "Placebo Inhalation Aerosol, two inhalation twice daily, consisting of a 2-week run-in period followed by a 6-week treatment period\n\nPlacebo: Placebo Comparator: Treatment 3"}], "periods": [{"title": "Overall Study", "milestones": [{"type": "STARTED", "comment": "Safety Population includes all participants who received at least one dose of a treatment.", "achievements": [{"groupId": "FG000", "numSubjects": "613"}, {"groupId": "FG001", "numSubjects": "622"}, {"groupId": "FG002", "numSubjects": "204"}]}, {"type": "COMPLETED", "comment": "Per Protocol Population includes all participants who provided analyzable data for primary endpoints", "achievements": [{"groupId": "FG000", "numSubjects": "598"}, {"groupId": "FG001", "numSubjects": "604"}, {"groupId": "FG002", "numSubjects": "199"}]}, {"type": "NOT COMPLETED", "achievements": [{"groupId": "FG000", "numSubjects": "15"}, {"groupId": "FG001", "numSubjects": "18"}, {"groupId": "FG002", "numSubjects": "5"}]}]}]}, "baselineCharacteristicsModule": {"populationDescription": "Randomized participants who received at least 1 dose of study drug during Treatment Period", "groups": [{"id": "BG000", "title": "Treatment 1", "description": "Generic Budesonide/Formoterol Fumarate Dihydrate (80mcg/4.5mcg) Inhalation Aerosol, two inhalation twice daily, consisting of a 2-week run-in period followed by a 6-week treatment period\n\nBudesonide/Formoterol fumarate dihydrate: Experimental: Treatment 1"}, {"id": "BG001", "title": "Treatment 2", "description": "Symbicort (Budesonide/Formoterol Fumarate Dihydrate) Inhalation Aerosol, two inhalation twice daily, consisting of a 2-week run-in period followed by a 6-week treatment period\n\nSymbicort: Active Comparator: Treatment 2"}, {"id": "BG002", "title": "Treatment 3", "description": "Placebo Inhalation Aerosol, two inhalation twice daily, consisting of a 2-week run-in period followed by a 6-week treatment period\n\nPlacebo: Placebo Comparator: Treatment 3"}, {"id": "BG003", "title": "Total", "description": "Total of all reporting groups"}], "denoms": [{"units": "Participants", "counts": [{"groupId": "BG000", "value": "613"}, {"groupId": "BG001", "value": "622"}, {"groupId": "BG002", "value": "204"}, {"groupId": "BG003", "value": "1439"}]}], "measures": [{"title": "Age, Continuous", "paramType": "MEAN", "dispersionType": "STANDARD_DEVIATION", "unitOfMeasure": "years", "classes": [{"categories": [{"measurements": [{"groupId": "BG000", "value": "46.3", "spread": "15.02"}, {"groupId": "BG001", "value": "45.5", "spread": "14.44"}, {"groupId": "BG002", "value": "45.5", "spread": "14.78"}, {"groupId": "BG003", "value": "45.8", "spread": "14.73"}]}]}]}, {"title": "Sex: Female, Male", "description": "Randomized participants", "paramType": "COUNT_OF_PARTICIPANTS", "unitOfMeasure": "Participants", "classes": [{"categories": [{"title": "Female", "measurements": [{"groupId": "BG000", "value": "375"}, {"groupId": "BG001", "value": "392"}, {"groupId": "BG002", "value": "137"}, {"groupId": "BG003", "value": "904"}]}, {"title": "Male", "measurements": [{"groupId": "BG000", "value": "238"}, {"groupId": "BG001", "value": "230"}, {"groupId": "BG002", "value": "67"}, {"groupId": "BG003", "value": "535"}]}]}]}, {"title": "Ethnicity (NIH/OMB)", "paramType": "COUNT_OF_PARTICIPANTS", "unitOfMeasure": "Participants", "classes": [{"categories": [{"title": "Hispanic or Latino", "measurements": [{"groupId": "BG000", "value": "153"}, {"groupId": "BG001", "value": "151"}, {"groupId": "BG002", "value": "55"}, {"groupId": "BG003", "value": "359"}]}, {"title": "Not Hispanic or Latino", "measurements": [{"groupId": "BG000", "value": "460"}, {"groupId": "BG001", "value": "471"}, {"groupId": "BG002", "value": "149"}, {"groupId": "BG003", "value": "1080"}]}, {"title": "Unknown or Not Reported", "measurements": [{"groupId": "BG000", "value": "0"}, {"groupId": "BG001", "value": "0"}, {"groupId": "BG002", "value": "0"}, {"groupId": "BG003", "value": "0"}]}]}]}, {"title": "Race (NIH/OMB)", "paramType": "COUNT_OF_PARTICIPANTS", "unitOfMeasure": "Participants", "classes": [{"categories": [{"title": "American Indian or Alaska Native", "measurements": [{"groupId": "BG000", "value": "2"}, {"groupId": "BG001", "value": "0"}, {"groupId": "BG002", "value": "0"}, {"groupId": "BG003", "value": "2"}]}, {"title": "Asian", "measurements": [{"groupId": "BG000", "value": "5"}, {"groupId": "BG001", "value": "6"}, {"groupId": "BG002", "value": "4"}, {"groupId": "BG003", "value": "15"}]}, {"title": "Native Hawaiian or Other Pacific Islander", "measurements": [{"groupId": "BG000", "value": "0"}, {"groupId": "BG001", "value": "0"}, {"groupId": "BG002", "value": "0"}, {"groupId": "BG003", "value": "0"}]}, {"title": "Black or African American", "measurements": [{"groupId": "BG000", "value": "107"}, {"groupId": "BG001", "value": "112"}, {"groupId": "BG002", "value": "43"}, {"groupId": "BG003", "value": "262"}]}, {"title": "White", "measurements": [{"groupId": "BG000", "value": "490"}, {"groupId": "BG001", "value": "495"}, {"groupId": "BG002", "value": "154"}, {"groupId": "BG003", "value": "1139"}]}, {"title": "More than one race", "measurements": [{"groupId": "BG000", "value": "0"}, {"groupId": "BG001", "value": "0"}, {"groupId": "BG002", "value": "0"}, {"groupId": "BG003", "value": "0"}]}, {"title": "Unknown or Not Reported", "measurements": [{"groupId": "BG000", "value": "9"}, {"groupId": "BG001", "value": "9"}, {"groupId": "BG002", "value": "3"}, {"groupId": "BG003", "value": "21"}]}]}]}, {"title": "Body Mass Index", "paramType": "MEAN", "dispersionType": "STANDARD_DEVIATION", "unitOfMeasure": "kg/m^2", "classes": [{"categories": [{"measurements": [{"groupId": "BG000", "value": "30.73", "spread": "7.667"}, {"groupId": "BG001", "value": "31.27", "spread": "8.108"}, {"groupId": "BG002", "value": "30.93", "spread": "7.960"}, {"groupId": "BG003", "value": "30.99", "spread": "7.900"}]}]}]}]}, "outcomeMeasuresModule": {"outcomeMeasures": [{"type": "PRIMARY", "title": "Area Under the Serial Forced Expiratory Volume in 1 Second (FEV1)", "description": "FEV1 Area calculated over 12 hours (measurements at 0, 1, 2, 3, 4, 6, 8, 12 hours post-dose) on Day 1 of treatment. Because this was a primary endpoint, Per Protocol Population used to calculate this endpoint.", "populationDescription": "Per Protocol Population", "reportingStatus": "POSTED", "paramType": "LEAST_SQUARES_MEAN", "dispersionType": "Standard Error", "unitOfMeasure": "l * hr", "timeFrame": "Day 1", "groups": [{"id": "OG000", "title": "Treatment 1", "description": "Generic Budesonide/Formoterol Fumarate Dihydrate (80mcg/4.5mcg) Inhalation Aerosol, two inhalation twice daily, consisting of a 2-week run-in period followed by a 6-week treatment period\n\nBudesonide/Formoterol fumarate dihydrate: Experimental: Treatment 1"}, {"id": "OG001", "title": "Treatment 2", "description": "Symbicort (Budesonide/Formoterol Fumarate Dihydrate) Inhalation Aerosol, two inhalation twice daily, consisting of a 2-week run-in period followed by a 6-week treatment period\n\nSymbicort: Active Comparator: Treatment 2"}, {"id": "OG002", "title": "Treatment 3", "description": "Placebo Inhalation Aerosol, two inhalation twice daily, consisting of a 2-week run-in period followed by a 6-week treatment period\n\nPlacebo: Placebo Comparator: Treatment 3"}], "denoms": [{"units": "Participants", "counts": [{"groupId": "OG000", "value": "598"}, {"groupId": "OG001", "value": "604"}, {"groupId": "OG002", "value": "199"}]}], "classes": [{"categories": [{"measurements": [{"groupId": "OG000", "value": "4.4453", "spread": "0.1552"}, {"groupId": "OG001", "value": "4.2790", "spread": "0.1547"}, {"groupId": "OG002", "value": "1.6876", "spread": "0.2782"}]}]}], "analyses": [{"groupIds": ["OG000", "OG001", "OG002"], "groupDescription": "Only Treatments 1 and 2 were compared for equivalence. Treatment 3 (placebo) was subtracted from both Treatments 1 and 2, as this primary endpoint was baseline adjusted.", "nonInferiorityType": "EQUIVALENCE", "nonInferiorityComment": "To show the clinical equivalence, an analysis of covariance model was fit on the participants from the test budesonide/formoterol fumarate and Symbicort groups, with the endpoint as outcome and treatment, study site and treatment by site interaction as fixed effects and FEV1 baseline value as covariate.", "paramType": "Test/Referece LS Mean Ratio", "paramValue": "1.040", "ciPctValue": "90", "ciNumSides": "TWO_SIDED", "ciLowerLimit": "0.958", "ciUpperLimit": "1.130", "estimateComment": "Fieller's formula was applied"}]}, {"type": "PRIMARY", "title": "Change From Baseline in FEV1 Measured in the Morning at the End of Treatment Visit", "description": "Average predose FEV1 at End of Treatment defined as the average of all predose assessments on Day 42 (+/- 7 days). Baseline was defined as the average of 2 predose FEV1 values obtained on Day 1. The endpoint of baseline-adjusted predose FEV1 at end of treatment was calculated as follows: \\[FEV1 at end of treatment\\] - \\[Baseline FEV1\\].", "populationDescription": "Per Protocol Population", "reportingStatus": "POSTED", "paramType": "LEAST_SQUARES_MEAN", "dispersionType": "Standard Error", "unitOfMeasure": "liter", "timeFrame": "Day 1 - Day 49", "groups": [{"id": "OG000", "title": "Treatment 1", "description": "Generic Budesonide/Formoterol Fumarate Dihydrate (80mcg/4.5mcg) Inhalation Aerosol, two inhalation twice daily, consisting of a 2-week run-in period followed by a 6-week treatment period\n\nBudesonide/Formoterol fumarate dihydrate: Experimental: Treatment 1"}, {"id": "OG001", "title": "Treatment 2", "description": "Symbicort (Budesonide/Formoterol Fumarate Dihydrate) Inhalation Aerosol, two inhalation twice daily, consisting of a 2-week run-in period followed by a 6-week treatment period\n\nSymbicort: Active Comparator: Treatment 2"}, {"id": "OG002", "title": "Treatment 3", "description": "Placebo Inhalation Aerosol, two inhalation twice daily, consisting of a 2-week run-in period followed by a 6-week treatment period\n\nPlacebo: Placebo Comparator: Treatment 3"}], "denoms": [{"units": "Participants", "counts": [{"groupId": "OG000", "value": "598"}, {"groupId": "OG001", "value": "604"}, {"groupId": "OG002", "value": "199"}]}], "classes": [{"categories": [{"measurements": [{"groupId": "OG000", "value": "0.3096", "spread": "0.0162"}, {"groupId": "OG001", "value": "0.3077", "spread": "0.0162"}, {"groupId": "OG002", "value": "0.1236", "spread": "0.0285"}]}]}], "analyses": [{"groupIds": ["OG000", "OG001", "OG002"], "groupDescription": "Treatments 1 and 2 were baseline adjusted by subtracting Treatment 3 (placebo) from each.", "nonInferiorityType": "EQUIVALENCE", "nonInferiorityComment": "To show the clinical equivalence, an ANCOVA model was fit with the endpoint as outcome and treatment, study site and treatment-by site interaction as fixed effects and FEV1 baseline value as covariate.", "paramType": "Test/Reference LS Mean Ratio", "paramValue": "1.004", "ciPctValue": "90", "ciNumSides": "TWO_SIDED", "ciLowerLimit": "0.889", "ciUpperLimit": "1.140", "estimateComment": "Fieller's formula was applied"}]}, {"type": "SECONDARY", "title": "Number of Participants With Adverse Events", "description": "Number of participants reporting at least one adverse event (safety population)", "populationDescription": "Safety Population: All enrolled participants who received one dose of a treatment drug. This population was larger than the Per Protocol Population that included only those participants who provided analyzable primary endpoints.", "reportingStatus": "POSTED", "paramType": "COUNT_OF_PARTICIPANTS", "unitOfMeasure": "Participants", "timeFrame": "6 Weeks", "groups": [{"id": "OG000", "title": "Treatment 1", "description": "Generic Budesonide/Formoterol Fumarate Dihydrate (80mcg/4.5mcg) Inhalation Aerosol, two inhalation twice daily, consisting of a 2-week run-in period followed by a 6-week treatment period\n\nBudesonide/Formoterol fumarate dihydrate: Experimental: Treatment 1"}, {"id": "OG001", "title": "Treatment 2", "description": "Symbicort (Budesonide/Formoterol Fumarate Dihydrate) Inhalation Aerosol, two inhalation twice daily, consisting of a 2-week run-in period followed by a 6-week treatment period\n\nSymbicort: Active Comparator: Treatment 2"}, {"id": "OG002", "title": "Treatment 3", "description": "Placebo Inhalation Aerosol, two inhalation twice daily, consisting of a 2-week run-in period followed by a 6-week treatment period\n\nPlacebo: Placebo Comparator: Treatment 3"}], "denoms": [{"units": "Participants", "counts": [{"groupId": "OG000", "value": "613"}, {"groupId": "OG001", "value": "622"}, {"groupId": "OG002", "value": "204"}]}], "classes": [{"title": "Upper respiratory tract infection", "categories": [{"measurements": [{"groupId": "OG000", "value": "12"}, {"groupId": "OG001", "value": "15"}, {"groupId": "OG002", "value": "7"}]}]}, {"title": "Nasopharyngitis", "categories": [{"measurements": [{"groupId": "OG000", "value": "7"}, {"groupId": "OG001", "value": "11"}, {"groupId": "OG002", "value": "4"}]}]}, {"title": "Viral upper respiratory tract infection", "categories": [{"measurements": [{"groupId": "OG000", "value": "6"}, {"groupId": "OG001", "value": "4"}, {"groupId": "OG002", "value": "1"}]}]}, {"title": "Bronchitis", "categories": [{"measurements": [{"groupId": "OG000", "value": "3"}, {"groupId": "OG001", "value": "4"}, {"groupId": "OG002", "value": "2"}]}]}, {"title": "Asthma", "categories": [{"measurements": [{"groupId": "OG000", "value": "17"}, {"groupId": "OG001", "value": "24"}, {"groupId": "OG002", "value": "39"}]}]}, {"title": "Cough", "categories": [{"measurements": [{"groupId": "OG000", "value": "4"}, {"groupId": "OG001", "value": "4"}, {"groupId": "OG002", "value": "3"}]}]}, {"title": "Headache", "categories": [{"measurements": [{"groupId": "OG000", "value": "4"}, {"groupId": "OG001", "value": "8"}, {"groupId": "OG002", "value": "2"}]}]}, {"title": "Chest discomfort", "categories": [{"measurements": [{"groupId": "OG000", "value": "1"}, {"groupId": "OG001", "value": "0"}, {"groupId": "OG002", "value": "2"}]}]}], "analyses": [{"groupIds": ["OG000", "OG001", "OG002"], "groupDescription": "Comparison of means, no formal statistical comparison", "nonInferiorityType": "OTHER", "otherAnalysisDescription": "no statistical significance applied"}]}]}, "adverseEventsModule": {"frequencyThreshold": "0", "timeFrame": "Day 1 - Day 70", "description": "Subjects who received at least 1 dose during the Treatment Period (Safety Population).", "eventGroups": [{"id": "EG000", "title": "Treatment 1", "description": "Generic Budesonide/Formoterol Fumarate Dihydrate (80mcg/4.5mcg) Inhalation Aerosol, two inhalation twice daily, consisting of a 2-week run-in period followed by a 6-week treatment period\n\nBudesonide/Formoterol fumarate dihydrate: Experimental: Treatment 1", "deathsNumAffected": 0, "deathsNumAtRisk": 613, "seriousNumAffected": 4, "seriousNumAtRisk": 613, "otherNumAffected": 121, "otherNumAtRisk": 613}, {"id": "EG001", "title": "Treatment 2", "description": "Symbicort (Budesonide/Formoterol Fumarate Dihydrate) Inhalation Aerosol, two inhalation twice daily, consisting of a 2-week run-in period followed by a 6-week treatment period\n\nSymbicort: Active Comparator: Treatment 2", "deathsNumAffected": 0, "deathsNumAtRisk": 622, "seriousNumAffected": 3, "seriousNumAtRisk": 622, "otherNumAffected": 138, "otherNumAtRisk": 622}, {"id": "EG002", "title": "Treatment 3", "description": "Placebo Inhalation Aerosol, two inhalation twice daily, consisting of a 2-week run-in period followed by a 6-week treatment period\n\nPlacebo: Placebo Comparator: Treatment 3", "deathsNumAffected": 0, "deathsNumAtRisk": 204, "seriousNumAffected": 2, "seriousNumAtRisk": 204, "otherNumAffected": 71, "otherNumAtRisk": 204}], "seriousEvents": [{"term": "cerebrospinal fluid leakage", "organSystem": "Nervous system disorders", "sourceVocabulary": "MedDRA (19.0)", "assessmentType": "SYSTEMATIC_ASSESSMENT", "stats": [{"groupId": "EG000", "numEvents": 1, "numAffected": 1, "numAtRisk": 613}, {"groupId": "EG001", "numEvents": 0, "numAffected": 0, "numAtRisk": 622}, {"groupId": "EG002", "numEvents": 0, "numAffected": 0, "numAtRisk": 204}]}, {"term": "staphylococcal skin infection", "organSystem": "Infections and infestations", "sourceVocabulary": "MedDRA (19.0)", "assessmentType": "SYSTEMATIC_ASSESSMENT", "stats": [{"groupId": "EG000", "numEvents": 1, "numAffected": 1, "numAtRisk": 613}, {"groupId": "EG001", "numEvents": 0, "numAffected": 0, "numAtRisk": 622}, {"groupId": "EG002", "numEvents": 0, "numAffected": 0, "numAtRisk": 204}]}, {"term": "Alcoholic pancreatitis", "organSystem": "Gastrointestinal disorders", "sourceVocabulary": "MedDRA (19.0)", "assessmentType": "SYSTEMATIC_ASSESSMENT", "stats": [{"groupId": "EG000", "numEvents": 1, "numAffected": 1, "numAtRisk": 613}, {"groupId": "EG001", "numEvents": 0, "numAffected": 0, "numAtRisk": 622}, {"groupId": "EG002", "numEvents": 0, "numAffected": 0, "numAtRisk": 204}]}, {"term": "Abortion spontaneous", "organSystem": "Pregnancy, puerperium and perinatal conditions", "sourceVocabulary": "MedDRA (19.0)", "assessmentType": "SYSTEMATIC_ASSESSMENT", "stats": [{"groupId": "EG000", "numEvents": 0, "numAffected": 0, "numAtRisk": 613}, {"groupId": "EG001", "numEvents": 1, "numAffected": 1, "numAtRisk": 622}, {"groupId": "EG002", "numEvents": 0, "numAffected": 0, "numAtRisk": 204}]}, {"term": "Myositis", "organSystem": "Musculoskeletal and connective tissue disorders", "sourceVocabulary": "MedDRA (19.0)", "assessmentType": "SYSTEMATIC_ASSESSMENT", "stats": [{"groupId": "EG000", "numEvents": 0, "numAffected": 0, "numAtRisk": 613}, {"groupId": "EG001", "numEvents": 1, "numAffected": 1, "numAtRisk": 622}, {"groupId": "EG002", "numEvents": 0, "numAffected": 0, "numAtRisk": 204}]}, {"term": "Head injurt", "organSystem": "Injury, poisoning and procedural complications", "sourceVocabulary": "MedDRA (19.0)", "assessmentType": "SYSTEMATIC_ASSESSMENT", "stats": [{"groupId": "EG000", "numEvents": 0, "numAffected": 0, "numAtRisk": 613}, {"groupId": "EG001", "numEvents": 1, "numAffected": 1, "numAtRisk": 622}, {"groupId": "EG002", "numEvents": 0, "numAffected": 0, "numAtRisk": 204}]}, {"term": "Abdominal pain", "organSystem": "Gastrointestinal disorders", "sourceVocabulary": "MedDRA (19.0)", "assessmentType": "SYSTEMATIC_ASSESSMENT", "stats": [{"groupId": "EG000", "numEvents": 0, "numAffected": 0, "numAtRisk": 613}, {"groupId": "EG001", "numEvents": 0, "numAffected": 0, "numAtRisk": 622}, {"groupId": "EG002", "numEvents": 1, "numAffected": 1, "numAtRisk": 204}]}, {"term": "Asthma", "organSystem": "Respiratory, thoracic and mediastinal disorders", "sourceVocabulary": "MedDRA (19.0)", "assessmentType": "SYSTEMATIC_ASSESSMENT", "stats": [{"groupId": "EG000", "numEvents": 0, "numAffected": 0, "numAtRisk": 613}, {"groupId": "EG001", "numEvents": 0, "numAffected": 0, "numAtRisk": 622}, {"groupId": "EG002", "numEvents": 1, "numAffected": 1, "numAtRisk": 204}]}, {"term": "Intervertebral disc protrusion", "organSystem": "Musculoskeletal and connective tissue disorders", "sourceVocabulary": "MedDRA (19.0)", "assessmentType": "SYSTEMATIC_ASSESSMENT", "stats": [{"groupId": "EG000", "numEvents": 1, "numAffected": 1, "numAtRisk": 613}, {"groupId": "EG001", "numEvents": 0, "numAffected": 0, "numAtRisk": 622}, {"groupId": "EG002", "numEvents": 0, "numAffected": 0, "numAtRisk": 204}]}], "otherEvents": [{"term": "upper respiratory tract infection", "organSystem": "Infections and infestations", "sourceVocabulary": "MedDRA (19.0)", "assessmentType": "SYSTEMATIC_ASSESSMENT", "stats": [{"groupId": "EG000", "numEvents": 12, "numAffected": 12, "numAtRisk": 613}, {"groupId": "EG001", "numEvents": 15, "numAffected": 15, "numAtRisk": 622}, {"groupId": "EG002", "numEvents": 7, "numAffected": 7, "numAtRisk": 204}]}, {"term": "nasopharyngitis", "organSystem": "Infections and infestations", "sourceVocabulary": "MedDRA (19.0)", "assessmentType": "SYSTEMATIC_ASSESSMENT", "stats": [{"groupId": "EG000", "numEvents": 7, "numAffected": 7, "numAtRisk": 613}, {"groupId": "EG001", "numEvents": 11, "numAffected": 11, "numAtRisk": 622}, {"groupId": "EG002", "numEvents": 4, "numAffected": 4, "numAtRisk": 204}]}, {"term": "viral upper respiratory tract infection", "organSystem": "Infections and infestations", "sourceVocabulary": "MedDRA (19.0)", "assessmentType": "SYSTEMATIC_ASSESSMENT", "stats": [{"groupId": "EG000", "numEvents": 7, "numAffected": 6, "numAtRisk": 613}, {"groupId": "EG001", "numEvents": 4, "numAffected": 4, "numAtRisk": 622}, {"groupId": "EG002", "numEvents": 1, "numAffected": 1, "numAtRisk": 204}]}, {"term": "bronchitis", "organSystem": "Infections and infestations", "sourceVocabulary": "MedDRA (19.0)", "assessmentType": "SYSTEMATIC_ASSESSMENT", "stats": [{"groupId": "EG000", "numEvents": 3, "numAffected": 3, "numAtRisk": 613}, {"groupId": "EG001", "numEvents": 4, "numAffected": 4, "numAtRisk": 622}, {"groupId": "EG002", "numEvents": 2, "numAffected": 2, "numAtRisk": 204}]}, {"term": "asthma", "organSystem": "Respiratory, thoracic and mediastinal disorders", "sourceVocabulary": "MedDRA (19.0)", "assessmentType": "SYSTEMATIC_ASSESSMENT", "stats": [{"groupId": "EG000", "numEvents": 18, "numAffected": 17, "numAtRisk": 613}, {"groupId": "EG001", "numEvents": 28, "numAffected": 24, "numAtRisk": 622}, {"groupId": "EG002", "numEvents": 48, "numAffected": 39, "numAtRisk": 204}]}, {"term": "cough", "organSystem": "Respiratory, thoracic and mediastinal disorders", "sourceVocabulary": "MedDRA (19.0)", "assessmentType": "SYSTEMATIC_ASSESSMENT", "stats": [{"groupId": "EG000", "numEvents": 4, "numAffected": 4, "numAtRisk": 613}, {"groupId": "EG001", "numEvents": 4, "numAffected": 4, "numAtRisk": 622}, {"groupId": "EG002", "numEvents": 3, "numAffected": 3, "numAtRisk": 204}]}, {"term": "gastrointestinal disorders", "organSystem": "Gastrointestinal disorders", "sourceVocabulary": "MedDRA (19.0)", "assessmentType": "SYSTEMATIC_ASSESSMENT", "stats": [{"groupId": "EG000", "numEvents": 13, "numAffected": 11, "numAtRisk": 613}, {"groupId": "EG001", "numEvents": 12, "numAffected": 12, "numAtRisk": 622}, {"groupId": "EG002", "numEvents": 4, "numAffected": 2, "numAtRisk": 204}]}, {"term": "injury, poisoning and procedural complications", "organSystem": "Injury, poisoning and procedural complications", "sourceVocabulary": "MedDRA (19.0)", "assessmentType": "SYSTEMATIC_ASSESSMENT", "stats": [{"groupId": "EG000", "numEvents": 8, "numAffected": 8, "numAtRisk": 613}, {"groupId": "EG001", "numEvents": 17, "numAffected": 11, "numAtRisk": 622}, {"groupId": "EG002", "numEvents": 2, "numAffected": 2, "numAtRisk": 204}]}, {"term": "nervous system disorders", "organSystem": "Nervous system disorders", "sourceVocabulary": "MedDRA (19.0)", "assessmentType": "SYSTEMATIC_ASSESSMENT", "stats": [{"groupId": "EG000", "numEvents": 12, "numAffected": 9, "numAtRisk": 613}, {"groupId": "EG001", "numEvents": 10, "numAffected": 10, "numAtRisk": 622}, {"groupId": "EG002", "numEvents": 3, "numAffected": 2, "numAtRisk": 204}]}, {"term": "headache", "organSystem": "Nervous system disorders", "sourceVocabulary": "MedDRA (19.0)", "assessmentType": "SYSTEMATIC_ASSESSMENT", "stats": [{"groupId": "EG000", "numEvents": 7, "numAffected": 4, "numAtRisk": 613}, {"groupId": "EG001", "numEvents": 8, "numAffected": 8, "numAtRisk": 622}, {"groupId": "EG002", "numEvents": 3, "numAffected": 2, "numAtRisk": 204}]}, {"term": "infections and infestations", "organSystem": "Infections and infestations", "sourceVocabulary": "MedDRA (19.0)", "assessmentType": "SYSTEMATIC_ASSESSMENT", "stats": [{"groupId": "EG000", "numEvents": 58, "numAffected": 54, "numAtRisk": 613}, {"groupId": "EG001", "numEvents": 61, "numAffected": 58, "numAtRisk": 622}, {"groupId": "EG002", "numEvents": 21, "numAffected": 20, "numAtRisk": 204}]}, {"term": "respiratory, thoracic and mediastinal disorders", "organSystem": "Respiratory, thoracic and mediastinal disorders", "sourceVocabulary": "MedDRA (19.0)", "assessmentType": "SYSTEMATIC_ASSESSMENT", "stats": [{"groupId": "EG000", "numEvents": 40, "numAffected": 35, "numAtRisk": 613}, {"groupId": "EG001", "numEvents": 56, "numAffected": 48, "numAtRisk": 622}, {"groupId": "EG002", "numEvents": 64, "numAffected": 48, "numAtRisk": 204}]}, {"term": "musculoskeletal and connective tissue disorders", "organSystem": "Musculoskeletal and connective tissue disorders", "sourceVocabulary": "MedDRA (19.0)", "assessmentType": "SYSTEMATIC_ASSESSMENT", "stats": [{"groupId": "EG000", "numEvents": 11, "numAffected": 8, "numAtRisk": 613}, {"groupId": "EG001", "numEvents": 15, "numAffected": 10, "numAtRisk": 622}, {"groupId": "EG002", "numEvents": 2, "numAffected": 2, "numAtRisk": 204}]}, {"term": "investigations", "organSystem": "Investigations", "sourceVocabulary": "MedDRA (19.0)", "assessmentType": "SYSTEMATIC_ASSESSMENT", "stats": [{"groupId": "EG000", "numEvents": 2, "numAffected": 2, "numAtRisk": 613}, {"groupId": "EG001", "numEvents": 7, "numAffected": 7, "numAtRisk": 622}, {"groupId": "EG002", "numEvents": 3, "numAffected": 3, "numAtRisk": 204}]}, {"term": "general disorders and administration site conditions", "organSystem": "General disorders", "sourceVocabulary": "MedDRA (19.0)", "assessmentType": "SYSTEMATIC_ASSESSMENT", "stats": [{"groupId": "EG000", "numEvents": 5, "numAffected": 5, "numAtRisk": 613}, {"groupId": "EG001", "numEvents": 4, "numAffected": 4, "numAtRisk": 622}, {"groupId": "EG002", "numEvents": 3, "numAffected": 2, "numAtRisk": 204}]}, {"term": "chest discomfort", "organSystem": "General disorders", "sourceVocabulary": "MedDRA (19.0)", "assessmentType": "SYSTEMATIC_ASSESSMENT", "stats": [{"groupId": "EG000", "numEvents": 1, "numAffected": 1, "numAtRisk": 613}, {"groupId": "EG001", "numEvents": 0, "numAffected": 0, "numAtRisk": 622}, {"groupId": "EG002", "numEvents": 3, "numAffected": 2, "numAtRisk": 204}]}, {"term": "metabolism and nutrition disorders", "organSystem": "Investigations", "sourceVocabulary": "MedDRA (19.0)", "assessmentType": "SYSTEMATIC_ASSESSMENT", "stats": [{"groupId": "EG000", "numEvents": 4, "numAffected": 4, "numAtRisk": 613}, {"groupId": "EG001", "numEvents": 6, "numAffected": 6, "numAtRisk": 622}, {"groupId": "EG002", "numEvents": 1, "numAffected": 1, "numAtRisk": 204}]}, {"term": "skin and subcutaneous tissue disorders", "organSystem": "Skin and subcutaneous tissue disorders", "sourceVocabulary": "MedDRA (19.0)", "assessmentType": "SYSTEMATIC_ASSESSMENT", "stats": [{"groupId": "EG000", "numEvents": 5, "numAffected": 5, "numAtRisk": 613}, {"groupId": "EG001", "numEvents": 3, "numAffected": 3, "numAtRisk": 622}, {"groupId": "EG002", "numEvents": 2, "numAffected": 2, "numAtRisk": 204}]}, {"term": "cardia disorders", "organSystem": "Cardiac disorders", "sourceVocabulary": "MedDRA (19.0)", "assessmentType": "SYSTEMATIC_ASSESSMENT", "stats": [{"groupId": "EG000", "numEvents": 1, "numAffected": 1, "numAtRisk": 613}, {"groupId": "EG001", "numEvents": 1, "numAffected": 1, "numAtRisk": 622}, {"groupId": "EG002", "numEvents": 1, "numAffected": 1, "numAtRisk": 204}]}, {"term": "immune system disorders", "organSystem": "Immune system disorders", "sourceVocabulary": "MedDRA (19.0)", "assessmentType": "SYSTEMATIC_ASSESSMENT", "stats": [{"groupId": "EG000", "numEvents": 2, "numAffected": 2, "numAtRisk": 613}, {"groupId": "EG001", "numEvents": 0, "numAffected": 0, "numAtRisk": 622}, {"groupId": "EG002", "numEvents": 1, "numAffected": 1, "numAtRisk": 204}]}, {"term": "psychiatric disorders", "organSystem": "Psychiatric disorders", "sourceVocabulary": "MedDRA (19.0)", "assessmentType": "SYSTEMATIC_ASSESSMENT", "stats": [{"groupId": "EG000", "numEvents": 1, "numAffected": 1, "numAtRisk": 613}, {"groupId": "EG001", "numEvents": 1, "numAffected": 1, "numAtRisk": 622}, {"groupId": "EG002", "numEvents": 1, "numAffected": 1, "numAtRisk": 204}]}, {"term": "vascular disorders", "organSystem": "Vascular disorders", "sourceVocabulary": "MedDRA (19.0)", "assessmentType": "SYSTEMATIC_ASSESSMENT", "stats": [{"groupId": "EG000", "numEvents": 1, "numAffected": 1, "numAtRisk": 613}, {"groupId": "EG001", "numEvents": 1, "numAffected": 1, "numAtRisk": 622}, {"groupId": "EG002", "numEvents": 1, "numAffected": 1, "numAtRisk": 204}]}, {"term": "ear and labyrinth disorders", "organSystem": "Ear and labyrinth disorders", "sourceVocabulary": "MedDRA (19.0)", "assessmentType": "SYSTEMATIC_ASSESSMENT", "stats": [{"groupId": "EG000", "numEvents": 2, "numAffected": 2, "numAtRisk": 613}, {"groupId": "EG001", "numEvents": 0, "numAffected": 0, "numAtRisk": 622}, {"groupId": "EG002", "numEvents": 0, "numAffected": 0, "numAtRisk": 204}]}, {"term": "eye disorders", "organSystem": "Eye disorders", "sourceVocabulary": "MedDRA (19.0)", "assessmentType": "SYSTEMATIC_ASSESSMENT", "stats": [{"groupId": "EG000", "numEvents": 1, "numAffected": 1, "numAtRisk": 613}, {"groupId": "EG001", "numEvents": 1, "numAffected": 1, "numAtRisk": 622}, {"groupId": "EG002", "numEvents": 0, "numAffected": 0, "numAtRisk": 204}]}, {"term": "pregnancy, puerperium, and perinatal conditions", "organSystem": "Pregnancy, puerperium and perinatal conditions", "sourceVocabulary": "MedDRA (19.0)", "assessmentType": "SYSTEMATIC_ASSESSMENT", "stats": [{"groupId": "EG000", "numEvents": 0, "numAffected": 0, "numAtRisk": 613}, {"groupId": "EG001", "numEvents": 1, "numAffected": 1, "numAtRisk": 622}, {"groupId": "EG002", "numEvents": 0, "numAffected": 0, "numAtRisk": 204}]}, {"term": "renal and urinary disorders", "organSystem": "Renal and urinary disorders", "sourceVocabulary": "MedDRA (19.0)", "assessmentType": "SYSTEMATIC_ASSESSMENT", "stats": [{"groupId": "EG000", "numEvents": 0, "numAffected": 0, "numAtRisk": 613}, {"groupId": "EG001", "numEvents": 1, "numAffected": 1, "numAtRisk": 622}, {"groupId": "EG002", "numEvents": 0, "numAffected": 0, "numAtRisk": 204}]}]}, "moreInfoModule": {"limitationsAndCaveats": {"description": "There were no limitations to the trial protocol, no early termination or technical problems."}, "certainAgreement": {"piSponsorEmployee": false, "restrictiveAgreement": true}, "pointOfContact": {"title": "Lester Harrison, PhD", "organization": "KINDEVA DRUG DELIVERY", "email": "lester.harrison@kindevadd.com", "phone": "6122714814"}}}, "documentSection": {"largeDocumentModule": {"largeDocs": [{"typeAbbrev": "Prot", "hasProtocol": true, "hasSap": false, "hasIcf": false, "label": "Study Protocol", "date": "2016-10-31", "uploadDate": "2022-06-06T14:30", "filename": "Prot_000.pdf", "size": 706388}, {"typeAbbrev": "SAP", "hasProtocol": false, "hasSap": true, "hasIcf": false, "label": "Statistical Analysis Plan", "date": "2018-03-23", "uploadDate": "2022-06-06T14:37", "filename": "SAP_001.pdf", "size": 767269}]}}, "derivedSection": {"miscInfoModule": {"versionHolder": "2024-06-24"}, "conditionBrowseModule": {"meshes": [{"id": "D000001249", "term": "Asthma"}], "ancestors": [{"id": "D000001982", "term": "Bronchial Diseases"}, {"id": "D000012140", "term": "Respiratory Tract Diseases"}, {"id": "D000008173", "term": "Lung Diseases, Obstructive"}, {"id": "D000008171", "term": "Lung Diseases"}, {"id": "D000012130", "term": "Respiratory Hypersensitivity"}, {"id": "D000006969", "term": "Hypersensitivity, Immediate"}, {"id": "D000006967", "term": "Hypersensitivity"}, {"id": "D000007154", "term": "Immune System Diseases"}], "browseLeaves": [{"id": "M4556", "name": "Asthma", "asFound": "Asthma", "relevance": "HIGH"}, {"id": "M5258", "name": "Bronchial Diseases", "relevance": "LOW"}, {"id": "M14977", "name": "Respiratory Tract Diseases", "relevance": "LOW"}, {"id": "M11168", "name": "Lung Diseases", "relevance": "LOW"}, {"id": "M11170", "name": "Lung Diseases, Obstructive", "relevance": "LOW"}, {"id": "M10018", "name": "Hypersensitivity", "relevance": "LOW"}, {"id": "M14967", "name": "Respiratory Hypersensitivity", "relevance": "LOW"}, {"id": "M10020", "name": "Hypersensitivity, Immediate", "relevance": "LOW"}, {"id": "M10200", "name": "Immune System Diseases", "relevance": "LOW"}], "browseBranches": [{"abbrev": "BC08", "name": "Respiratory Tract (Lung and Bronchial) Diseases"}, {"abbrev": "BC20", "name": "Immune System Diseases"}, {"abbrev": "All", "name": "All Conditions"}]}, "interventionBrowseModule": {"meshes": [{"id": "D000019819", "term": "Budesonide"}, {"id": "D000068759", "term": "Formoterol Fumarate"}, {"id": "D000069502", "term": "Budesonide, Formoterol Fumarate Drug Combination"}], "ancestors": [{"id": "D000000893", "term": "Anti-Inflammatory Agents"}, {"id": "D000001993", "term": "Bronchodilator Agents"}, {"id": "D000001337", "term": "Autonomic Agents"}, {"id": "D000018373", "term": "Peripheral Nervous System Agents"}, {"id": "D000045505", "term": "Physiological Effects of Drugs"}, {"id": "D000018927", "term": "Anti-Asthmatic Agents"}, {"id": "D000019141", "term": "Respiratory System Agents"}, {"id": "D000005938", "term": "Glucocorticoids"}, {"id": "D000006728", "term": "Hormones"}, {"id": "D000006730", "term": "Hormones, Hormone Substitutes, and Hormone Antagonists"}, {"id": "D000058666", "term": "Adrenergic beta-2 Receptor Agonists"}, {"id": "D000000318", "term": "Adrenergic beta-Agonists"}, {"id": "D000000322", "term": "Adrenergic Agonists"}, {"id": "D000018663", "term": "Adrenergic Agents"}, {"id": "D000018377", "term": "Neurotransmitter Agents"}, {"id": "D000045504", "term": "Molecular Mechanisms of Pharmacological Action"}], "browseLeaves": [{"id": "M21711", "name": "Budesonide", "asFound": "Of 1", "relevance": "HIGH"}, {"id": "M304", "name": "Formoterol Fumarate", "asFound": "Channel", "relevance": "HIGH"}, {"id": "M452", "name": "Budesonide, Formoterol Fumarate Drug Combination", "asFound": "Trigger point", "relevance": "HIGH"}, {"id": "M4217", "name": "Anti-Inflammatory Agents", "relevance": "LOW"}, {"id": "M5269", "name": "Bronchodilator Agents", "relevance": "LOW"}, {"id": "M20963", "name": "Anti-Asthmatic Agents", "relevance": "LOW"}, {"id": "M21137", "name": "Respiratory System Agents", "relevance": "LOW"}, {"id": "M9047", "name": "Glucocorticoids", "relevance": "LOW"}, {"id": "M9789", "name": "Hormones", "relevance": "LOW"}, {"id": "M9788", "name": "Hormone Antagonists", "relevance": "LOW"}, {"id": "M20746", "name": "Adrenergic Agents", "relevance": "LOW"}, {"id": "M3670", "name": "Adrenergic beta-Agonists", "relevance": "LOW"}, {"id": "M3673", "name": "Adrenergic Agonists", "relevance": "LOW"}, {"id": "M20504", "name": "Neurotransmitter Agents", "relevance": "LOW"}], "browseBranches": [{"abbrev": "Infl", "name": "Anti-Inflammatory Agents"}, {"abbrev": "Resp", "name": "Respiratory System Agents"}, {"abbrev": "All", "name": "All Drugs and Chemicals"}]}}, "hasResults": true}