{"protocolSection": {"identificationModule": {"nctId": "NCT01350336", "orgStudyIdInfo": {"id": "10-02"}, "organization": {"fullName": "Boston Scientific Corporation", "class": "INDUSTRY"}, "briefTitle": "Bronchial Thermoplasty in Severe Persistent Asthma", "officialTitle": "Post-FDA Approval Clinical Trial Evaluating Bronchial Thermoplasty in Severe Persistent Asthma", "acronym": "PAS2"}, "statusModule": {"statusVerifiedDate": "2021-02", "overallStatus": "COMPLETED", "expandedAccessInfo": {"hasExpandedAccess": false}, "startDateStruct": {"date": "2011-04-07", "type": "ACTUAL"}, "primaryCompletionDateStruct": {"date": "2019-11-12", "type": "ACTUAL"}, "completionDateStruct": {"date": "2020-03-17", "type": "ACTUAL"}, "studyFirstSubmitDate": "2011-04-15", "studyFirstSubmitQcDate": "2011-05-06", "studyFirstPostDateStruct": {"date": "2011-05-09", "type": "ESTIMATED"}, "resultsFirstSubmitDate": "2021-01-25", "resultsFirstSubmitQcDate": "2021-02-13", "resultsFirstPostDateStruct": {"date": "2021-03-05", "type": "ACTUAL"}, "lastUpdateSubmitDate": "2021-02-13", "lastUpdatePostDateStruct": {"date": "2021-03-05", "type": "ACTUAL"}}, "sponsorCollaboratorsModule": {"responsibleParty": {"type": "SPONSOR"}, "leadSponsor": {"name": "Boston Scientific Corporation", "class": "INDUSTRY"}}, "oversightModule": {"oversightHasDmc": true}, "descriptionModule": {"briefSummary": "As Conditions of Approval of the PMA for the Alair System, the FDA requires Boston Scientific to generate data to assess the durability of the BT treatment effect as well as safety data in the intended use population in the United States.", "detailedDescription": "This is a multicenter, open-label, single arm study designed to demonstrate durability of the treatment effect and to evaluate the short-term and longer-term safety profile of the Alair System in the United States in the intended use population (patients 18 years and older with severe persistent asthma)."}, "conditionsModule": {"conditions": ["Severe Asthma"]}, "designModule": {"studyType": "INTERVENTIONAL", "phases": ["NA"], "designInfo": {"allocation": "NA", "interventionModel": "SINGLE_GROUP", "primaryPurpose": "TREATMENT", "maskingInfo": {"masking": "NONE"}}, "enrollmentInfo": {"count": 284, "type": "ACTUAL"}}, "armsInterventionsModule": {"armGroups": [{"label": "Alair", "type": "EXPERIMENTAL", "description": "Alair system", "interventionNames": ["Device: Alair System"]}], "interventions": [{"type": "DEVICE", "name": "Alair System", "description": "Treatment of airways with the Alair System", "armGroupLabels": ["Alair"]}]}, "outcomesModule": {"primaryOutcomes": [{"measure": "Subjects Experiencing Severe Exacerbations (Rates)", "description": "The primary endpoint will be the proportion of subjects experiencing severe exacerbations during the subsequent 12-month (for Years 2, 3, 4, and 5) compared to the first 12-month after the Alair treatment.", "timeFrame": "Year 1 vs. Year 2, 3, 4, 5"}], "secondaryOutcomes": [{"measure": "Rates of Severe Exacerbations", "description": "# Severe exacerbations / subject / year", "timeFrame": "Year 1-5"}, {"measure": "Respiratory Adverse Event Rates", "description": "A respiratory adverse event is defined as any sign, symptom, illness, clinically significant abnormal laboratory value, or other adverse medical event associated with the \"Respiratory System\" that appears or worsens in a subject during a clinical study, regardless of whether or not it is considered related to the procedure used as part of the protocol.", "timeFrame": "Year 1-5"}, {"measure": "Subjects With Respiratory Adverse Events", "description": "A respiratory adverse event is defined as any sign, symptom, illness, clinically significant abnormal laboratory value, or other adverse medical event associated with the \"Respiratory System\" that appears or worsens in a subject during a clinical study, regardless of whether or not it is considered related to the procedure used as part of the protocol.", "timeFrame": "Year 1-5"}, {"measure": "Emergency Room Visits for Respiratory Symptoms Rates", "description": "Emergency room visits for respiratory symptoms (rates of emergency room visits)", "timeFrame": "Year 1-5"}, {"measure": "Subjects With Emergency Room Visits for Respiratory Symptoms", "description": "Subjects with Emergency room visits for respiratory symptoms", "timeFrame": "Year 1-5"}, {"measure": "Hospitalizations for Respiratory Symptoms Rates", "description": "(# hospitalizations for respiratory symptoms / subject / year)", "timeFrame": "Year 1-5"}, {"measure": "Subjects With Hospitalizations for Respiratory Symptoms", "description": "Subjects with hospitalizations for respiratory symptoms", "timeFrame": "Year 1-5"}, {"measure": "Respiratory Serious Adverse Events Rates", "description": "The rate of subjects with respiratory serious adverse events (SAEs)", "timeFrame": "Year 1-5"}, {"measure": "Subjects With Respiratory Serious Adverse Events", "description": "Subjects with Respiratory Serious Adverse Events", "timeFrame": "Year 1-5"}, {"measure": "Pre-bronchodilator FEV1", "description": "% Predicted Pre-bronchodilator FEV1", "timeFrame": "Year 1-5"}, {"measure": "Post-bronchodilator FEV1", "description": "% Predicted Post-bronchodilator FEV1", "timeFrame": "Year 1-5"}]}, "eligibilityModule": {"eligibilityCriteria": "Inclusion Criteria:\n\n1. Subject is an adult between the ages of 18 to 65 years.\n2. Subject is able to read, understand, and sign a written Informed Consent to participate in the study and able to comply with the study protocol.\n3. Subject has asthma and is taking regular maintenance medication that includes:\n\n   1. Inhaled corticosteroid (ICS) at a dosage greater than 1000\u03bcg beclomethasone per day or equivalent, AND long acting \u03b22-agonist (LABA) at a dosage of \u226580\u03bcg per day Salmeterol or equivalent.\n   2. Other asthma medications such as leukotriene modifiers, or anti-IgE, are acceptable (Subjects on Xolair\u00ae must have been on Xolair for greater than 1 year).\n   3. Oral corticosteroids (OCS) at a dosage of up to, but not greater than 10mg per day are acceptable.\\*\n4. Subject has a pre-bronchodilator FEV1 of greater than or equal to 60% of predicted.\n5. Subject is a non-smoker for 1 year or greater (if former smoker, less than 10 pack years total smoking history).\n6. Subject is able to undergo outpatient (same day) bronchoscopy in the opinion of the investigator or per hospital guidelines.\n7. Subject has at least 2 days of asthma symptoms in the last 4 weeks.\n8. Subject has an AQLQ score during the baseline period of 6.25 or less.\n\n   * NOTE: Subjects on a dosage regimen of 20mg OCS every other day may be included as this is equivalent to an average daily dosage of 10mg.\n\nExclusion Criteria:\n\n1. Subject is participating in another clinical trial within 6 weeks of the Baseline Period involving respiratory intervention that could affect the outcome measures of this Study.\n2. Over the last 7 days of a 4 week medication stable period, subject requirement for rescue medication use other than for prophylactic use for exercise exceeds an average of:\n\n   1. 8 puffs per day of short-acting bronchodilator, or\n   2. 4 puffs per day of long-acting rescue bronchodilator, or\n   3. 2 nebulizer treatments per day. At the discretion of the Principal Investigator, subjects considered as unstable on baseline medications may have medications adjusted and re-evaluated after a 4 week medication stabilization period.\n3. Subject has a post-bronchodilator FEV1 of less than 65%.\n4. Subject has a history of life-threatening asthma, defined by past intubation for asthma, or ICU admission for asthma within the prior 2 years.\n5. Subject has 3 or more hospitalizations for exacerbations of asthma in the previous year.\n6. Subject has had 4 or more infections of lower respiratory tract (LRTI) requiring antibiotics in the past 12 months.\n7. Subject has had 4 or more pulses of systemic corticosteroids (tablets, suspension or injection) for asthma symptoms in the past 12 months.\n8. Subject has a known sensitivity to medications required to perform bronchoscopy (such as lidocaine, atropine and benzodiazepines).\n9. Subject has other respiratory diseases including emphysema, cystic fibrosis, vocal cord dysfunction, mechanical upper airway obstruction, Churg-Strauss syndrome, and allergic bronchopulmonary aspergillosis (asthma, immediate cutaneous reactivity to A. fumigatus, total serum IgE of \\>1000ng/mL, elevated specific IgE and IgG to A. fumigatus with or without evidence of central bronchiectasis).\n10. Subject has segmental atelectasis, lobar consolidation, significant or unstable pulmonary infiltrate, or pneumothorax, confirmed on x-ray.\n11. Subject currently has clinically significant cardiovascular disease, including myocardial infarction, angina, cardiac dysfunction, cardiac dysrhythmia, conduction defect, cardiomyopathy, or stroke.\n12. Subject has a known aortic aneurysm.\n13. Subject has significant co-morbid illness such as cancer, renal failure, liver disease, or cerebral vascular disease.\n14. Subject has uncontrolled hypertension (\\>200mm Hg systolic or \\>100mm Hg diastolic pressure).\n15. Subject has an implanted electrical stimulation device (e.g., a pacemaker, cardiac defibrillator, or deep nerve or deep brain stimulator).\n16. Subject has coagulopathy (INR \\> 1.5).\n17. Subject has any other medical condition that would make them inappropriate for study participation, in the Investigator's opinion.", "healthyVolunteers": false, "sex": "ALL", "minimumAge": "18 Years", "maximumAge": "65 Years", "stdAges": ["ADULT", "OLDER_ADULT"]}, "contactsLocationsModule": {"overallOfficials": [{"name": "Thomas S Bowman, MD", "affiliation": "Boston Scientific Corporation", "role": "STUDY_DIRECTOR"}], "locations": [{"facility": "University of Alabama at Birmingham Lung Health Center", "city": "Birmingham", "state": "Alabama", "zip": "35294", "country": "United States", "geoPoint": {"lat": 33.52066, "lon": -86.80249}}, {"facility": "Yale University Center for Asthma and Airway Disease", "city": "New Haven", "state": "Connecticut", "zip": "06520", "country": "United States", "geoPoint": {"lat": 41.30815, "lon": -72.92816}}, {"facility": "University of Chicago", "city": "Chicago", "state": "Illinois", "zip": "60637", "country": "United States", "geoPoint": {"lat": 41.85003, "lon": -87.65005}}, {"facility": "University of Iowa", "city": "Iowa City", "state": "Iowa", "zip": "52242", "country": "United States", "geoPoint": {"lat": 41.66113, "lon": -91.53017}}, {"facility": "LSU Health Sciences", "city": "New Orleans", "state": "Louisiana", "zip": "70112", "country": "United States", "geoPoint": {"lat": 29.95465, "lon": -90.07507}}, {"facility": "St. Elizabeth's Medical Center", "city": "Boston", "state": "Massachusetts", "zip": "02135", "country": "United States", "geoPoint": {"lat": 42.35843, "lon": -71.05977}}, {"facility": "Beth Israel Deaconess Medical Center", "city": "Boston", "state": "Massachusetts", "zip": "02215", "country": "United States", "geoPoint": {"lat": 42.35843, "lon": -71.05977}}, {"facility": "Lahey Clinic", "city": "Burlington", "state": "Massachusetts", "zip": "01805", "country": "United States", "geoPoint": {"lat": 42.50482, "lon": -71.19561}}, {"facility": "Henry Ford Hospital", "city": "Detroit", "state": "Michigan", "zip": "48202", "country": "United States", "geoPoint": {"lat": 42.33143, "lon": -83.04575}}, {"facility": "Spectrum Health Hospitals", "city": "Grand Rapids", "state": "Michigan", "zip": "49503", "country": "United States", "geoPoint": {"lat": 42.96336, "lon": -85.66809}}, {"facility": "HealthPartners Specialty Center, Lung and Sleep Health", "city": "Saint Paul", "state": "Minnesota", "zip": "55103", "country": "United States", "geoPoint": {"lat": 44.94441, "lon": -93.09327}}, {"facility": "Washington University School of Medicine", "city": "Saint Louis", "state": "Missouri", "zip": "63110", "country": "United States", "geoPoint": {"lat": 38.62727, "lon": -90.19789}}, {"facility": "Duke University", "city": "Durham", "state": "North Carolina", "zip": "27710", "country": "United States", "geoPoint": {"lat": 35.99403, "lon": -78.89862}}, {"facility": "Cleveland Clinic Foundation", "city": "Cleveland", "state": "Ohio", "zip": "44195", "country": "United States", "geoPoint": {"lat": 41.4995, "lon": -81.69541}}, {"facility": "DuBois Regional Medical Center", "city": "DuBois", "state": "Pennsylvania", "zip": "15801", "country": "United States", "geoPoint": {"lat": 41.11923, "lon": -78.76003}}, {"facility": "Pennsylvania State Hershey", "city": "Hershey", "state": "Pennsylvania", "zip": "17033", "country": "United States", "geoPoint": {"lat": 40.28592, "lon": -76.65025}}, {"facility": "University of Pennsylvania", "city": "Philadelphia", "state": "Pennsylvania", "zip": "19104", "country": "United States", "geoPoint": {"lat": 39.95233, "lon": -75.16379}}, {"facility": "Medical University of South Carolina", "city": "Charleston", "state": "South Carolina", "zip": "29425", "country": "United States", "geoPoint": {"lat": 32.77657, "lon": -79.93092}}, {"facility": "University of Virginia Medical Center", "city": "Charlottesville", "state": "Virginia", "zip": "22908", "country": "United States", "geoPoint": {"lat": 38.02931, "lon": -78.47668}}, {"facility": "Pulmonary Associates of Richmond", "city": "Richmond", "state": "Virginia", "zip": "23225", "country": "United States", "geoPoint": {"lat": 37.55376, "lon": -77.46026}}, {"facility": "Franciscan Research Center (St. Joseph Medical Center)", "city": "Tacoma", "state": "Washington", "zip": "98405", "country": "United States", "geoPoint": {"lat": 47.25288, "lon": -122.44429}}, {"facility": "MultiCare Pulmonary Specialists", "city": "Tacoma", "state": "Washington", "zip": "98405", "country": "United States", "geoPoint": {"lat": 47.25288, "lon": -122.44429}}, {"facility": "University of Wisconsin", "city": "Madison", "state": "Wisconsin", "zip": "53792", "country": "United States", "geoPoint": {"lat": 43.07305, "lon": -89.40123}}, {"facility": "Surrey Memorial Hospital", "city": "Surrey", "state": "British Columbia", "zip": "V3T 0G9", "country": "Canada", "geoPoint": {"lat": 49.10635, "lon": -122.82509}}, {"facility": "Vancouver General Hospital, University of British Columbia", "city": "Vancouver", "state": "British Columbia", "zip": "V5Z 1M9", "country": "Canada", "geoPoint": {"lat": 49.24966, "lon": -123.11934}}, {"facility": "Montreal Chest Institute", "city": "Montreal", "state": "Quebec", "zip": "H2X 2P4", "country": "Canada", "geoPoint": {"lat": 45.50884, "lon": -73.58781}}, {"facility": "Hospital Laval Centre de Pneumologie", "city": "Sainte-Foy", "state": "Quebec", "zip": "G1V 4G5", "country": "Canada", "geoPoint": {"lat": 46.75615, "lon": -71.29543}}]}, "referencesModule": {"references": [{"pmid": "34774528", "type": "DERIVED", "citation": "Chupp G, Kline JN, Khatri SB, McEvoy C, Silvestri GA, Shifren A, Castro M, Bansal S, McClelland M, Dransfield M, Trevor J, Kahlstrom N, Simoff M, Wahidi MM, Lamb CR, Ferguson JS, Haas A, Hogarth DK, Tejedor R, Toth J, Hey J, Majid A, LaCamera P, Fitzgerald JM, Enfield K, Grubb GM, McMullen EA, Olson JL, Laviolette M. Bronchial Thermoplasty in Patients With Severe Asthma at 5 Years: The Post-FDA Approval Clinical Trial Evaluating Bronchial Thermoplasty in Severe Persistent Asthma Study. Chest. 2022 Mar;161(3):614-628. doi: 10.1016/j.chest.2021.10.044. Epub 2021 Nov 10."}], "seeAlsoLinks": [{"label": "Bronchial Thermoplasty", "url": "http://www.btforasthma.com/"}]}, "ipdSharingStatementModule": {"ipdSharing": "YES", "infoTypes": ["STUDY_PROTOCOL", "SAP"], "timeFrame": "Following Last Patient Out, when Results are posted."}}, "resultsSection": {"participantFlowModule": {"typeUnitsAnalyzed": "Procedure", "groups": [{"id": "FG000", "title": "Alair", "description": "Participants consented for treatment with Alair"}], "periods": [{"title": "Overall Study", "milestones": [{"type": "STARTED", "achievements": [{"groupId": "FG000", "numSubjects": "284", "numUnits": "279"}]}, {"type": "COMPLETED", "achievements": [{"groupId": "FG000", "numSubjects": "227", "numUnits": "227"}]}, {"type": "NOT COMPLETED", "achievements": [{"groupId": "FG000", "numSubjects": "57", "numUnits": "52"}]}], "dropWithdraws": [{"type": "Lost to Follow-up", "reasons": [{"groupId": "FG000", "numSubjects": "31"}]}, {"type": "Withdrawal by Subject", "reasons": [{"groupId": "FG000", "numSubjects": "14"}]}, {"type": "Physician Decision", "reasons": [{"groupId": "FG000", "numSubjects": "8"}]}, {"type": "Death", "reasons": [{"groupId": "FG000", "numSubjects": "4"}]}]}]}, "baselineCharacteristicsModule": {"populationDescription": "Subjects with at least 1 BT procedure.", "groups": [{"id": "BG000", "title": "Alair", "description": "Alair system\n\nAlair System: Treatment of airways with the Alair System"}], "denoms": [{"units": "Participants", "counts": [{"groupId": "BG000", "value": "279"}]}], "measures": [{"title": "Age, Continuous", "paramType": "MEAN", "dispersionType": "FULL_RANGE", "unitOfMeasure": "years", "classes": [{"categories": [{"measurements": [{"groupId": "BG000", "value": "45.71", "lowerLimit": "18", "upperLimit": "66"}]}]}]}, {"title": "Sex: Female, Male", "paramType": "COUNT_OF_PARTICIPANTS", "unitOfMeasure": "Participants", "classes": [{"categories": [{"title": "Female", "measurements": [{"groupId": "BG000", "value": "180"}]}, {"title": "Male", "measurements": [{"groupId": "BG000", "value": "99"}]}]}]}, {"title": "Race/Ethnicity, Customized", "paramType": "COUNT_OF_PARTICIPANTS", "unitOfMeasure": "Participants", "classes": [{"title": "American Indian or Alaska native", "categories": [{"measurements": [{"groupId": "BG000", "value": "3"}]}]}, {"title": "Asian", "categories": [{"measurements": [{"groupId": "BG000", "value": "4"}]}]}, {"title": "Black, of African Heritage", "categories": [{"measurements": [{"groupId": "BG000", "value": "25"}]}]}, {"title": "Caucasian", "categories": [{"measurements": [{"groupId": "BG000", "value": "234"}]}]}, {"title": "Hispanic or Latino", "categories": [{"measurements": [{"groupId": "BG000", "value": "8"}]}]}, {"title": "Other", "categories": [{"measurements": [{"groupId": "BG000", "value": "5"}]}]}]}, {"title": "Height", "paramType": "MEAN", "dispersionType": "FULL_RANGE", "unitOfMeasure": "cm", "classes": [{"categories": [{"measurements": [{"groupId": "BG000", "value": "167.4", "lowerLimit": "133", "upperLimit": "195"}]}]}]}, {"title": "Weight", "paramType": "MEAN", "dispersionType": "FULL_RANGE", "unitOfMeasure": "kg", "classes": [{"categories": [{"measurements": [{"groupId": "BG000", "value": "90.3", "lowerLimit": "49", "upperLimit": "185.5"}]}]}]}, {"title": "BMI", "paramType": "MEAN", "dispersionType": "FULL_RANGE", "unitOfMeasure": "kg/m2", "classes": [{"categories": [{"measurements": [{"groupId": "BG000", "value": "32.2", "lowerLimit": "18.2", "upperLimit": "61.3"}]}]}]}, {"title": "AQLQ", "description": "There are 32 questions in the Asthma Quality of Life Questionnaire (AQLQ) and they are in 4 domains (symptoms, activity limitation, emotional function and environmental stimuli). Patients are asked to think about how they have been during the previous two weeks and to respond to each of the 32 questions on a 7-point scale (7 = not impaired at all - 1 = severely impaired). The overall AQLQ score is the mean of all 32 responses and the individual domain scores are the means of the items in those domains.", "paramType": "MEAN", "dispersionType": "STANDARD_DEVIATION", "unitOfMeasure": "AQLQ Score", "classes": [{"categories": [{"measurements": [{"groupId": "BG000", "value": "4.03", "spread": "1.28"}]}]}]}, {"title": "FEV1 - % Predicted", "paramType": "MEAN", "dispersionType": "STANDARD_DEVIATION", "unitOfMeasure": "% Predicted", "classes": [{"title": "Pre-bronchodilator FEV1", "categories": [{"measurements": [{"groupId": "BG000", "value": "80.4", "spread": "13.7"}]}]}, {"title": "Post-bronchodilator FEV1", "categories": [{"measurements": [{"groupId": "BG000", "value": "85.8", "spread": "13.6"}]}]}]}, {"title": "Prior 12 months - % Subjects", "paramType": "COUNT_OF_PARTICIPANTS", "unitOfMeasure": "Participants", "classes": [{"title": "Severe Exacerbations", "categories": [{"measurements": [{"groupId": "BG000", "value": "217"}]}]}, {"title": "Hospitalization for asthma", "categories": [{"measurements": [{"groupId": "BG000", "value": "45"}]}]}, {"title": "ER visits for asthma", "categories": [{"measurements": [{"groupId": "BG000", "value": "82"}]}]}]}, {"title": "Prior 12 months - Event rates", "paramType": "MEAN", "dispersionType": "STANDARD_DEVIATION", "unitOfMeasure": "# events / subject", "classes": [{"title": "Severe Exacerbations", "categories": [{"measurements": [{"groupId": "BG000", "value": "1.61", "spread": "1.12"}]}]}, {"title": "Hospitalizations for asthma", "categories": [{"measurements": [{"groupId": "BG000", "value": "0.22", "spread": "0.53"}]}]}, {"title": "ER visits for asthma", "categories": [{"measurements": [{"groupId": "BG000", "value": "0.54", "spread": "1.20"}]}]}]}]}, "outcomeMeasuresModule": {"outcomeMeasures": [{"type": "PRIMARY", "title": "Subjects Experiencing Severe Exacerbations (Rates)", "description": "The primary endpoint will be the proportion of subjects experiencing severe exacerbations during the subsequent 12-month (for Years 2, 3, 4, and 5) compared to the first 12-month after the Alair treatment.", "populationDescription": "Primary Endpoint - the proportion of subjects experiencing severe exacerbations during the subsequent 12-month (for Years 2, 3, 4, and 5) compared to the first 12-month after the Alair treatment.", "reportingStatus": "POSTED", "paramType": "COUNT_OF_PARTICIPANTS", "unitOfMeasure": "Participants", "timeFrame": "Year 1 vs. Year 2, 3, 4, 5", "groups": [{"id": "OG000", "title": "Year 1", "description": "Proportion of Severe Exacerbations at Year 1"}, {"id": "OG001", "title": "Year 2", "description": "Proportion of Severe Exacerbations at Year 2"}, {"id": "OG002", "title": "Year 3", "description": "Proportion of Severe Exacerbations at Year 3"}, {"id": "OG003", "title": "Year 4", "description": "Proportion of Severe Exacerbations at Year 4"}, {"id": "OG004", "title": "Year 5", "description": "Proportion of Severe Exacerbations at Year 5"}], "denoms": [{"units": "Participants", "counts": [{"groupId": "OG000", "value": "262"}, {"groupId": "OG001", "value": "252"}, {"groupId": "OG002", "value": "247"}, {"groupId": "OG003", "value": "240"}, {"groupId": "OG004", "value": "227"}]}], "classes": [{"categories": [{"measurements": [{"groupId": "OG000", "value": "132"}, {"groupId": "OG001", "value": "118"}, {"groupId": "OG002", "value": "118"}, {"groupId": "OG003", "value": "106"}, {"groupId": "OG004", "value": "97"}]}]}], "analyses": [{"groupIds": ["OG000", "OG001"], "groupDescription": "Comparison of Years 1 and 2", "nonInferiorityType": "NON_INFERIORITY", "nonInferiorityComment": "An upper 95% confidence limit of the difference between Year 2 compared to the first 12-month proportion is less than 20% will demonstrate that the proportions are not substantially worse during each of the subsequent evaluation periods.", "paramType": "Difference of proportions", "paramValue": "-0.0380", "ciPctValue": "95", "ciNumSides": "TWO_SIDED", "ciLowerLimit": "-0.1251", "ciUpperLimit": "0.0497"}, {"groupIds": ["OG000", "OG002"], "groupDescription": "Comparison of Years 1 and 3", "nonInferiorityType": "NON_INFERIORITY", "nonInferiorityComment": "An upper 95% confidence limit of the difference between Year 3 compared to the first 12-month proportion is less than 20% will demonstrate that the proportions are not substantially worse during each of the subsequent evaluation periods.", "paramType": "Difference of proportions", "paramValue": "-0.0325", "ciPctValue": "95", "ciNumSides": "TWO_SIDED", "ciLowerLimit": "-0.1197", "ciUpperLimit": "0.0565"}, {"groupIds": ["OG000", "OG003"], "groupDescription": "Comparison of Years 1 and 4", "nonInferiorityType": "NON_INFERIORITY", "nonInferiorityComment": "An upper 95% confidence limit of the difference between Year 4 compared to the first 12-month proportion is less than 20% will demonstrate that the proportions are not substantially worse during each of the subsequent evaluation periods.", "paramType": "Difference of proportions", "paramValue": "-0.0566", "ciPctValue": "95", "ciNumSides": "TWO_SIDED", "ciLowerLimit": "-0.1444", "ciUpperLimit": "0.0329"}, {"groupIds": ["OG000", "OG004"], "groupDescription": "Comparison of Years 1 and 5", "nonInferiorityType": "NON_INFERIORITY", "nonInferiorityComment": "An upper 95% confidence limit of the difference between Year 5 compared to the first 12-month proportion is less than 20% will demonstrate that the proportions are not substantially worse during each of the subsequent evaluation periods.", "paramType": "Difference of proportions", "paramValue": "-0.0765", "ciPctValue": "95", "ciNumSides": "TWO_SIDED", "ciLowerLimit": "-0.1661", "ciUpperLimit": "0.0130"}]}, {"type": "SECONDARY", "title": "Rates of Severe Exacerbations", "description": "# Severe exacerbations / subject / year", "reportingStatus": "POSTED", "paramType": "MEAN", "dispersionType": "Standard Deviation", "unitOfMeasure": "# Severe Exacerbations / subject / year", "timeFrame": "Year 1-5", "groups": [{"id": "OG000", "title": "Year 1", "description": "Rates of Severe Exacerbations at Year 1"}, {"id": "OG001", "title": "Year 2", "description": "Rates of Severe Exacerbations at Year 2"}, {"id": "OG002", "title": "Year 3", "description": "Rates of Severe Exacerbations at Year 3"}, {"id": "OG003", "title": "Year 4", "description": "Rates of Severe Exacerbations at Year 4"}, {"id": "OG004", "title": "Year 5", "description": "Rates of Severe Exacerbations at Year 5"}], "denoms": [{"units": "Participants", "counts": [{"groupId": "OG000", "value": "262"}, {"groupId": "OG001", "value": "252"}, {"groupId": "OG002", "value": "247"}, {"groupId": "OG003", "value": "240"}, {"groupId": "OG004", "value": "227"}]}], "classes": [{"categories": [{"measurements": [{"groupId": "OG000", "value": "0.93", "spread": "1.35"}, {"groupId": "OG001", "value": ".92", "spread": "1.21"}, {"groupId": "OG002", "value": ".77", "spread": "1.01"}, {"groupId": "OG003", "value": ".84", "spread": "1.23"}, {"groupId": "OG004", "value": ".72", "spread": "1.13"}]}]}]}, {"type": "SECONDARY", "title": "Respiratory Adverse Event Rates", "description": "A respiratory adverse event is defined as any sign, symptom, illness, clinically significant abnormal laboratory value, or other adverse medical event associated with the \"Respiratory System\" that appears or worsens in a subject during a clinical study, regardless of whether or not it is considered related to the procedure used as part of the protocol.", "reportingStatus": "POSTED", "paramType": "MEAN", "dispersionType": "Standard Deviation", "unitOfMeasure": "# Resp. AE / subject / year", "timeFrame": "Year 1-5", "groups": [{"id": "OG000", "title": "Year 1", "description": "Respiratory adverse events at Year 1"}, {"id": "OG001", "title": "Year 2", "description": "Respiratory adverse events at Year 2"}, {"id": "OG002", "title": "Year 3", "description": "Respiratory adverse events at Year 3"}, {"id": "OG003", "title": "Year 4", "description": "Respiratory adverse events at Year 4"}, {"id": "OG004", "title": "Year 5", "description": "Respiratory adverse events at Year"}], "denoms": [{"units": "Participants", "counts": [{"groupId": "OG000", "value": "276"}, {"groupId": "OG001", "value": "262"}, {"groupId": "OG002", "value": "250"}, {"groupId": "OG003", "value": "240"}, {"groupId": "OG004", "value": "235"}]}], "classes": [{"categories": [{"measurements": [{"groupId": "OG000", "value": "1.70", "spread": "1.95"}, {"groupId": "OG001", "value": "1.52", "spread": "1.66"}, {"groupId": "OG002", "value": "1.28", "spread": "1.42"}, {"groupId": "OG003", "value": "1.35", "spread": "1.63"}, {"groupId": "OG004", "value": "1.22", "spread": "1.92"}]}]}]}, {"type": "SECONDARY", "title": "Subjects With Respiratory Adverse Events", "description": "A respiratory adverse event is defined as any sign, symptom, illness, clinically significant abnormal laboratory value, or other adverse medical event associated with the \"Respiratory System\" that appears or worsens in a subject during a clinical study, regardless of whether or not it is considered related to the procedure used as part of the protocol.", "reportingStatus": "POSTED", "paramType": "COUNT_OF_PARTICIPANTS", "unitOfMeasure": "Participants", "timeFrame": "Year 1-5", "groups": [{"id": "OG000", "title": "Year 1", "description": "Respiratory adverse events at Year 1"}, {"id": "OG001", "title": "Year 2", "description": "Respiratory adverse events at Year 2"}, {"id": "OG002", "title": "Year 3", "description": "Respiratory adverse events at Year 3"}, {"id": "OG003", "title": "Year 4", "description": "Respiratory adverse events at Year 4"}, {"id": "OG004", "title": "Year 5", "description": "Respiratory adverse events at Year 5"}], "denoms": [{"units": "Participants", "counts": [{"groupId": "OG000", "value": "276"}, {"groupId": "OG001", "value": "262"}, {"groupId": "OG002", "value": "250"}, {"groupId": "OG003", "value": "240"}, {"groupId": "OG004", "value": "235"}]}], "classes": [{"categories": [{"measurements": [{"groupId": "OG000", "value": "184"}, {"groupId": "OG001", "value": "165"}, {"groupId": "OG002", "value": "155"}, {"groupId": "OG003", "value": "141"}, {"groupId": "OG004", "value": "133"}]}]}]}, {"type": "SECONDARY", "title": "Emergency Room Visits for Respiratory Symptoms Rates", "description": "Emergency room visits for respiratory symptoms (rates of emergency room visits)", "reportingStatus": "POSTED", "paramType": "MEAN", "dispersionType": "Standard Deviation", "unitOfMeasure": "# ER Visit / subject / year", "timeFrame": "Year 1-5", "groups": [{"id": "OG000", "title": "Year 1", "description": "Emergency room visits for respiratory symptoms rates at Year 1"}, {"id": "OG001", "title": "Year 2", "description": "Emergency room visits for respiratory symptoms rates at Year 2"}, {"id": "OG002", "title": "Year 3", "description": "Emergency room visits for respiratory symptoms rates at Year 3"}, {"id": "OG003", "title": "Year 4", "description": "Emergency room visits for respiratory symptoms rates at Year 4"}, {"id": "OG004", "title": "Year 5", "description": "Emergency room visits for respiratory symptoms rates at Year 5"}], "denoms": [{"units": "Participants", "counts": [{"groupId": "OG000", "value": "262"}, {"groupId": "OG001", "value": "252"}, {"groupId": "OG002", "value": "247"}, {"groupId": "OG003", "value": "240"}, {"groupId": "OG004", "value": "227"}]}], "classes": [{"categories": [{"measurements": [{"groupId": "OG000", "value": ".31", "spread": ".87"}, {"groupId": "OG001", "value": ".24", "spread": ".80"}, {"groupId": "OG002", "value": ".21", "spread": ".65"}, {"groupId": "OG003", "value": ".17", "spread": ".56"}, {"groupId": "OG004", "value": ".13", "spread": "0.49"}]}]}]}, {"type": "SECONDARY", "title": "Subjects With Emergency Room Visits for Respiratory Symptoms", "description": "Subjects with Emergency room visits for respiratory symptoms", "reportingStatus": "POSTED", "paramType": "COUNT_OF_PARTICIPANTS", "unitOfMeasure": "Participants", "timeFrame": "Year 1-5", "groups": [{"id": "OG000", "title": "Year 1", "description": "Emergency room visits for respiratory symptoms proportions at Year 1"}, {"id": "OG001", "title": "Year 2", "description": "Emergency room visits for respiratory symptoms proportions at Year 2"}, {"id": "OG002", "title": "Year 3", "description": "Emergency room visits for respiratory symptoms proportions at Year 3"}, {"id": "OG003", "title": "Year 4", "description": "Emergency room visits for respiratory symptoms proportions at Year 4"}, {"id": "OG004", "title": "Year 5", "description": "Emergency room visits for respiratory symptoms proportions at Year 5"}], "denoms": [{"units": "Participants", "counts": [{"groupId": "OG000", "value": "262"}, {"groupId": "OG001", "value": "252"}, {"groupId": "OG002", "value": "247"}, {"groupId": "OG003", "value": "240"}, {"groupId": "OG004", "value": "227"}]}], "classes": [{"categories": [{"measurements": [{"groupId": "OG000", "value": "48"}, {"groupId": "OG001", "value": "37"}, {"groupId": "OG002", "value": "32"}, {"groupId": "OG003", "value": "28"}, {"groupId": "OG004", "value": "18"}]}]}]}, {"type": "SECONDARY", "title": "Hospitalizations for Respiratory Symptoms Rates", "description": "(# hospitalizations for respiratory symptoms / subject / year)", "reportingStatus": "POSTED", "paramType": "MEAN", "dispersionType": "Standard Deviation", "unitOfMeasure": "# Hospitalizations / subject / year", "timeFrame": "Year 1-5", "groups": [{"id": "OG000", "title": "Year 1", "description": "Hospitalizations for respiratory symptoms rates at Year 1"}, {"id": "OG001", "title": "Year 2", "description": "Hospitalizations for respiratory symptoms rates at Year 2"}, {"id": "OG002", "title": "Year 3", "description": "Hospitalizations for respiratory symptoms rates at Year 3"}, {"id": "OG003", "title": "Year 4", "description": "Hospitalizations for respiratory symptoms rates at Year 4"}, {"id": "OG004", "title": "Year 5", "description": "Hospitalizations for respiratory symptoms rates at Year 5"}], "denoms": [{"units": "Participants", "counts": [{"groupId": "OG000", "value": "262"}, {"groupId": "OG001", "value": "252"}, {"groupId": "OG002", "value": "247"}, {"groupId": "OG003", "value": "240"}, {"groupId": "OG004", "value": "227"}]}], "classes": [{"categories": [{"measurements": [{"groupId": "OG000", "value": "0.13", "spread": "0.50"}, {"groupId": "OG001", "value": "0.11", "spread": "0.47"}, {"groupId": "OG002", "value": "0.11", "spread": "0.47"}, {"groupId": "OG003", "value": "0.05", "spread": "0.28"}, {"groupId": "OG004", "value": "0.06", "spread": "0.31"}]}]}]}, {"type": "SECONDARY", "title": "Subjects With Hospitalizations for Respiratory Symptoms", "description": "Subjects with hospitalizations for respiratory symptoms", "reportingStatus": "POSTED", "paramType": "COUNT_OF_PARTICIPANTS", "unitOfMeasure": "Participants", "timeFrame": "Year 1-5", "groups": [{"id": "OG000", "title": "Year 1", "description": "Hospitalizations for respiratory symptoms proportions at Year 1"}, {"id": "OG001", "title": "Year 2", "description": "Hospitalizations for respiratory symptoms proportions at Year 2"}, {"id": "OG002", "title": "Year 3", "description": "Hospitalizations for respiratory symptoms proportions at Year 3"}, {"id": "OG003", "title": "Year 4", "description": "Hospitalizations for respiratory symptoms proportions at Year 4"}, {"id": "OG004", "title": "Year 5", "description": "Hospitalizations for respiratory symptoms proportions at Year 5"}], "denoms": [{"units": "Participants", "counts": [{"groupId": "OG000", "value": "262"}, {"groupId": "OG001", "value": "252"}, {"groupId": "OG002", "value": "247"}, {"groupId": "OG003", "value": "240"}, {"groupId": "OG004", "value": "227"}]}], "classes": [{"categories": [{"measurements": [{"groupId": "OG000", "value": "21"}, {"groupId": "OG001", "value": "19"}, {"groupId": "OG002", "value": "18"}, {"groupId": "OG003", "value": "8"}, {"groupId": "OG004", "value": "11"}]}]}]}, {"type": "SECONDARY", "title": "Respiratory Serious Adverse Events Rates", "description": "The rate of subjects with respiratory serious adverse events (SAEs)", "reportingStatus": "POSTED", "paramType": "MEAN", "dispersionType": "Standard Deviation", "unitOfMeasure": "# Respiratory SAEs / subect / year", "timeFrame": "Year 1-5", "groups": [{"id": "OG000", "title": "Year 1", "description": "Respiratory Serious Adverse Events rates at Year 1"}, {"id": "OG001", "title": "Year 2", "description": "Respiratory Serious Adverse Events rates at Year 2"}, {"id": "OG002", "title": "Year 3", "description": "Respiratory Serious Adverse Events rates at Year 3"}, {"id": "OG003", "title": "Year 4", "description": "Respiratory Serious Adverse Events rates at Year 4"}, {"id": "OG004", "title": "Year 5", "description": "Respiratory Serious Adverse Events rates at Year 5"}], "denoms": [{"units": "Participants", "counts": [{"groupId": "OG000", "value": "276"}, {"groupId": "OG001", "value": "262"}, {"groupId": "OG002", "value": "250"}, {"groupId": "OG003", "value": "240"}, {"groupId": "OG004", "value": "235"}]}], "classes": [{"categories": [{"measurements": [{"groupId": "OG000", "value": "0.14", "spread": "0.50"}, {"groupId": "OG001", "value": "0.11", "spread": "0.37"}, {"groupId": "OG002", "value": "0.10", "spread": "0.41"}, {"groupId": "OG003", "value": "0.06", "spread": "0.33"}, {"groupId": "OG004", "value": "0.06", "spread": "0.28"}]}]}]}, {"type": "SECONDARY", "title": "Subjects With Respiratory Serious Adverse Events", "description": "Subjects with Respiratory Serious Adverse Events", "reportingStatus": "POSTED", "paramType": "COUNT_OF_PARTICIPANTS", "unitOfMeasure": "Participants", "timeFrame": "Year 1-5", "groups": [{"id": "OG000", "title": "Year 1", "description": "Respiratory Serious Adverse Events proportions at Year 1"}, {"id": "OG001", "title": "Year 2", "description": "Respiratory Serious Adverse Events proportions at Year 2"}, {"id": "OG002", "title": "Year 3", "description": "Respiratory Serious Adverse Events proportions at Year 3"}, {"id": "OG003", "title": "Year 4", "description": "Respiratory Serious Adverse Events proportions at Year 4"}, {"id": "OG004", "title": "Year 5", "description": "Respiratory Serious Adverse Events proportions at Year 5"}], "denoms": [{"units": "Participants", "counts": [{"groupId": "OG000", "value": "276"}, {"groupId": "OG001", "value": "262"}, {"groupId": "OG002", "value": "250"}, {"groupId": "OG003", "value": "240"}, {"groupId": "OG004", "value": "235"}]}], "classes": [{"categories": [{"measurements": [{"groupId": "OG000", "value": "26"}, {"groupId": "OG001", "value": "25"}, {"groupId": "OG002", "value": "17"}, {"groupId": "OG003", "value": "10"}, {"groupId": "OG004", "value": "11"}]}]}]}, {"type": "SECONDARY", "title": "Pre-bronchodilator FEV1", "description": "% Predicted Pre-bronchodilator FEV1", "reportingStatus": "POSTED", "paramType": "MEAN", "dispersionType": "Standard Deviation", "unitOfMeasure": "% Predicted", "timeFrame": "Year 1-5", "groups": [{"id": "OG000", "title": "Year 1", "description": "Respiratory Serious Adverse Events proportions at Year 1"}, {"id": "OG001", "title": "Year 2", "description": "Respiratory Serious Adverse Events proportions at Year 2"}, {"id": "OG002", "title": "Year 3", "description": "Respiratory Serious Adverse Events proportions at Year 3"}, {"id": "OG003", "title": "Year 4", "description": "Respiratory Serious Adverse Events proportions at Year 4"}, {"id": "OG004", "title": "Year 5", "description": "Respiratory Serious Adverse Events proportions at Year 5"}], "denoms": [{"units": "Participants", "counts": [{"groupId": "OG000", "value": "258"}, {"groupId": "OG001", "value": "235"}, {"groupId": "OG002", "value": "235"}, {"groupId": "OG003", "value": "212"}, {"groupId": "OG004", "value": "217"}]}], "classes": [{"categories": [{"measurements": [{"groupId": "OG000", "value": "89.6", "spread": "14.5"}, {"groupId": "OG001", "value": "89.3", "spread": "14.6"}, {"groupId": "OG002", "value": "87.7", "spread": "14.9"}, {"groupId": "OG003", "value": "88.5", "spread": "13.8"}, {"groupId": "OG004", "value": "87.4", "spread": "14.6"}]}]}]}, {"type": "SECONDARY", "title": "Post-bronchodilator FEV1", "description": "% Predicted Post-bronchodilator FEV1", "reportingStatus": "POSTED", "paramType": "MEAN", "dispersionType": "Standard Deviation", "unitOfMeasure": "% Predicted", "timeFrame": "Year 1-5", "groups": [{"id": "OG000", "title": "Year 1", "description": "Respiratory Serious Adverse Events proportions at Year 1"}, {"id": "OG001", "title": "Year 2", "description": "Respiratory Serious Adverse Events proportions at Year 2"}, {"id": "OG002", "title": "Year 3", "description": "Respiratory Serious Adverse Events proportions at Year 3"}, {"id": "OG003", "title": "Year 4", "description": "Respiratory Serious Adverse Events proportions at Year 4"}, {"id": "OG004", "title": "Year 5", "description": "Respiratory Serious Adverse Events proportions at Year 5"}], "denoms": [{"units": "Participants", "counts": [{"groupId": "OG000", "value": "257"}, {"groupId": "OG001", "value": "233"}, {"groupId": "OG002", "value": "229"}, {"groupId": "OG003", "value": "212"}, {"groupId": "OG004", "value": "213"}]}], "classes": [{"categories": [{"measurements": [{"groupId": "OG000", "value": "93.1", "spread": "13.9"}, {"groupId": "OG001", "value": "92.3", "spread": "14.1"}, {"groupId": "OG002", "value": "91.8", "spread": "14.2"}, {"groupId": "OG003", "value": "91.1", "spread": "14.4"}, {"groupId": "OG004", "value": "91.0", "spread": "14.3"}]}]}]}]}, "adverseEventsModule": {"frequencyThreshold": "5", "timeFrame": "5 Years", "description": "Adverse events were collected from the time of first BT procedure through the 5-year follow-up.", "eventGroups": [{"id": "EG000", "title": "Alair", "description": "Alair system\n\nAlair System: Treatment of airways with the Alair System", "deathsNumAffected": 4, "deathsNumAtRisk": 279, "seriousNumAffected": 130, "seriousNumAtRisk": 279, "otherNumAffected": 268, "otherNumAtRisk": 279}], "seriousEvents": [{"term": "Asthma", "organSystem": "Respiratory, thoracic and mediastinal disorders", "sourceVocabulary": "MedDRA (17.1)", "assessmentType": "NON_SYSTEMATIC_ASSESSMENT", "stats": [{"groupId": "EG000", "numEvents": 135, "numAffected": 58, "numAtRisk": 279}]}, {"term": "Pneumonia", "organSystem": "Infections and infestations", "sourceVocabulary": "MedDRA (17.1)", "assessmentType": "NON_SYSTEMATIC_ASSESSMENT", "stats": [{"groupId": "EG000", "numEvents": 12, "numAffected": 10, "numAtRisk": 279}]}, {"term": "Arthralgia", "organSystem": "Musculoskeletal and connective tissue disorders", "sourceVocabulary": "MedDRA (17.1)", "assessmentType": "NON_SYSTEMATIC_ASSESSMENT", "stats": [{"groupId": "EG000", "numEvents": 7, "numAffected": 6, "numAtRisk": 279}]}, {"term": "Procedural pain", "organSystem": "Injury, poisoning and procedural complications", "sourceVocabulary": "MedDRA (17.1)", "assessmentType": "NON_SYSTEMATIC_ASSESSMENT", "stats": [{"groupId": "EG000", "numEvents": 7, "numAffected": 7, "numAtRisk": 279}]}, {"term": "Influenza", "organSystem": "Infections and infestations", "sourceVocabulary": "MedDRA (17.1)", "assessmentType": "NON_SYSTEMATIC_ASSESSMENT", "stats": [{"groupId": "EG000", "numEvents": 7, "numAffected": 5, "numAtRisk": 279}]}, {"term": "Bronchitis", "organSystem": "Infections and infestations", "sourceVocabulary": "MedDRA (17.1)", "assessmentType": "NON_SYSTEMATIC_ASSESSMENT", "stats": [{"groupId": "EG000", "numEvents": 6, "numAffected": 6, "numAtRisk": 279}]}, {"term": "Pulmonary embolism", "organSystem": "Respiratory, thoracic and mediastinal disorders", "sourceVocabulary": "MedDRA (17.1)", "assessmentType": "NON_SYSTEMATIC_ASSESSMENT", "stats": [{"groupId": "EG000", "numEvents": 5, "numAffected": 4, "numAtRisk": 279}]}, {"term": "Non-cardiac chest pain", "organSystem": "General disorders", "sourceVocabulary": "MedDRA (17.1)", "assessmentType": "NON_SYSTEMATIC_ASSESSMENT", "stats": [{"groupId": "EG000", "numEvents": 4, "numAffected": 4, "numAtRisk": 279}]}, {"term": "Atrial fibrillation", "organSystem": "Cardiac disorders", "sourceVocabulary": "MedDRA (17.1)", "assessmentType": "NON_SYSTEMATIC_ASSESSMENT", "stats": [{"groupId": "EG000", "numEvents": 4, "numAffected": 3, "numAtRisk": 279}]}, {"term": "Chest pain", "organSystem": "General disorders", "sourceVocabulary": "MedDRA (17.1)", "assessmentType": "NON_SYSTEMATIC_ASSESSMENT", "stats": [{"groupId": "EG000", "numEvents": 3, "numAffected": 3, "numAtRisk": 279}]}, {"term": "Hiatus hernia", "organSystem": "Gastrointestinal disorders", "sourceVocabulary": "MedDRA (17.1)", "assessmentType": "NON_SYSTEMATIC_ASSESSMENT", "stats": [{"groupId": "EG000", "numEvents": 3, "numAffected": 3, "numAtRisk": 279}]}, {"term": "Diverticulitis", "organSystem": "Infections and infestations", "sourceVocabulary": "MedDRA (17.1)", "assessmentType": "NON_SYSTEMATIC_ASSESSMENT", "stats": [{"groupId": "EG000", "numEvents": 3, "numAffected": 3, "numAtRisk": 279}]}, {"term": "Vocal cord disorder", "organSystem": "Respiratory, thoracic and mediastinal disorders", "sourceVocabulary": "MedDRA (17.1)", "assessmentType": "NON_SYSTEMATIC_ASSESSMENT", "stats": [{"groupId": "EG000", "numEvents": 3, "numAffected": 3, "numAtRisk": 279}]}, {"term": "Back pain", "organSystem": "Musculoskeletal and connective tissue disorders", "sourceVocabulary": "MedDRA (17.1)", "assessmentType": "NON_SYSTEMATIC_ASSESSMENT", "stats": [{"groupId": "EG000", "numEvents": 2, "numAffected": 2, "numAtRisk": 279}]}, {"term": "Angina unstable", "organSystem": "Cardiac disorders", "sourceVocabulary": "MedDRA (17.1)", "assessmentType": "NON_SYSTEMATIC_ASSESSMENT", "stats": [{"groupId": "EG000", "numEvents": 2, "numAffected": 2, "numAtRisk": 279}]}, {"term": "Delivery", "organSystem": "Pregnancy, puerperium and perinatal conditions", "sourceVocabulary": "MedDRA (17.1)", "assessmentType": "NON_SYSTEMATIC_ASSESSMENT", "stats": [{"groupId": "EG000", "numEvents": 2, "numAffected": 2, "numAtRisk": 279}]}, {"term": "Pyelonephritis", "organSystem": "Infections and infestations", "sourceVocabulary": "MedDRA (17.1)", "assessmentType": "NON_SYSTEMATIC_ASSESSMENT", "stats": [{"groupId": "EG000", "numEvents": 2, "numAffected": 2, "numAtRisk": 279}]}, {"term": "Laceration", "organSystem": "Injury, poisoning and procedural complications", "sourceVocabulary": "MedDRA (17.1)", "assessmentType": "NON_SYSTEMATIC_ASSESSMENT", "stats": [{"groupId": "EG000", "numEvents": 2, "numAffected": 2, "numAtRisk": 279}]}, {"term": "Bipolar I disorder", "organSystem": "Psychiatric disorders", "sourceVocabulary": "MedDRA (17.1)", "assessmentType": "NON_SYSTEMATIC_ASSESSMENT", "stats": [{"groupId": "EG000", "numEvents": 2, "numAffected": 1, "numAtRisk": 279}]}, {"term": "Acute respiratory failure", "organSystem": "Respiratory, thoracic and mediastinal disorders", "sourceVocabulary": "MedDRA (17.1)", "assessmentType": "NON_SYSTEMATIC_ASSESSMENT", "stats": [{"groupId": "EG000", "numEvents": 2, "numAffected": 1, "numAtRisk": 279}]}, {"term": "Large intestine perforation", "organSystem": "Gastrointestinal disorders", "sourceVocabulary": "MedDRA (17.1)", "assessmentType": "NON_SYSTEMATIC_ASSESSMENT", "stats": [{"groupId": "EG000", "numEvents": 2, "numAffected": 1, "numAtRisk": 279}]}, {"term": "Haemoptysis", "organSystem": "Respiratory, thoracic and mediastinal disorders", "sourceVocabulary": "MedDRA (17.1)", "assessmentType": "NON_SYSTEMATIC_ASSESSMENT", "stats": [{"groupId": "EG000", "numEvents": 2, "numAffected": 2, "numAtRisk": 279}]}, {"term": "Cellulitis", "organSystem": "Infections and infestations", "sourceVocabulary": "MedDRA (17.1)", "assessmentType": "NON_SYSTEMATIC_ASSESSMENT", "stats": [{"groupId": "EG000", "numEvents": 2, "numAffected": 2, "numAtRisk": 279}]}, {"term": "Myocardial infarction", "organSystem": "Cardiac disorders", "sourceVocabulary": "MedDRA (17.1)", "assessmentType": "NON_SYSTEMATIC_ASSESSMENT", "stats": [{"groupId": "EG000", "numEvents": 2, "numAffected": 2, "numAtRisk": 279}]}, {"term": "Gastrointestinal viral infection", "organSystem": "Infections and infestations", "sourceVocabulary": "MedDRA (17.1)", "assessmentType": "NON_SYSTEMATIC_ASSESSMENT", "stats": [{"groupId": "EG000", "numEvents": 2, "numAffected": 2, "numAtRisk": 279}]}, {"term": "Depression", "organSystem": "Psychiatric disorders", "sourceVocabulary": "MedDRA (17.1)", "assessmentType": "NON_SYSTEMATIC_ASSESSMENT", "stats": [{"groupId": "EG000", "numEvents": 2, "numAffected": 2, "numAtRisk": 279}]}, {"term": "Arthritis", "organSystem": "Musculoskeletal and connective tissue disorders", "sourceVocabulary": "MedDRA (17.1)", "assessmentType": "NON_SYSTEMATIC_ASSESSMENT", "stats": [{"groupId": "EG000", "numEvents": 2, "numAffected": 2, "numAtRisk": 279}]}, {"term": "Atelectasis", "organSystem": "Respiratory, thoracic and mediastinal disorders", "sourceVocabulary": "MedDRA (17.1)", "assessmentType": "NON_SYSTEMATIC_ASSESSMENT", "stats": [{"groupId": "EG000", "numEvents": 2, "numAffected": 2, "numAtRisk": 279}]}, {"term": "Eczema", "organSystem": "Skin and subcutaneous tissue disorders", "sourceVocabulary": "MedDRA (17.1)", "assessmentType": "NON_SYSTEMATIC_ASSESSMENT", "stats": [{"groupId": "EG000", "numEvents": 2, "numAffected": 1, "numAtRisk": 279}]}, {"term": "Lung abscess", "organSystem": "Infections and infestations", "sourceVocabulary": "MedDRA (17.1)", "assessmentType": "NON_SYSTEMATIC_ASSESSMENT", "stats": [{"groupId": "EG000", "numEvents": 2, "numAffected": 2, "numAtRisk": 279}]}, {"term": "Deep vein thrombosis", "organSystem": "Vascular disorders", "sourceVocabulary": "MedDRA (17.1)", "assessmentType": "NON_SYSTEMATIC_ASSESSMENT", "stats": [{"groupId": "EG000", "numEvents": 2, "numAffected": 2, "numAtRisk": 279}]}, {"term": "Overdose", "organSystem": "Injury, poisoning and procedural complications", "sourceVocabulary": "MedDRA (17.1)", "assessmentType": "NON_SYSTEMATIC_ASSESSMENT", "stats": [{"groupId": "EG000", "numEvents": 1, "numAffected": 1, "numAtRisk": 279}]}, {"term": "Adverse drug reaction", "organSystem": "General disorders", "sourceVocabulary": "MedDRA (17.1)", "assessmentType": "NON_SYSTEMATIC_ASSESSMENT", "stats": [{"groupId": "EG000", "numEvents": 1, "numAffected": 1, "numAtRisk": 279}]}, {"term": "Ligament rupture", "organSystem": "Injury, poisoning and procedural complications", "sourceVocabulary": "MedDRA (17.1)", "assessmentType": "NON_SYSTEMATIC_ASSESSMENT", "stats": [{"groupId": "EG000", "numEvents": 1, "numAffected": 1, "numAtRisk": 279}]}, {"term": "Joint injury", "organSystem": "Injury, poisoning and procedural complications", "sourceVocabulary": "MedDRA (17.1)", "assessmentType": "NON_SYSTEMATIC_ASSESSMENT", "stats": [{"groupId": "EG000", "numEvents": 1, "numAffected": 1, "numAtRisk": 279}]}, {"term": "Abdominal hernia", "organSystem": "Gastrointestinal disorders", "sourceVocabulary": "MedDRA (17.1)", "assessmentType": "NON_SYSTEMATIC_ASSESSMENT", "stats": [{"groupId": "EG000", "numEvents": 1, "numAffected": 1, "numAtRisk": 279}]}, {"term": "Tooth malformation", "organSystem": "Gastrointestinal disorders", "sourceVocabulary": "MedDRA (17.1)", "assessmentType": "NON_SYSTEMATIC_ASSESSMENT", "stats": [{"groupId": "EG000", "numEvents": 1, "numAffected": 1, "numAtRisk": 279}]}, {"term": "Upper respiratory tract infection", "organSystem": "Infections and infestations", "sourceVocabulary": "MedDRA (17.1)", "assessmentType": "NON_SYSTEMATIC_ASSESSMENT", "stats": [{"groupId": "EG000", "numEvents": 1, "numAffected": 1, "numAtRisk": 279}]}, {"term": "Tinea pedis", "organSystem": "Infections and infestations", "sourceVocabulary": "MedDRA (17.1)", "assessmentType": "NON_SYSTEMATIC_ASSESSMENT", "stats": [{"groupId": "EG000", "numEvents": 1, "numAffected": 1, "numAtRisk": 279}]}, {"term": "Oesophageal food impaction", "organSystem": "Gastrointestinal disorders", "sourceVocabulary": "MedDRA (17.1)", "assessmentType": "NON_SYSTEMATIC_ASSESSMENT", "stats": [{"groupId": "EG000", "numEvents": 1, "numAffected": 1, "numAtRisk": 279}]}, {"term": "Hysterectomy", "organSystem": "Surgical and medical procedures", "sourceVocabulary": "MedDRA (17.1)", "assessmentType": "NON_SYSTEMATIC_ASSESSMENT", "stats": [{"groupId": "EG000", "numEvents": 1, "numAffected": 1, "numAtRisk": 279}]}, {"term": "Abdominal hernia repair", "organSystem": "Surgical and medical procedures", "sourceVocabulary": "MedDRA (17.1)", "assessmentType": "NON_SYSTEMATIC_ASSESSMENT", "stats": [{"groupId": "EG000", "numEvents": 1, "numAffected": 1, "numAtRisk": 279}]}, {"term": "Excessive skin", "organSystem": "Skin and subcutaneous tissue disorders", "sourceVocabulary": "MedDRA (17.1)", "assessmentType": "NON_SYSTEMATIC_ASSESSMENT", "stats": [{"groupId": "EG000", "numEvents": 1, "numAffected": 1, "numAtRisk": 279}]}, {"term": "Osteomyelitis", "organSystem": "Infections and infestations", "sourceVocabulary": "MedDRA (17.1)", "assessmentType": "NON_SYSTEMATIC_ASSESSMENT", "stats": [{"groupId": "EG000", "numEvents": 1, "numAffected": 1, "numAtRisk": 279}]}, {"term": "Cardiac ablation", "organSystem": "Surgical and medical procedures", "sourceVocabulary": "MedDRA (17.1)", "assessmentType": "NON_SYSTEMATIC_ASSESSMENT", "stats": [{"groupId": "EG000", "numEvents": 1, "numAffected": 1, "numAtRisk": 279}]}, {"term": "Hyperparathyroidism", "organSystem": "Endocrine disorders", "sourceVocabulary": "MedDRA (17.1)", "assessmentType": "NON_SYSTEMATIC_ASSESSMENT", "stats": [{"groupId": "EG000", "numEvents": 1, "numAffected": 1, "numAtRisk": 279}]}, {"term": "Pneumonia viral", "organSystem": "Infections and infestations", "sourceVocabulary": "MedDRA (17.1)", "assessmentType": "NON_SYSTEMATIC_ASSESSMENT", "stats": [{"groupId": "EG000", "numEvents": 1, "numAffected": 1, "numAtRisk": 279}]}, {"term": "Cardiac failure", "organSystem": "Cardiac disorders", "sourceVocabulary": "MedDRA (17.1)", "assessmentType": "NON_SYSTEMATIC_ASSESSMENT", "stats": [{"groupId": "EG000", "numEvents": 1, "numAffected": 1, "numAtRisk": 279}]}, {"term": "Goitre", "organSystem": "Endocrine disorders", "sourceVocabulary": "MedDRA (17.1)", "assessmentType": "NON_SYSTEMATIC_ASSESSMENT", "stats": [{"groupId": "EG000", "numEvents": 1, "numAffected": 1, "numAtRisk": 279}]}, {"term": "Nausea", "organSystem": "Gastrointestinal disorders", "sourceVocabulary": "MedDRA (17.1)", "assessmentType": "NON_SYSTEMATIC_ASSESSMENT", "stats": [{"groupId": "EG000", "numEvents": 1, "numAffected": 1, "numAtRisk": 279}]}, {"term": "Lower respiratory tract infection", "organSystem": "Infections and infestations", "sourceVocabulary": "MedDRA (17.1)", "assessmentType": "NON_SYSTEMATIC_ASSESSMENT", "stats": [{"groupId": "EG000", "numEvents": 1, "numAffected": 1, "numAtRisk": 279}]}, {"term": "Status asthmaticus", "organSystem": "Respiratory, thoracic and mediastinal disorders", "sourceVocabulary": "MedDRA (17.1)", "assessmentType": "NON_SYSTEMATIC_ASSESSMENT", "stats": [{"groupId": "EG000", "numEvents": 1, "numAffected": 1, "numAtRisk": 279}]}, {"term": "Pancreatitis", "organSystem": "Gastrointestinal disorders", "sourceVocabulary": "MedDRA (17.1)", "assessmentType": "NON_SYSTEMATIC_ASSESSMENT", "stats": [{"groupId": "EG000", "numEvents": 1, "numAffected": 1, "numAtRisk": 279}]}, {"term": "Cardio-respiratory arrest", "organSystem": "Cardiac disorders", "sourceVocabulary": "MedDRA (17.1)", "assessmentType": "NON_SYSTEMATIC_ASSESSMENT", "stats": [{"groupId": "EG000", "numEvents": 1, "numAffected": 1, "numAtRisk": 279}]}, {"term": "Urosepsis", "organSystem": "Infections and infestations", "sourceVocabulary": "MedDRA (17.1)", "assessmentType": "NON_SYSTEMATIC_ASSESSMENT", "stats": [{"groupId": "EG000", "numEvents": 1, "numAffected": 1, "numAtRisk": 279}]}, {"term": "Volvulus", "organSystem": "Gastrointestinal disorders", "sourceVocabulary": "MedDRA (17.1)", "assessmentType": "NON_SYSTEMATIC_ASSESSMENT", "stats": [{"groupId": "EG000", "numEvents": 1, "numAffected": 1, "numAtRisk": 279}]}, {"term": "Abdominal pain", "organSystem": "Gastrointestinal disorders", "sourceVocabulary": "MedDRA (17.1)", "assessmentType": "NON_SYSTEMATIC_ASSESSMENT", "stats": [{"groupId": "EG000", "numEvents": 1, "numAffected": 1, "numAtRisk": 279}]}, {"term": "Multiple fractures", "organSystem": "Injury, poisoning and procedural complications", "sourceVocabulary": "MedDRA (17.1)", "assessmentType": "NON_SYSTEMATIC_ASSESSMENT", "stats": [{"groupId": "EG000", "numEvents": 1, "numAffected": 1, "numAtRisk": 279}]}, {"term": "Localised infection", "organSystem": "Infections and infestations", "sourceVocabulary": "MedDRA (17.1)", "assessmentType": "NON_SYSTEMATIC_ASSESSMENT", "stats": [{"groupId": "EG000", "numEvents": 1, "numAffected": 1, "numAtRisk": 279}]}, {"term": "Kidney infection", "organSystem": "Infections and infestations", "sourceVocabulary": "MedDRA (17.1)", "assessmentType": "NON_SYSTEMATIC_ASSESSMENT", "stats": [{"groupId": "EG000", "numEvents": 1, "numAffected": 1, "numAtRisk": 279}]}, {"term": "Bronchospasm", "organSystem": "Respiratory, thoracic and mediastinal disorders", "sourceVocabulary": "MedDRA (17.1)", "assessmentType": "NON_SYSTEMATIC_ASSESSMENT", "stats": [{"groupId": "EG000", "numEvents": 1, "numAffected": 1, "numAtRisk": 279}]}, {"term": "Intestinal obstruction", "organSystem": "Gastrointestinal disorders", "sourceVocabulary": "MedDRA (17.1)", "assessmentType": "NON_SYSTEMATIC_ASSESSMENT", "stats": [{"groupId": "EG000", "numEvents": 1, "numAffected": 1, "numAtRisk": 279}]}, {"term": "Herpes simplex", "organSystem": "Infections and infestations", "sourceVocabulary": "MedDRA (17.1)", "assessmentType": "NON_SYSTEMATIC_ASSESSMENT", "stats": [{"groupId": "EG000", "numEvents": 1, "numAffected": 1, "numAtRisk": 279}]}, {"term": "Cystocele", "organSystem": "Reproductive system and breast disorders", "sourceVocabulary": "MedDRA (17.1)", "assessmentType": "NON_SYSTEMATIC_ASSESSMENT", "stats": [{"groupId": "EG000", "numEvents": 1, "numAffected": 1, "numAtRisk": 279}]}, {"term": "Gastroenteritis viral", "organSystem": "Infections and infestations", "sourceVocabulary": "MedDRA (17.1)", "assessmentType": "NON_SYSTEMATIC_ASSESSMENT", "stats": [{"groupId": "EG000", "numEvents": 1, "numAffected": 1, "numAtRisk": 279}]}, {"term": "Anxiety", "organSystem": "Psychiatric disorders", "sourceVocabulary": "MedDRA (17.1)", "assessmentType": "NON_SYSTEMATIC_ASSESSMENT", "stats": [{"groupId": "EG000", "numEvents": 1, "numAffected": 1, "numAtRisk": 279}]}, {"term": "Blighted ovum", "organSystem": "Pregnancy, puerperium and perinatal conditions", "sourceVocabulary": "MedDRA (17.1)", "assessmentType": "NON_SYSTEMATIC_ASSESSMENT", "stats": [{"groupId": "EG000", "numEvents": 1, "numAffected": 1, "numAtRisk": 279}]}, {"term": "Transient ischaemic attack", "organSystem": "Nervous system disorders", "sourceVocabulary": "MedDRA (17.1)", "assessmentType": "NON_SYSTEMATIC_ASSESSMENT", "stats": [{"groupId": "EG000", "numEvents": 1, "numAffected": 1, "numAtRisk": 279}]}, {"term": "Sciatica", "organSystem": "Nervous system disorders", "sourceVocabulary": "MedDRA (17.1)", "assessmentType": "NON_SYSTEMATIC_ASSESSMENT", "stats": [{"groupId": "EG000", "numEvents": 1, "numAffected": 1, "numAtRisk": 279}]}, {"term": "Paraparesis", "organSystem": "Nervous system disorders", "sourceVocabulary": "MedDRA (17.1)", "assessmentType": "NON_SYSTEMATIC_ASSESSMENT", "stats": [{"groupId": "EG000", "numEvents": 1, "numAffected": 1, "numAtRisk": 279}]}, {"term": "Loss of consciousness", "organSystem": "Nervous system disorders", "sourceVocabulary": "MedDRA (17.1)", "assessmentType": "NON_SYSTEMATIC_ASSESSMENT", "stats": [{"groupId": "EG000", "numEvents": 1, "numAffected": 1, "numAtRisk": 279}]}, {"term": "Migraine", "organSystem": "Nervous system disorders", "sourceVocabulary": "MedDRA (17.1)", "assessmentType": "NON_SYSTEMATIC_ASSESSMENT", "stats": [{"groupId": "EG000", "numEvents": 1, "numAffected": 1, "numAtRisk": 279}]}, {"term": "Headache", "organSystem": "Nervous system disorders", "sourceVocabulary": "MedDRA (17.1)", "assessmentType": "NON_SYSTEMATIC_ASSESSMENT", "stats": [{"groupId": "EG000", "numEvents": 1, "numAffected": 1, "numAtRisk": 279}]}, {"term": "Gastrooesophageal reflux disease", "organSystem": "Gastrointestinal disorders", "sourceVocabulary": "MedDRA (17.1)", "assessmentType": "NON_SYSTEMATIC_ASSESSMENT", "stats": [{"groupId": "EG000", "numEvents": 1, "numAffected": 1, "numAtRisk": 279}]}, {"term": "Beta haemolytic streptococcal infection", "organSystem": "Infections and infestations", "sourceVocabulary": "MedDRA (17.1)", "assessmentType": "NON_SYSTEMATIC_ASSESSMENT", "stats": [{"groupId": "EG000", "numEvents": 1, "numAffected": 1, "numAtRisk": 279}]}, {"term": "Convulsion", "organSystem": "Nervous system disorders", "sourceVocabulary": "MedDRA (17.1)", "assessmentType": "NON_SYSTEMATIC_ASSESSMENT", "stats": [{"groupId": "EG000", "numEvents": 1, "numAffected": 1, "numAtRisk": 279}]}, {"term": "Cardiac arrest", "organSystem": "Cardiac disorders", "sourceVocabulary": "MedDRA (17.1)", "assessmentType": "NON_SYSTEMATIC_ASSESSMENT", "stats": [{"groupId": "EG000", "numEvents": 1, "numAffected": 1, "numAtRisk": 279}]}, {"term": "Inguinal hernia", "organSystem": "Gastrointestinal disorders", "sourceVocabulary": "MedDRA (17.1)", "assessmentType": "NON_SYSTEMATIC_ASSESSMENT", "stats": [{"groupId": "EG000", "numEvents": 1, "numAffected": 1, "numAtRisk": 279}]}, {"term": "Cerebrovascular accident", "organSystem": "Nervous system disorders", "sourceVocabulary": "MedDRA (17.1)", "assessmentType": "NON_SYSTEMATIC_ASSESSMENT", "stats": [{"groupId": "EG000", "numEvents": 1, "numAffected": 1, "numAtRisk": 279}]}, {"term": "Aspergilloma", "organSystem": "Infections and infestations", "sourceVocabulary": "MedDRA (17.1)", "assessmentType": "NON_SYSTEMATIC_ASSESSMENT", "stats": [{"groupId": "EG000", "numEvents": 1, "numAffected": 1, "numAtRisk": 279}]}, {"term": "Colon cancer", "organSystem": "Neoplasms benign, malignant and unspecified (incl cysts and polyps)", "sourceVocabulary": "MedDRA (17.1)", "assessmentType": "NON_SYSTEMATIC_ASSESSMENT", "stats": [{"groupId": "EG000", "numEvents": 1, "numAffected": 1, "numAtRisk": 279}]}, {"term": "Tachycardia", "organSystem": "Cardiac disorders", "sourceVocabulary": "MedDRA (17.1)", "assessmentType": "NON_SYSTEMATIC_ASSESSMENT", "stats": [{"groupId": "EG000", "numEvents": 1, "numAffected": 1, "numAtRisk": 279}]}, {"term": "Pelvic prolapse", "organSystem": "Reproductive system and breast disorders", "sourceVocabulary": "MedDRA (17.1)", "assessmentType": "NON_SYSTEMATIC_ASSESSMENT", "stats": [{"groupId": "EG000", "numEvents": 1, "numAffected": 1, "numAtRisk": 279}]}, {"term": "Adrenal adenoma", "organSystem": "Neoplasms benign, malignant and unspecified (incl cysts and polyps)", "sourceVocabulary": "MedDRA (17.1)", "assessmentType": "NON_SYSTEMATIC_ASSESSMENT", "stats": [{"groupId": "EG000", "numEvents": 1, "numAffected": 1, "numAtRisk": 279}]}, {"term": "Coronary artery disease", "organSystem": "Cardiac disorders", "sourceVocabulary": "MedDRA (17.1)", "assessmentType": "NON_SYSTEMATIC_ASSESSMENT", "stats": [{"groupId": "EG000", "numEvents": 1, "numAffected": 1, "numAtRisk": 279}]}, {"term": "Colitis ulcerative", "organSystem": "Gastrointestinal disorders", "sourceVocabulary": "MedDRA (17.1)", "assessmentType": "NON_SYSTEMATIC_ASSESSMENT", "stats": [{"groupId": "EG000", "numEvents": 1, "numAffected": 1, "numAtRisk": 279}]}, {"term": "Hypersensitivity", "organSystem": "Immune system disorders", "sourceVocabulary": "MedDRA (17.1)", "assessmentType": "NON_SYSTEMATIC_ASSESSMENT", "stats": [{"groupId": "EG000", "numEvents": 1, "numAffected": 1, "numAtRisk": 279}]}, {"term": "Osteonecrosis", "organSystem": "Musculoskeletal and connective tissue disorders", "sourceVocabulary": "MedDRA (17.1)", "assessmentType": "NON_SYSTEMATIC_ASSESSMENT", "stats": [{"groupId": "EG000", "numEvents": 1, "numAffected": 1, "numAtRisk": 279}]}, {"term": "Anaphylactic reaction", "organSystem": "Immune system disorders", "sourceVocabulary": "MedDRA (17.1)", "assessmentType": "NON_SYSTEMATIC_ASSESSMENT", "stats": [{"groupId": "EG000", "numEvents": 1, "numAffected": 1, "numAtRisk": 279}]}, {"term": "Osteoarthritis", "organSystem": "Musculoskeletal and connective tissue disorders", "sourceVocabulary": "MedDRA (17.1)", "assessmentType": "NON_SYSTEMATIC_ASSESSMENT", "stats": [{"groupId": "EG000", "numEvents": 1, "numAffected": 1, "numAtRisk": 279}]}, {"term": "Colitis ischaemic", "organSystem": "Gastrointestinal disorders", "sourceVocabulary": "MedDRA (17.1)", "assessmentType": "NON_SYSTEMATIC_ASSESSMENT", "stats": [{"groupId": "EG000", "numEvents": 1, "numAffected": 1, "numAtRisk": 279}]}, {"term": "Pyrexia", "organSystem": "General disorders", "sourceVocabulary": "MedDRA (17.1)", "assessmentType": "NON_SYSTEMATIC_ASSESSMENT", "stats": [{"groupId": "EG000", "numEvents": 1, "numAffected": 1, "numAtRisk": 279}]}, {"term": "Oesophageal achalasia", "organSystem": "Gastrointestinal disorders", "sourceVocabulary": "MedDRA (17.1)", "assessmentType": "NON_SYSTEMATIC_ASSESSMENT", "stats": [{"groupId": "EG000", "numEvents": 1, "numAffected": 1, "numAtRisk": 279}]}, {"term": "Caesarean section", "organSystem": "Surgical and medical procedures", "sourceVocabulary": "MedDRA (17.1)", "assessmentType": "NON_SYSTEMATIC_ASSESSMENT", "stats": [{"groupId": "EG000", "numEvents": 1, "numAffected": 1, "numAtRisk": 279}]}, {"term": "Pelvic inflammatory disease", "organSystem": "Infections and infestations", "sourceVocabulary": "MedDRA (17.1)", "assessmentType": "NON_SYSTEMATIC_ASSESSMENT", "stats": [{"groupId": "EG000", "numEvents": 1, "numAffected": 1, "numAtRisk": 279}]}, {"term": "Hip arthroplasty", "organSystem": "Surgical and medical procedures", "sourceVocabulary": "MedDRA (17.1)", "assessmentType": "NON_SYSTEMATIC_ASSESSMENT", "stats": [{"groupId": "EG000", "numEvents": 1, "numAffected": 1, "numAtRisk": 279}]}, {"term": "Diabetes mellitus", "organSystem": "Metabolism and nutrition disorders", "sourceVocabulary": "MedDRA (17.1)", "assessmentType": "NON_SYSTEMATIC_ASSESSMENT", "stats": [{"groupId": "EG000", "numEvents": 1, "numAffected": 1, "numAtRisk": 279}]}, {"term": "Blood immunoglobulin G decreased", "organSystem": "Investigations", "sourceVocabulary": "MedDRA (17.1)", "assessmentType": "NON_SYSTEMATIC_ASSESSMENT", "stats": [{"groupId": "EG000", "numEvents": 1, "numAffected": 1, "numAtRisk": 279}]}, {"term": "Acute myocardial infarction", "organSystem": "Cardiac disorders", "sourceVocabulary": "MedDRA (17.1)", "assessmentType": "NON_SYSTEMATIC_ASSESSMENT", "stats": [{"groupId": "EG000", "numEvents": 1, "numAffected": 1, "numAtRisk": 279}]}, {"term": "Upper limb fracture", "organSystem": "Injury, poisoning and procedural complications", "sourceVocabulary": "MedDRA (17.1)", "assessmentType": "NON_SYSTEMATIC_ASSESSMENT", "stats": [{"groupId": "EG000", "numEvents": 1, "numAffected": 1, "numAtRisk": 279}]}, {"term": "Cardiomyopathy", "organSystem": "Cardiac disorders", "sourceVocabulary": "MedDRA (17.1)", "assessmentType": "NON_SYSTEMATIC_ASSESSMENT", "stats": [{"groupId": "EG000", "numEvents": 1, "numAffected": 1, "numAtRisk": 279}]}, {"term": "Abdominal wall haematoma", "organSystem": "Gastrointestinal disorders", "sourceVocabulary": "MedDRA (17.1)", "assessmentType": "NON_SYSTEMATIC_ASSESSMENT", "stats": [{"groupId": "EG000", "numEvents": 1, "numAffected": 1, "numAtRisk": 279}]}, {"term": "Death", "organSystem": "General disorders", "sourceVocabulary": "MedDRA (17.1)", "assessmentType": "NON_SYSTEMATIC_ASSESSMENT", "stats": [{"groupId": "EG000", "numEvents": 1, "numAffected": 1, "numAtRisk": 279}]}, {"term": "Rib fracture", "organSystem": "Injury, poisoning and procedural complications", "sourceVocabulary": "MedDRA (17.1)", "assessmentType": "NON_SYSTEMATIC_ASSESSMENT", "stats": [{"groupId": "EG000", "numEvents": 1, "numAffected": 1, "numAtRisk": 279}]}], "otherEvents": [{"term": "Asthma", "organSystem": "Respiratory, thoracic and mediastinal disorders", "sourceVocabulary": "MedDRA (17.1)", "assessmentType": "NON_SYSTEMATIC_ASSESSMENT", "stats": [{"groupId": "EG000", "numEvents": 1258, "numAffected": 234, "numAtRisk": 279}]}, {"term": "Upper respiratory tract infection", "organSystem": "Infections and infestations", "sourceVocabulary": "MedDRA (17.1)", "assessmentType": "NON_SYSTEMATIC_ASSESSMENT", "stats": [{"groupId": "EG000", "numEvents": 205, "numAffected": 118, "numAtRisk": 279}]}, {"term": "Bronchitis", "organSystem": "Infections and infestations", "sourceVocabulary": "MedDRA (17.1)", "assessmentType": "NON_SYSTEMATIC_ASSESSMENT", "stats": [{"groupId": "EG000", "numEvents": 152, "numAffected": 89, "numAtRisk": 279}]}, {"term": "Sinusitis", "organSystem": "Infections and infestations", "sourceVocabulary": "MedDRA (17.1)", "assessmentType": "NON_SYSTEMATIC_ASSESSMENT", "stats": [{"groupId": "EG000", "numEvents": 140, "numAffected": 64, "numAtRisk": 279}]}, {"term": "Cough", "organSystem": "Respiratory, thoracic and mediastinal disorders", "sourceVocabulary": "MedDRA (17.1)", "assessmentType": "NON_SYSTEMATIC_ASSESSMENT", "stats": [{"groupId": "EG000", "numEvents": 78, "numAffected": 54, "numAtRisk": 279}]}, {"term": "Acute sinusitis", "organSystem": "Infections and infestations", "sourceVocabulary": "MedDRA (17.1)", "assessmentType": "NON_SYSTEMATIC_ASSESSMENT", "stats": [{"groupId": "EG000", "numEvents": 80, "numAffected": 48, "numAtRisk": 279}]}, {"term": "Oral candidiasis", "organSystem": "Infections and infestations", "sourceVocabulary": "MedDRA (17.1)", "assessmentType": "NON_SYSTEMATIC_ASSESSMENT", "stats": [{"groupId": "EG000", "numEvents": 71, "numAffected": 40, "numAtRisk": 279}]}, {"term": "Wheezing", "organSystem": "Respiratory, thoracic and mediastinal disorders", "sourceVocabulary": "MedDRA (17.1)", "assessmentType": "NON_SYSTEMATIC_ASSESSMENT", "stats": [{"groupId": "EG000", "numEvents": 63, "numAffected": 40, "numAtRisk": 279}]}, {"term": "Influenza", "organSystem": "Infections and infestations", "sourceVocabulary": "MedDRA (17.1)", "assessmentType": "NON_SYSTEMATIC_ASSESSMENT", "stats": [{"groupId": "EG000", "numEvents": 48, "numAffected": 38, "numAtRisk": 279}]}, {"term": "Pneumonia", "organSystem": "Infections and infestations", "sourceVocabulary": "MedDRA (17.1)", "assessmentType": "NON_SYSTEMATIC_ASSESSMENT", "stats": [{"groupId": "EG000", "numEvents": 49, "numAffected": 37, "numAtRisk": 279}]}, {"term": "Chest pain", "organSystem": "General disorders", "sourceVocabulary": "MedDRA (17.1)", "assessmentType": "NON_SYSTEMATIC_ASSESSMENT", "stats": [{"groupId": "EG000", "numEvents": 40, "numAffected": 33, "numAtRisk": 279}]}, {"term": "Nasopharyngitis", "organSystem": "Infections and infestations", "sourceVocabulary": "MedDRA (17.1)", "assessmentType": "NON_SYSTEMATIC_ASSESSMENT", "stats": [{"groupId": "EG000", "numEvents": 42, "numAffected": 28, "numAtRisk": 279}]}, {"term": "Dyspnoea", "organSystem": "Respiratory, thoracic and mediastinal disorders", "sourceVocabulary": "MedDRA (17.1)", "assessmentType": "NON_SYSTEMATIC_ASSESSMENT", "stats": [{"groupId": "EG000", "numEvents": 29, "numAffected": 24, "numAtRisk": 279}]}, {"term": "Urinary tract infection", "organSystem": "Infections and infestations", "sourceVocabulary": "MedDRA (17.1)", "assessmentType": "NON_SYSTEMATIC_ASSESSMENT", "stats": [{"groupId": "EG000", "numEvents": 41, "numAffected": 23, "numAtRisk": 279}]}, {"term": "Headache", "organSystem": "Nervous system disorders", "sourceVocabulary": "MedDRA (17.1)", "assessmentType": "NON_SYSTEMATIC_ASSESSMENT", "stats": [{"groupId": "EG000", "numEvents": 28, "numAffected": 22, "numAtRisk": 279}]}, {"term": "Lower respiratory tract infection", "organSystem": "Infections and infestations", "sourceVocabulary": "MedDRA (17.1)", "assessmentType": "NON_SYSTEMATIC_ASSESSMENT", "stats": [{"groupId": "EG000", "numEvents": 26, "numAffected": 19, "numAtRisk": 279}]}, {"term": "Nausea", "organSystem": "Gastrointestinal disorders", "sourceVocabulary": "MedDRA (17.1)", "assessmentType": "NON_SYSTEMATIC_ASSESSMENT", "stats": [{"groupId": "EG000", "numEvents": 25, "numAffected": 18, "numAtRisk": 279}]}, {"term": "Back pain", "organSystem": "Musculoskeletal and connective tissue disorders", "sourceVocabulary": "MedDRA (17.1)", "assessmentType": "NON_SYSTEMATIC_ASSESSMENT", "stats": [{"groupId": "EG000", "numEvents": 23, "numAffected": 18, "numAtRisk": 279}]}, {"term": "Gastrooesophageal reflux disease", "organSystem": "Gastrointestinal disorders", "sourceVocabulary": "MedDRA (17.1)", "assessmentType": "NON_SYSTEMATIC_ASSESSMENT", "stats": [{"groupId": "EG000", "numEvents": 21, "numAffected": 17, "numAtRisk": 279}]}, {"term": "Hypertension", "organSystem": "Vascular disorders", "sourceVocabulary": "MedDRA (17.1)", "assessmentType": "NON_SYSTEMATIC_ASSESSMENT", "stats": [{"groupId": "EG000", "numEvents": 19, "numAffected": 16, "numAtRisk": 279}]}, {"term": "Hypersensitivity", "organSystem": "Immune system disorders", "sourceVocabulary": "MedDRA (17.1)", "assessmentType": "NON_SYSTEMATIC_ASSESSMENT", "stats": [{"groupId": "EG000", "numEvents": 17, "numAffected": 16, "numAtRisk": 279}]}, {"term": "Throat irritation", "organSystem": "Respiratory, thoracic and mediastinal disorders", "sourceVocabulary": "MedDRA (17.1)", "assessmentType": "NON_SYSTEMATIC_ASSESSMENT", "stats": [{"groupId": "EG000", "numEvents": 17, "numAffected": 15, "numAtRisk": 279}]}, {"term": "Rhinitis allergic", "organSystem": "Respiratory, thoracic and mediastinal disorders", "sourceVocabulary": "MedDRA (17.1)", "assessmentType": "NON_SYSTEMATIC_ASSESSMENT", "stats": [{"groupId": "EG000", "numEvents": 18, "numAffected": 15, "numAtRisk": 279}]}, {"term": "Chest discomfort", "organSystem": "General disorders", "sourceVocabulary": "MedDRA (17.1)", "assessmentType": "NON_SYSTEMATIC_ASSESSMENT", "stats": [{"groupId": "EG000", "numEvents": 17, "numAffected": 14, "numAtRisk": 279}]}]}, "moreInfoModule": {"certainAgreement": {"piSponsorEmployee": false, "restrictiveAgreement": false}, "pointOfContact": {"title": "G Mark Grubb", "organization": "Boston Scientific Corp.", "email": "grubbm@bsci.com", "phone": "(412) 716-0717"}}}, "documentSection": {"largeDocumentModule": {"largeDocs": [{"typeAbbrev": "SAP", "hasProtocol": false, "hasSap": true, "hasIcf": false, "label": "Statistical Analysis Plan", "date": "2016-06-27", "uploadDate": "2021-01-25T16:13", "filename": "SAP_000.pdf", "size": 443668}, {"typeAbbrev": "Prot_ICF", "hasProtocol": true, "hasSap": false, "hasIcf": true, "label": "Study Protocol and Informed Consent Form", "date": "2012-04-26", "uploadDate": "2021-01-25T16:14", "filename": "Prot_ICF_001.pdf", "size": 1496029}]}}, "derivedSection": {"miscInfoModule": {"versionHolder": "2024-06-24"}, "conditionBrowseModule": {"meshes": [{"id": "D000001249", "term": "Asthma"}], "ancestors": [{"id": "D000001982", "term": "Bronchial Diseases"}, {"id": "D000012140", "term": "Respiratory Tract Diseases"}, {"id": "D000008173", "term": "Lung Diseases, Obstructive"}, {"id": "D000008171", "term": "Lung Diseases"}, {"id": "D000012130", "term": "Respiratory Hypersensitivity"}, {"id": "D000006969", "term": "Hypersensitivity, Immediate"}, {"id": "D000006967", "term": "Hypersensitivity"}, {"id": "D000007154", "term": "Immune System Diseases"}], "browseLeaves": [{"id": "M4556", "name": "Asthma", "asFound": "Asthma", "relevance": "HIGH"}, {"id": "M5258", "name": "Bronchial Diseases", "relevance": "LOW"}, {"id": "M14977", "name": "Respiratory Tract Diseases", "relevance": "LOW"}, {"id": "M11168", "name": "Lung Diseases", "relevance": "LOW"}, {"id": "M11170", "name": "Lung Diseases, Obstructive", "relevance": "LOW"}, {"id": "M10018", "name": "Hypersensitivity", "relevance": "LOW"}, {"id": "M14967", "name": "Respiratory Hypersensitivity", "relevance": "LOW"}, {"id": "M10020", "name": "Hypersensitivity, Immediate", "relevance": "LOW"}, {"id": "M10200", "name": "Immune System Diseases", "relevance": "LOW"}], "browseBranches": [{"abbrev": "BC08", "name": "Respiratory Tract (Lung and Bronchial) Diseases"}, {"abbrev": "BC20", "name": "Immune System Diseases"}, {"abbrev": "All", "name": "All Conditions"}]}}, "hasResults": true}