{"protocolSection": {"identificationModule": {"nctId": "NCT00469092", "orgStudyIdInfo": {"id": "BIASP-1731"}, "secondaryIdInfos": [{"id": "2006-003288-29", "type": "EUDRACT_NUMBER"}], "organization": {"fullName": "Novo Nordisk A/S", "class": "INDUSTRY"}, "briefTitle": "Comparison of Biphasic Insulin Aspart 30 Versus Insulin Glargine Both in Combination With Metformin and Glimepiride in Subjects With Type 2 Diabetes", "officialTitle": "A Multi-national, Open-labelled, Randomised, Parallel Group, 4 Week run-in and 26 Weeks Treat-to-target Comparison of Biphasic Insulin Aspart 30 Once Daily Versus Insulin Glargine Once Daily Both in Combination With Metformin and Glimepiride in Insulin na\u00efve Subjects With Type 2 Diabetes"}, "statusModule": {"statusVerifiedDate": "2017-01", "overallStatus": "COMPLETED", "expandedAccessInfo": {"hasExpandedAccess": false}, "startDateStruct": {"date": "2007-05"}, "primaryCompletionDateStruct": {"date": "2008-04", "type": "ACTUAL"}, "completionDateStruct": {"date": "2008-04", "type": "ACTUAL"}, "studyFirstSubmitDate": "2007-05-03", "studyFirstSubmitQcDate": "2007-05-03", "studyFirstPostDateStruct": {"date": "2007-05-04", "type": "ESTIMATED"}, "resultsFirstSubmitDate": "2009-11-30", "resultsFirstSubmitQcDate": "2009-11-30", "resultsFirstPostDateStruct": {"date": "2010-01-06", "type": "ESTIMATED"}, "lastUpdateSubmitDate": "2017-01-05", "lastUpdatePostDateStruct": {"date": "2017-02-23", "type": "ACTUAL"}}, "sponsorCollaboratorsModule": {"responsibleParty": {"type": "SPONSOR"}, "leadSponsor": {"name": "Novo Nordisk A/S", "class": "INDUSTRY"}}, "oversightModule": {"oversightHasDmc": false}, "descriptionModule": {"briefSummary": "This trial is conducted in Africa, Asia, Europe, Oceania and South America.\n\nThis trial aims for a comparison of biphasic insulin aspart 30 once daily versus insulin glargine once daily all in combination with metformin and glimepiride in insulin naive subjects with type 2 diabetes."}, "conditionsModule": {"conditions": ["Diabetes", "Diabetes Mellitus, Type 2"]}, "designModule": {"studyType": "INTERVENTIONAL", "phases": ["PHASE4"], "designInfo": {"allocation": "RANDOMIZED", "interventionModel": "PARALLEL", "primaryPurpose": "TREATMENT", "maskingInfo": {"masking": "NONE"}}, "enrollmentInfo": {"count": 480, "type": "ACTUAL"}}, "armsInterventionsModule": {"armGroups": [{"label": "BIAsp 30", "type": "EXPERIMENTAL", "interventionNames": ["Drug: biphasic insulin aspart", "Drug: metformin", "Drug: glimepiride"]}, {"label": "Glargine", "type": "ACTIVE_COMPARATOR", "interventionNames": ["Drug: insulin glargine", "Drug: metformin", "Drug: glimepiride"]}], "interventions": [{"type": "DRUG", "name": "biphasic insulin aspart", "description": "Treat-to-target dose titration scheme. The titration scheme is based on the previous 3 days fasting plasma glucose (FPG) measurements.", "armGroupLabels": ["BIAsp 30"]}, {"type": "DRUG", "name": "insulin glargine", "description": "Treat-to-target dose titration scheme. The titration scheme is based on the previous 3 days fasting plasma glucose (FPG) measurements.", "armGroupLabels": ["Glargine"]}, {"type": "DRUG", "name": "metformin", "description": "Tablets, 2550 mcg. Administered once daily.", "armGroupLabels": ["BIAsp 30", "Glargine"]}, {"type": "DRUG", "name": "glimepiride", "description": "Tablets 2 mg. 4, 6 or 8 mg administered once daily.", "armGroupLabels": ["BIAsp 30", "Glargine"]}]}, "outcomesModule": {"primaryOutcomes": [{"measure": "Glycosylated Haemoglobin A1c (HbA1c)", "description": "Glycosylated Haemoglobin A1c measured in blood samples after 26 weeks of treatment.", "timeFrame": "After 26 weeks of treatment"}], "secondaryOutcomes": [{"measure": "9-point Self-measured Plasma Glucose Profiles", "description": "Glycaemic control measured by 9-point self-measured plasma glucose (SMPG) profiles. The 9 time points for self-measurement during the day were: Before breakfast, 2 hours after breakfast, before lunch, 2 hours after lunch, before dinner, 2 hours after dinner, before bedtime, at 2-4 AM, and before breakfast the following day. Hypoglycaemia episodes were defined as major or minor. Major if the subject was unable to treat her/himself. Minor if subject was able to treat her/himself and plasma glucose was below 3.1 mmol/L or 56 mg/dL.", "timeFrame": "After 26 weeks of treatment"}, {"measure": "Number of Subjects Achieving the Treatment Target for Glycosylated Haemoglobin A1c (HbA1c)", "description": "The number of subjects achieving the treatment target for glycosylated haemoglobin A1c after 26 weeks treatment. The treatment targets were: HbA1c \\<= 6.5% of haemoglobin and HbA1c \\< 7% of haemoglobin.", "timeFrame": "After 26 weeks of treatment"}, {"measure": "Treatment Satisfaction as Measured by the Diabetes Medication Satisfaction Questionnaire (Diab MedSat)", "description": "Subjects assessed the burden, efficacy, symptoms and overall score in the treatment satisfaction questionnaire, Diab MedSat (Diabetes Medication Satisfaction questionnaire). The scores were transformed to a 0-100 scale with higher scores indicating greater satisfaction. The score of the subscales was computed as the mean of the items in each subscale.", "timeFrame": "After 26 weeks of treatment"}, {"measure": "Number of Hypoglycaemic Episodes", "description": "Total number of hypoglycaemic episodes experienced in each treatment arm. Hypoglycaemic episodes were defined as major, minor, or symptoms only. Major if the subject was unable to treat her/himself. Minor if subject was able to treat her/himself and plasma glucose was below 3.1 mmol/L or 56 mg/dL. Symptoms only if subject was able to treat her/himself and with either no plasma glucose or blood glucose measurement or plasma glucose higher than or equal to 3.1 mmol/L or 56 mg/dL.", "timeFrame": "Weeks 0-26"}, {"measure": "Number of Subjects Reporting Treatment Emergent Adverse Events", "description": "Number of subjects reporting treatment emergent adverse events during the trial (from week 0 to week 26). Adverse events were reported as treatment emergent if they occurred from the date of first insulin trial product administration up to and including the date of last insulin trial product administration.", "timeFrame": "Weeks 0-26"}]}, "eligibilityModule": {"eligibilityCriteria": "Inclusion Criteria:\n\n* Type 2 diabetes\n* Treatment with OADs (Oral Anti-Diabetic Drugs) for more than 6 months\n* Ongoing stable treatment with metformin for at least 2 months\n* Ongoing stable treatment with minimum half maximal dose of any insulin secretagogue for at least 2 months\n* Insulin naive\n* HbA1c (glycosylated haemoglobin A1c) between 7.0% and 11.0% (inclusive of both values)\n\nExclusion Criteria:\n\n* Metformin contraindication according to local practice\n* TZD (thiazolidinedione) treatment for the last 5 months before trial start\n* Systemic treatment with any corticosteroid 3 months before trial start\n* Any disease or condition which according to the Investigator would interfere with the trial", "healthyVolunteers": false, "sex": "ALL", "minimumAge": "18 Years", "stdAges": ["ADULT", "OLDER_ADULT"]}, "contactsLocationsModule": {"overallOfficials": [{"name": "Global Clinical Registry (GCR, 1452)", "affiliation": "Novo Nordisk A/S", "role": "STUDY_DIRECTOR"}], "locations": [{"facility": "Novo Nordisk Investigational Site", "city": "Buenos Aires", "zip": "C1181ACH", "country": "Argentina", "geoPoint": {"lat": -34.61315, "lon": -58.37723}}, {"facility": "Novo Nordisk Investigational Site", "city": "Ciudad Autonoma de Bs As", "zip": "C1405CWB", "country": "Argentina", "geoPoint": {"lat": -34.61315, "lon": -58.37723}}, {"facility": "Novo Nordisk Investigational Site", "city": "Ciudad Aut\u00f3noma de BsAs", "zip": "C1406FWY", "country": "Argentina", "geoPoint": {"lat": -34.61315, "lon": -58.37723}}, {"facility": "Novo Nordisk Investigational Site", "city": "Mar del Plata", "zip": "B7602CBM", "country": "Argentina", "geoPoint": {"lat": -38.00228, "lon": -57.55754}}, {"facility": "Novo Nordisk Investigational Site", "city": "Bregenz", "zip": "A - 6900", "country": "Austria", "geoPoint": {"lat": 47.50311, "lon": 9.7471}}, {"facility": "Novo Nordisk Investigational Site", "city": "Feldkirch", "zip": "6807", "country": "Austria", "geoPoint": {"lat": 47.23306, "lon": 9.6}}, {"facility": "Novo Nordisk Investigational Site", "city": "Traisen", "zip": "3160", "country": "Austria", "geoPoint": {"lat": 48.03333, "lon": 15.6}}, {"facility": "Novo Nordisk Investigational Site", "city": "Wels", "zip": "4600", "country": "Austria", "geoPoint": {"lat": 48.16667, "lon": 14.03333}}, {"facility": "Novo Nordisk Investigational Site", "city": "Wien", "zip": "1100", "country": "Austria", "geoPoint": {"lat": 48.20849, "lon": 16.37208}}, {"facility": "Novo Nordisk Investigational Site", "city": "Brno", "zip": "656 91", "country": "Czech Republic", "geoPoint": {"lat": 49.19522, "lon": 16.60796}}, {"facility": "Novo Nordisk Investigational Site", "city": "Hradec Kralove", "zip": "500 05", "country": "Czech Republic", "geoPoint": {"lat": 50.20923, "lon": 15.83277}}, {"facility": "Novo Nordisk Investigational Site", "city": "Kragujevac", "zip": "34000", "country": "Former Serbia and Montenegro"}, {"facility": "Novo Nordisk Investigational Site", "city": "Nis", "zip": "18000", "country": "Former Serbia and Montenegro"}, {"facility": "Novo Nordisk Investigational Site", "city": "Novi Sad", "zip": "21000", "country": "Former Serbia and Montenegro"}, {"facility": "Novo Nordisk Investigational Site", "city": "LA ROCHELLE cedex", "zip": "17019", "country": "France", "geoPoint": {"lat": 46.16667, "lon": -1.15}}, {"facility": "Novo Nordisk Investigational Site", "city": "Limoges", "zip": "87042", "country": "France", "geoPoint": {"lat": 45.83153, "lon": 1.25781}}, {"facility": "Novo Nordisk Investigational Site", "city": "Mougins", "zip": "06250", "country": "France", "geoPoint": {"lat": 43.59873, "lon": 7.00434}}, {"facility": "Novo Nordisk Investigational Site", "city": "Narbonne", "zip": "11108", "country": "France", "geoPoint": {"lat": 43.18396, "lon": 3.00141}}, {"facility": "Novo Nordisk Investigational Site", "city": "NEVERS cedex", "zip": "58033", "country": "France", "geoPoint": {"lat": 46.98956, "lon": 3.159}}, {"facility": "Novo Nordisk Investigational Site", "city": "Pointe \u00e0 Pitre", "zip": "97159", "country": "France"}, {"facility": "Novo Nordisk Investigational Site", "city": "Ahmedabad", "state": "Gujarat", "zip": "380006", "country": "India", "geoPoint": {"lat": 23.02579, "lon": 72.58727}}, {"facility": "Novo Nordisk Investigational Site", "city": "Karnal", "state": "Haryana", "zip": "132001", "country": "India", "geoPoint": {"lat": 29.69197, "lon": 76.98448}}, {"facility": "Novo Nordisk Investigational Site", "city": "Bangalore", "state": "Karnataka", "zip": "560043", "country": "India", "geoPoint": {"lat": 12.97194, "lon": 77.59369}}, {"facility": "Novo Nordisk Investigational Site", "city": "Visakhapatnam", "zip": "530001", "country": "India", "geoPoint": {"lat": 17.68009, "lon": 83.20161}}, {"facility": "Novo Nordisk Investigational Site", "city": "Cheras", "zip": "56000", "country": "Malaysia", "geoPoint": {"lat": 3.05, "lon": 101.76667}}, {"facility": "Novo Nordisk Investigational Site", "city": "Kota Bharu, Kelantan", "zip": "16150", "country": "Malaysia"}, {"facility": "Novo Nordisk Investigational Site", "city": "Pulau Pinang", "zip": "10990", "country": "Malaysia", "geoPoint": {"lat": 3.55, "lon": 102.56667}}, {"facility": "Novo Nordisk Investigational Site", "city": "Guadalajara", "zip": "44600", "country": "Mexico", "geoPoint": {"lat": 20.66682, "lon": -103.39182}}, {"facility": "Novo Nordisk Investigational Site", "city": "Guadalajara", "zip": "44620", "country": "Mexico", "geoPoint": {"lat": 20.66682, "lon": -103.39182}}, {"facility": "Novo Nordisk Investigational Site", "city": "Pachuca", "zip": "42060", "country": "Mexico", "geoPoint": {"lat": 20.11697, "lon": -98.73329}}, {"facility": "Novo Nordisk Investigational Site", "city": "Almere", "zip": "1311RL", "country": "Netherlands", "geoPoint": {"lat": 52.37535, "lon": 5.25295}}, {"facility": "Novo Nordisk Investigational Site", "city": "Groningen", "zip": "9711 SG", "country": "Netherlands", "geoPoint": {"lat": 53.21917, "lon": 6.56667}}, {"facility": "Novo Nordisk Investigational Site", "city": "Leiderdorp", "zip": "2352 RA", "country": "Netherlands", "geoPoint": {"lat": 52.15833, "lon": 4.52917}}, {"facility": "Novo Nordisk Investigational Site", "city": "Rotterdam", "zip": "3021 HC", "country": "Netherlands", "geoPoint": {"lat": 51.9225, "lon": 4.47917}}, {"facility": "Novo Nordisk Investigational Site", "city": "Zoetermeer", "zip": "2724 EK", "country": "Netherlands", "geoPoint": {"lat": 52.0575, "lon": 4.49306}}, {"facility": "Novo Nordisk Investigational Site", "city": "Manila", "zip": "1014", "country": "Philippines", "geoPoint": {"lat": 14.6042, "lon": 120.9822}}, {"facility": "Novo Nordisk Investigational Site", "city": "Quezon City", "zip": "1100", "country": "Philippines", "geoPoint": {"lat": 14.6488, "lon": 121.0509}}, {"facility": "Novo Nordisk Investigational Site", "city": "Quezon City", "zip": "1102", "country": "Philippines", "geoPoint": {"lat": 14.6488, "lon": 121.0509}}, {"facility": "Novo Nordisk Investigational Site", "city": "Bialystok", "zip": "15-276", "country": "Poland", "geoPoint": {"lat": 53.13333, "lon": 23.16433}}, {"facility": "Novo Nordisk Investigational Site", "city": "Bydgoszcz", "zip": "85-094", "country": "Poland", "geoPoint": {"lat": 53.1235, "lon": 18.00762}}, {"facility": "Novo Nordisk Investigational Site", "city": "Gdansk", "zip": "80-858", "country": "Poland", "geoPoint": {"lat": 54.35205, "lon": 18.64637}}, {"facility": "Novo Nordisk Investigational Site", "city": "Gdynia", "zip": "81-366", "country": "Poland", "geoPoint": {"lat": 54.51889, "lon": 18.53188}}, {"facility": "Novo Nordisk Investigational Site", "city": "Krakow", "zip": "31-501", "country": "Poland", "geoPoint": {"lat": 50.06143, "lon": 19.93658}}, {"facility": "Novo Nordisk Investigational Site", "city": "Lodz", "zip": "90-153", "country": "Poland", "geoPoint": {"lat": 51.75, "lon": 19.46667}}, {"facility": "Novo Nordisk Investigational Site", "city": "Lubin", "zip": "59-301", "country": "Poland", "geoPoint": {"lat": 51.40089, "lon": 16.20149}}, {"facility": "Novo Nordisk Investigational Site", "city": "Lublin", "zip": "20-081", "country": "Poland", "geoPoint": {"lat": 51.25, "lon": 22.56667}}, {"facility": "Novo Nordisk Investigational Site", "city": "Olsztyn", "zip": "10-561", "country": "Poland", "geoPoint": {"lat": 53.77995, "lon": 20.49416}}, {"facility": "Novo Nordisk Investigational Site", "city": "Poznan", "zip": "60-821", "country": "Poland", "geoPoint": {"lat": 52.40692, "lon": 16.92993}}, {"facility": "Novo Nordisk Investigational Site", "city": "Rzeszow", "zip": "35-301", "country": "Poland", "geoPoint": {"lat": 50.04132, "lon": 21.99901}}, {"facility": "Novo Nordisk Investigational Site", "city": "Szczecin", "zip": "71-455", "country": "Poland", "geoPoint": {"lat": 53.42894, "lon": 14.55302}}, {"facility": "Novo Nordisk Investigational Site", "city": "Warszawa", "zip": "02-507", "country": "Poland", "geoPoint": {"lat": 52.22977, "lon": 21.01178}}, {"facility": "Novo Nordisk Investigational Site", "city": "Zabrze", "zip": "41-800", "country": "Poland", "geoPoint": {"lat": 50.32492, "lon": 18.78576}}, {"facility": "Novo Nordisk Investigational Site", "city": "Botosani", "zip": "710224", "country": "Romania", "geoPoint": {"lat": 47.75, "lon": 26.66667}}, {"facility": "Novo Nordisk Investigational Site", "city": "Bucharest", "zip": "020475", "country": "Romania", "geoPoint": {"lat": 44.43225, "lon": 26.10626}}, {"facility": "Novo Nordisk Investigational Site", "city": "Galati", "zip": "800371", "country": "Romania", "geoPoint": {"lat": 45.45, "lon": 28.05}}, {"facility": "Novo Nordisk Investigational Site", "city": "Satu Mare", "zip": "440055", "country": "Romania", "geoPoint": {"lat": 47.79926, "lon": 22.86255}}, {"facility": "Novo Nordisk Investigational Site", "city": "Targoviste", "zip": "130083", "country": "Romania", "geoPoint": {"lat": 44.92543, "lon": 25.4567}}, {"facility": "Novo Nordisk Investigational Site", "city": "Bloemfontein", "state": "Free State", "zip": "9301", "country": "South Africa", "geoPoint": {"lat": -29.12107, "lon": 26.214}}, {"facility": "Novo Nordisk Investigational Site", "city": "Durban", "state": "KwaZulu-Natal", "zip": "4001", "country": "South Africa", "geoPoint": {"lat": -29.8579, "lon": 31.0292}}, {"facility": "Novo Nordisk Investigational Site", "city": "Durban", "state": "KwaZulu-Natal", "zip": "4091", "country": "South Africa", "geoPoint": {"lat": -29.8579, "lon": 31.0292}}, {"facility": "Novo Nordisk Investigational Site", "city": "Brits", "state": "North West", "zip": "0250", "country": "South Africa", "geoPoint": {"lat": -25.63473, "lon": 27.78022}}, {"facility": "Novo Nordisk Investigational Site", "city": "Alzira", "zip": "46600", "country": "Spain", "geoPoint": {"lat": 39.15, "lon": -0.43333}}, {"facility": "Novo Nordisk Investigational Site", "city": "Madrid", "zip": "28040", "country": "Spain", "geoPoint": {"lat": 40.4165, "lon": -3.70256}}, {"facility": "Novo Nordisk Investigational Site", "city": "Madrid", "zip": "28041", "country": "Spain", "geoPoint": {"lat": 40.4165, "lon": -3.70256}}, {"facility": "Novo Nordisk Investigational Site", "city": "M\u00e1laga", "zip": "29009", "country": "Spain", "geoPoint": {"lat": 36.72016, "lon": -4.42034}}, {"facility": "Novo Nordisk Investigational Site", "city": "G\u00f6teborg", "zip": "413 45", "country": "Sweden", "geoPoint": {"lat": 57.70716, "lon": 11.96679}}, {"facility": "Novo Nordisk Investigational Site", "city": "Lund", "zip": "221 85", "country": "Sweden", "geoPoint": {"lat": 55.70584, "lon": 13.19321}}, {"facility": "Novo Nordisk Investigational Site", "city": "Malm\u00f6", "zip": "205 02", "country": "Sweden", "geoPoint": {"lat": 55.60587, "lon": 13.00073}}, {"facility": "Novo Nordisk Investigational Site", "city": "Stockholm", "zip": "182 88", "country": "Sweden", "geoPoint": {"lat": 59.33258, "lon": 18.0649}}]}, "referencesModule": {"references": [{"pmid": "19821654", "type": "RESULT", "citation": "Strojek K, Bebakar WM, Khutsoane DT, Pesic M, Smahelova A, Thomsen HF, Kalra S. Once-daily initiation with biphasic insulin aspart 30 versus insulin glargine in patients with type 2 diabetes inadequately controlled with oral drugs: an open-label, multinational RCT. Curr Med Res Opin. 2009 Dec;25(12):2887-94. doi: 10.1185/03007990903354674."}, {"pmid": "20363044", "type": "RESULT", "citation": "Kalra S, Plata-Que T, Kumar D, Mumtaz M, Sondergaard F, Kozlovski P, Bebakar WM. Initiation with once-daily BIAsp 30 results in superior outcome compared to insulin glargine in Asians with type 2 diabetes inadequately controlled by oral anti-diabetic drugs. Diabetes Res Clin Pract. 2010 Jun;88(3):282-8. doi: 10.1016/j.diabres.2010.03.004. Epub 2010 Apr 2."}], "seeAlsoLinks": [{"label": "Clinical Trials at Novo Nordisk", "url": "http://novonordisk-trials.com"}]}}, "resultsSection": {"participantFlowModule": {"preAssignmentDetails": "A screening period of 1-2 weeks was followed by a run-in period of 4 weeks during which metformin was titrated to maximum 2550 mg and glimepiride to 4 mg, at the discretion of the investigator. Subjects who were already taking 4, 6 or 8 mg glimepiride continued on this dose. Doses were kept constant during the last week prior to randomisation.", "recruitmentDetails": "Subjects were enrolled 64 sites in 15 countries in Africa, Europe, Asia, North America and South America.", "groups": [{"id": "FG000", "title": "BIAsp 30", "description": "Biphasic insulin aspart 30 + metformin + glimepiride"}, {"id": "FG001", "title": "Glargine", "description": "Insulin glargine + metformin + glimepiride"}], "periods": [{"title": "Overall Study", "milestones": [{"type": "STARTED", "achievements": [{"groupId": "FG000", "numSubjects": "239"}, {"groupId": "FG001", "numSubjects": "241"}]}, {"type": "Exposed to Study Drug", "achievements": [{"groupId": "FG000", "numSubjects": "231"}, {"groupId": "FG001", "numSubjects": "238"}]}, {"type": "COMPLETED", "achievements": [{"groupId": "FG000", "numSubjects": "213"}, {"groupId": "FG001", "numSubjects": "220"}]}, {"type": "NOT COMPLETED", "achievements": [{"groupId": "FG000", "numSubjects": "26"}, {"groupId": "FG001", "numSubjects": "21"}]}], "dropWithdraws": [{"type": "Adverse Event", "reasons": [{"groupId": "FG000", "numSubjects": "5"}, {"groupId": "FG001", "numSubjects": "4"}]}, {"type": "Lack of Efficacy", "reasons": [{"groupId": "FG000", "numSubjects": "1"}, {"groupId": "FG001", "numSubjects": "0"}]}, {"type": "Lost to Follow-up", "reasons": [{"groupId": "FG000", "numSubjects": "1"}, {"groupId": "FG001", "numSubjects": "2"}]}, {"type": "Protocol Violation", "reasons": [{"groupId": "FG000", "numSubjects": "3"}, {"groupId": "FG001", "numSubjects": "3"}]}, {"type": "Withdrawal by Subject", "reasons": [{"groupId": "FG000", "numSubjects": "4"}, {"groupId": "FG001", "numSubjects": "4"}]}, {"type": "Withdrawal Criteria", "reasons": [{"groupId": "FG000", "numSubjects": "3"}, {"groupId": "FG001", "numSubjects": "4"}]}, {"type": "Incorrectly Randomised", "reasons": [{"groupId": "FG000", "numSubjects": "4"}, {"groupId": "FG001", "numSubjects": "3"}]}, {"type": "Contraindication metformin/glimepiride", "reasons": [{"groupId": "FG000", "numSubjects": "1"}, {"groupId": "FG001", "numSubjects": "0"}]}, {"type": "Use of lipid lowering drug", "reasons": [{"groupId": "FG000", "numSubjects": "1"}, {"groupId": "FG001", "numSubjects": "0"}]}, {"type": "Hypoglycaemic Episodes", "reasons": [{"groupId": "FG000", "numSubjects": "1"}, {"groupId": "FG001", "numSubjects": "1"}]}, {"type": "Abnormal lab value", "reasons": [{"groupId": "FG000", "numSubjects": "1"}, {"groupId": "FG001", "numSubjects": "0"}]}, {"type": "Use of Corticosteroid", "reasons": [{"groupId": "FG000", "numSubjects": "1"}, {"groupId": "FG001", "numSubjects": "0"}]}]}]}, "baselineCharacteristicsModule": {"groups": [{"id": "BG000", "title": "BIAsp 30", "description": "Biphasic insulin aspart 30 + metformin + glimepiride"}, {"id": "BG001", "title": "Glargine", "description": "Insulin glargine + metformin + glimepiride"}, {"id": "BG002", "title": "Total", "description": "Total of all reporting groups"}], "denoms": [{"units": "Participants", "counts": [{"groupId": "BG000", "value": "231"}, {"groupId": "BG001", "value": "238"}, {"groupId": "BG002", "value": "469"}]}], "measures": [{"title": "Age, Continuous", "paramType": "MEAN", "dispersionType": "STANDARD_DEVIATION", "unitOfMeasure": "years", "classes": [{"categories": [{"measurements": [{"groupId": "BG000", "value": "55.9", "spread": "9.7"}, {"groupId": "BG001", "value": "56.1", "spread": "10.0"}, {"groupId": "BG002", "value": "56.0", "spread": "9.9"}]}]}]}, {"title": "Gender", "paramType": "COUNT_OF_PARTICIPANTS", "unitOfMeasure": "Participants", "classes": [{"categories": [{"title": "Female", "measurements": [{"groupId": "BG000", "value": "123"}, {"groupId": "BG001", "value": "140"}, {"groupId": "BG002", "value": "263"}]}, {"title": "Male", "measurements": [{"groupId": "BG000", "value": "108"}, {"groupId": "BG001", "value": "98"}, {"groupId": "BG002", "value": "206"}]}]}]}, {"title": "Ethnicity (NIH/OMB)", "paramType": "COUNT_OF_PARTICIPANTS", "unitOfMeasure": "Participants", "classes": [{"categories": [{"title": "Hispanic or Latino", "measurements": [{"groupId": "BG000", "value": "35"}, {"groupId": "BG001", "value": "40"}, {"groupId": "BG002", "value": "75"}]}, {"title": "Not Hispanic or Latino", "measurements": [{"groupId": "BG000", "value": "192"}, {"groupId": "BG001", "value": "196"}, {"groupId": "BG002", "value": "388"}]}, {"title": "Unknown or Not Reported", "measurements": [{"groupId": "BG000", "value": "4"}, {"groupId": "BG001", "value": "2"}, {"groupId": "BG002", "value": "6"}]}]}]}, {"title": "Race (NIH/OMB)", "paramType": "COUNT_OF_PARTICIPANTS", "unitOfMeasure": "Participants", "classes": [{"categories": [{"title": "American Indian or Alaska Native", "measurements": [{"groupId": "BG000", "value": "13"}, {"groupId": "BG001", "value": "11"}, {"groupId": "BG002", "value": "24"}]}, {"title": "Asian", "measurements": [{"groupId": "BG000", "value": "76"}, {"groupId": "BG001", "value": "79"}, {"groupId": "BG002", "value": "155"}]}, {"title": "Native Hawaiian or Other Pacific Islander", "measurements": [{"groupId": "BG000", "value": "0"}, {"groupId": "BG001", "value": "0"}, {"groupId": "BG002", "value": "0"}]}, {"title": "Black or African American", "measurements": [{"groupId": "BG000", "value": "10"}, {"groupId": "BG001", "value": "7"}, {"groupId": "BG002", "value": "17"}]}, {"title": "White", "measurements": [{"groupId": "BG000", "value": "125"}, {"groupId": "BG001", "value": "133"}, {"groupId": "BG002", "value": "258"}]}, {"title": "More than one race", "measurements": [{"groupId": "BG000", "value": "3"}, {"groupId": "BG001", "value": "6"}, {"groupId": "BG002", "value": "9"}]}, {"title": "Unknown or Not Reported", "measurements": [{"groupId": "BG000", "value": "4"}, {"groupId": "BG001", "value": "2"}, {"groupId": "BG002", "value": "6"}]}]}]}, {"title": "BMI", "description": "Body Mass Index", "paramType": "MEAN", "dispersionType": "STANDARD_DEVIATION", "unitOfMeasure": "kg/m^2", "classes": [{"categories": [{"measurements": [{"groupId": "BG000", "value": "29.0", "spread": "4.6"}, {"groupId": "BG001", "value": "29.1", "spread": "4.6"}, {"groupId": "BG002", "value": "29.1", "spread": "4.6"}]}]}]}, {"title": "Diabetes duration", "description": "Number of years since diagnosis of diabetes", "paramType": "MEAN", "dispersionType": "STANDARD_DEVIATION", "unitOfMeasure": "years", "classes": [{"categories": [{"measurements": [{"groupId": "BG000", "value": "9.1", "spread": "5.8"}, {"groupId": "BG001", "value": "9.5", "spread": "6.1"}, {"groupId": "BG002", "value": "9.3", "spread": "6.0"}]}]}]}, {"title": "HbA1c", "description": "Glycosylated Haemoglobin", "paramType": "MEAN", "dispersionType": "STANDARD_DEVIATION", "unitOfMeasure": "percentage of total haemoglobin", "classes": [{"categories": [{"measurements": [{"groupId": "BG000", "value": "8.9", "spread": "1.0"}, {"groupId": "BG001", "value": "9.0", "spread": "1.1"}, {"groupId": "BG002", "value": "9.0", "spread": "1.1"}]}]}]}, {"title": "Weight", "paramType": "MEAN", "dispersionType": "STANDARD_DEVIATION", "unitOfMeasure": "kg", "classes": [{"categories": [{"measurements": [{"groupId": "BG000", "value": "77.5", "spread": "14.6"}, {"groupId": "BG001", "value": "77.3", "spread": "15.4"}, {"groupId": "BG002", "value": "77.4", "spread": "15.0"}]}]}]}]}, "outcomeMeasuresModule": {"outcomeMeasures": [{"type": "PRIMARY", "title": "Glycosylated Haemoglobin A1c (HbA1c)", "description": "Glycosylated Haemoglobin A1c measured in blood samples after 26 weeks of treatment.", "populationDescription": "Intention to Treat (Last Observation Carried Forward) population. All randomised subjects exposed to trial drug, and who had at least a baseline HbA1c measurement and at least one post randomisation HbA1c measurement.", "reportingStatus": "POSTED", "paramType": "LEAST_SQUARES_MEAN", "dispersionType": "Standard Deviation", "unitOfMeasure": "percentage of total haemoglobin", "timeFrame": "After 26 weeks of treatment", "groups": [{"id": "OG000", "title": "BIAsp 30", "description": "Biphasic insulin aspart 30 + metformin + glimepiride"}, {"id": "OG001", "title": "Glargine", "description": "Insulin glargine + metformin + glimepiride"}], "denoms": [{"units": "Participants", "counts": [{"groupId": "OG000", "value": "225"}, {"groupId": "OG001", "value": "232"}]}], "classes": [{"categories": [{"measurements": [{"groupId": "OG000", "value": "7.08", "spread": "0.07"}, {"groupId": "OG001", "value": "7.23", "spread": "0.07"}]}]}], "analyses": [{"groupIds": ["OG000", "OG001"], "groupDescription": "HbA1c was compared between the treatment groups by fitting a linear regression model (ANCOVA) with treatment and country as factors and the baseline values as a continuous covariate. Mean and SE are estimated from the model.", "testedNonInferiority": true, "nonInferiorityType": "NON_INFERIORITY_OR_EQUIVALENCE", "nonInferiorityComment": "Non-inferiority is shown if the upper limit of the 95% CI is less than 0.4%. Furthermore, superiority of BIAsp 30 OD over insulin glargine OD was shown if the upper limit of the 95% CI for the difference is lower than 0%. Equivalence is shown if the upper limit of the 95% CI for the difference is lower than 0.4% and the lower limit of the 95% CI is greater than -0.4%.", "pValue": "0.029", "pValueComment": "P-value is for the test for difference in means equals 0 against the alternative that the difference is different from 0.", "statisticalMethod": "Regression, Linear", "paramType": "Mean Difference (Net)", "paramValue": "-0.16", "ciPctValue": "95", "ciLowerLimit": "-0.30", "ciUpperLimit": "-0.02"}]}, {"type": "SECONDARY", "title": "9-point Self-measured Plasma Glucose Profiles", "description": "Glycaemic control measured by 9-point self-measured plasma glucose (SMPG) profiles. The 9 time points for self-measurement during the day were: Before breakfast, 2 hours after breakfast, before lunch, 2 hours after lunch, before dinner, 2 hours after dinner, before bedtime, at 2-4 AM, and before breakfast the following day. Hypoglycaemia episodes were defined as major or minor. Major if the subject was unable to treat her/himself. Minor if subject was able to treat her/himself and plasma glucose was below 3.1 mmol/L or 56 mg/dL.", "populationDescription": "Intention to Treat, Last Observation Carried Forward population. All randomised subjects exposed to trial drug, and who had at least a baseline HbA1c measurement and at least one post randomisation HbA1c measurement.", "reportingStatus": "POSTED", "paramType": "MEAN", "dispersionType": "Standard Error", "unitOfMeasure": "mmol/L", "timeFrame": "After 26 weeks of treatment", "groups": [{"id": "OG000", "title": "BIAsp 30", "description": "Biphasic insulin aspart 30 + metformin + glimepiride"}, {"id": "OG001", "title": "Glargine", "description": "Insulin glargine + metformin + glimepiride"}], "denoms": [{"units": "Participants", "counts": [{"groupId": "OG000", "value": "225"}, {"groupId": "OG001", "value": "232"}]}], "classes": [{"title": "Before breakfast", "categories": [{"measurements": [{"groupId": "OG000", "value": "6.73", "spread": "0.12"}, {"groupId": "OG001", "value": "6.56", "spread": "0.12"}]}]}, {"title": "2 hours after breakfast", "categories": [{"measurements": [{"groupId": "OG000", "value": "9.40", "spread": "0.20"}, {"groupId": "OG001", "value": "9.07", "spread": "0.20"}]}]}, {"title": "Before lunch", "categories": [{"measurements": [{"groupId": "OG000", "value": "7.24", "spread": "0.18"}, {"groupId": "OG001", "value": "7.28", "spread": "0.18"}]}]}, {"title": "2 hours after lunch", "categories": [{"measurements": [{"groupId": "OG000", "value": "8.90", "spread": "0.20"}, {"groupId": "OG001", "value": "8.98", "spread": "0.20"}]}]}, {"title": "Before dinner", "categories": [{"measurements": [{"groupId": "OG000", "value": "7.90", "spread": "0.18"}, {"groupId": "OG001", "value": "7.80", "spread": "0.18"}]}]}, {"title": "2 hours after dinner", "categories": [{"measurements": [{"groupId": "OG000", "value": "8.66", "spread": "0.19"}, {"groupId": "OG001", "value": "9.18", "spread": "0.19"}]}]}, {"title": "Before bedtime", "categories": [{"measurements": [{"groupId": "OG000", "value": "7.77", "spread": "0.18"}, {"groupId": "OG001", "value": "8.54", "spread": "0.18"}]}]}, {"title": "02:00-04:00 AM", "categories": [{"measurements": [{"groupId": "OG000", "value": "6.56", "spread": "0.14"}, {"groupId": "OG001", "value": "6.69", "spread": "0.14"}]}]}, {"title": "Before breakfast following day", "categories": [{"measurements": [{"groupId": "OG000", "value": "6.65", "spread": "0.12"}, {"groupId": "OG001", "value": "6.40", "spread": "0.12"}]}]}], "analyses": [{"groupIds": ["OG000", "OG001"], "groupDescription": "The profiles were compared between the treatment groups by fitting a repeated measures mixed model including treatment, time, the treatment-by-time interaction and country as fixed effects, and subject as random effect.", "testedNonInferiority": false, "nonInferiorityType": "SUPERIORITY_OR_OTHER", "pValue": "0.0059", "pValueComment": "P-value for parallelism is overall test for parallel time profiles between treatment groups i.e. time by treatment group interaction effect.", "statisticalMethod": "Mixed Models Analysis", "ciPctValue": "95"}]}, {"type": "SECONDARY", "title": "Number of Subjects Achieving the Treatment Target for Glycosylated Haemoglobin A1c (HbA1c)", "description": "The number of subjects achieving the treatment target for glycosylated haemoglobin A1c after 26 weeks treatment. The treatment targets were: HbA1c \\<= 6.5% of haemoglobin and HbA1c \\< 7% of haemoglobin.", "populationDescription": "Intention to Treat, Last Observation Carried Forward population. All randomised subjects exposed to trial drug, and who had at least a baseline HbA1c measurement and at least one post randomisation HbA1c measurement.", "reportingStatus": "POSTED", "paramType": "NUMBER", "unitOfMeasure": "participants", "timeFrame": "After 26 weeks of treatment", "groups": [{"id": "OG000", "title": "BIAsp 30", "description": "Biphasic insulin aspart 30 + metformin + glimepiride"}, {"id": "OG001", "title": "Glargine", "description": "Insulin glargine + metformin + glimepiride"}], "denoms": [{"units": "Participants", "counts": [{"groupId": "OG000", "value": "225"}, {"groupId": "OG001", "value": "232"}]}], "classes": [{"title": "HbA1c <= 6.5% of haemoglobin", "categories": [{"measurements": [{"groupId": "OG000", "value": "54"}, {"groupId": "OG001", "value": "60"}]}]}, {"title": "HbA1c < 7.0% of haemoglobin", "categories": [{"measurements": [{"groupId": "OG000", "value": "101"}, {"groupId": "OG001", "value": "106"}]}]}, {"title": "Reduction > 1% point from baseline", "categories": [{"measurements": [{"groupId": "OG000", "value": "134"}, {"groupId": "OG001", "value": "132"}]}]}, {"title": "HbA1c < 7% no nocturnal hypoglycemia", "categories": [{"measurements": [{"groupId": "OG000", "value": "82"}, {"groupId": "OG001", "value": "92"}]}]}, {"title": "HbA1c < 7%, no daytime hypoglycemia", "categories": [{"measurements": [{"groupId": "OG000", "value": "52"}, {"groupId": "OG001", "value": "50"}]}]}, {"title": "HbA1c < 7%, no hypoglycemia", "categories": [{"measurements": [{"groupId": "OG000", "value": "45"}, {"groupId": "OG001", "value": "45"}]}]}], "analyses": [{"groupIds": ["OG000", "OG001"], "testedNonInferiority": false, "nonInferiorityType": "SUPERIORITY_OR_OTHER", "paramType": "Odds Ratio (OR)", "paramValue": "0.914", "ciPctValue": "95", "ciLowerLimit": "0.57", "ciUpperLimit": "1.47", "estimateComment": "The OR and 95% CI is for the HbA1c \\<= 6.5% treatment target."}, {"groupIds": ["OG000", "OG001"], "testedNonInferiority": false, "nonInferiorityType": "SUPERIORITY_OR_OTHER", "paramType": "Odds Ratio (OR)", "paramValue": "1.014", "ciPctValue": "95", "ciLowerLimit": "0.67", "ciUpperLimit": "1.54", "estimateComment": "The OR and 95% CI is for the HbA1c \\< 7.0% treatment target."}, {"groupIds": ["OG000", "OG001"], "testedNonInferiority": false, "nonInferiorityType": "SUPERIORITY_OR_OTHER", "paramType": "Odds Ratio (OR)", "paramValue": "1.131", "ciPctValue": "95", "ciLowerLimit": "0.72", "ciUpperLimit": "1.77", "estimateComment": "The OR and 95% CI is for the reduction more than 1.0% from baseline treatment target."}, {"groupIds": ["OG000", "OG001"], "testedNonInferiority": false, "nonInferiorityType": "SUPERIORITY_OR_OTHER", "paramType": "Odds Ratio (OR)", "paramValue": "0.905", "ciPctValue": "95", "ciLowerLimit": "0.59", "ciUpperLimit": "1.38", "estimateComment": "The OR and 95% CI is for the HbA1c \\< 7% no nocturnal (00:00-06:00) hypoglycemia treatment target"}, {"groupIds": ["OG000", "OG001"], "testedNonInferiority": false, "nonInferiorityType": "SUPERIORITY_OR_OTHER", "paramType": "Odds Ratio (OR)", "paramValue": "1.181", "ciPctValue": "95", "ciLowerLimit": "0.74", "ciUpperLimit": "1.87", "estimateComment": "The OR and 95% CI is for the HbA1c \\< 7%, no daytime (06:01-23:59) hypoglycemia treatment target"}, {"groupIds": ["OG000", "OG001"], "testedNonInferiority": false, "nonInferiorityType": "SUPERIORITY_OR_OTHER", "paramType": "Odds Ratio (OR)", "paramValue": "1.122", "ciPctValue": "95", "ciLowerLimit": "0.69", "ciUpperLimit": "1.82", "estimateComment": "The OR and 95% CI is for the HbA1c \\< 7%, no hypoglycemia treatment target."}]}, {"type": "SECONDARY", "title": "Treatment Satisfaction as Measured by the Diabetes Medication Satisfaction Questionnaire (Diab MedSat)", "description": "Subjects assessed the burden, efficacy, symptoms and overall score in the treatment satisfaction questionnaire, Diab MedSat (Diabetes Medication Satisfaction questionnaire). The scores were transformed to a 0-100 scale with higher scores indicating greater satisfaction. The score of the subscales was computed as the mean of the items in each subscale.", "populationDescription": "Intention to Treat, Last Observation Carried Forward population. All randomised subjects exposed to trial drug, and who had at least a baseline HbA1c measurement and at least one post randomisation HbA1c measurement.", "reportingStatus": "POSTED", "paramType": "MEAN", "dispersionType": "Standard Error", "unitOfMeasure": "scores on a scale", "timeFrame": "After 26 weeks of treatment", "groups": [{"id": "OG000", "title": "BIAsp 30", "description": "Biphasic insulin aspart 30 + metformin + glimepiride"}, {"id": "OG001", "title": "Glargine", "description": "Insulin glargine + metformin + glimepiride"}], "denoms": [{"units": "Participants", "counts": [{"groupId": "OG000", "value": "225"}, {"groupId": "OG001", "value": "232"}]}], "classes": [{"title": "Burden Score", "categories": [{"measurements": [{"groupId": "OG000", "value": "83.10", "spread": "1.13"}, {"groupId": "OG001", "value": "83.06", "spread": "1.16"}]}]}, {"title": "Efficacy Score", "categories": [{"measurements": [{"groupId": "OG000", "value": "73.25", "spread": "1.57"}, {"groupId": "OG001", "value": "73.47", "spread": "1.57"}]}]}, {"title": "Symptoms Score", "categories": [{"measurements": [{"groupId": "OG000", "value": "72.42", "spread": "1.29"}, {"groupId": "OG001", "value": "72.81", "spread": "1.29"}]}]}, {"title": "Overall Score", "categories": [{"measurements": [{"groupId": "OG000", "value": "76.53", "spread": "1.04"}, {"groupId": "OG001", "value": "76.64", "spread": "1.05"}]}]}], "analyses": [{"groupIds": ["OG000", "OG001"], "groupDescription": "The Diab MedSat measure was scored as an overall score as well as three subscale scores. The scores were transformed to a 0-100 scale with higher scores indicating greater satisfaction. The score of the subscales was computed as the mean of the items in each subscale. The overall score is the mean of all three subscales.", "testedNonInferiority": false, "nonInferiorityType": "SUPERIORITY_OR_OTHER", "paramType": "Mean Difference (Net)", "paramValue": "0.04", "ciPctValue": "95", "ciLowerLimit": "-2.40", "ciUpperLimit": "2.48", "estimateComment": "The mean difference and 95% CI is for the burden score. The scores were compared between the treatment groups by fitting a linear regression model with treatment and country as factors and the baseline values as a continuous covariate."}, {"groupIds": ["OG000", "OG001"], "groupDescription": "The Diab MedSat measure was scored as an overall score as well as three subscale scores. The scores were transformed to a 0-100 scale with higher scores indicating greater satisfaction. The score of the subscales was computed as the mean of the items in each subscale. The overall score is the mean of all three subscales.", "testedNonInferiority": false, "nonInferiorityType": "SUPERIORITY_OR_OTHER", "paramType": "Mean Difference (Net)", "paramValue": "-0.22", "ciPctValue": "95", "ciLowerLimit": "-3.56", "ciUpperLimit": "3.11", "estimateComment": "The mean difference and 95% CI is for the efficacy score. The scores were compared between the treatment groups by fitting a linear regression model with treatment and country as factors and the baseline values as a continuous covariate."}, {"groupIds": ["OG000", "OG001"], "groupDescription": "The Diab MedSat measure was scored as an overall score as well as three subscale scores. The scores were transformed to a 0-100 scale with higher scores indicating greater satisfaction. The score of the subscales was computed as the mean of the items in each subscale. The overall score is the mean of all three subscales.", "testedNonInferiority": false, "nonInferiorityType": "SUPERIORITY_OR_OTHER", "paramType": "Mean Difference (Net)", "paramValue": "-0.39", "ciPctValue": "95", "ciLowerLimit": "-3.14", "ciUpperLimit": "2.35", "estimateComment": "The mean difference and 95% CI is for the symptoms score. The scores were compared between the treatment groups by fitting a linear regression model with treatment and country as factors and the baseline values as a continuous covariate."}, {"groupIds": ["OG000", "OG001"], "groupDescription": "Diab MedSat measure was scored as an overall score as well as three subscale scores, and transformed to a 0-100 scale with higher scores indicating greater satisfaction. The score of the subscales was computed as the mean of the items in each subscale. The overall score is the mean of all three subscales.", "testedNonInferiority": false, "nonInferiorityType": "SUPERIORITY_OR_OTHER", "statisticalMethod": "Regression, Linear", "paramType": "Mean Difference (Net)", "paramValue": "-0.11", "ciPctValue": "95", "ciLowerLimit": "-2.36", "ciUpperLimit": "2.14", "estimateComment": "The mean difference and 95% CI is for the overall score. The scores were compared between the treatment groups by fitting a linear regression model with treatment and country as factors and the baseline values as a continuous covariate."}]}, {"type": "SECONDARY", "title": "Number of Hypoglycaemic Episodes", "description": "Total number of hypoglycaemic episodes experienced in each treatment arm. Hypoglycaemic episodes were defined as major, minor, or symptoms only. Major if the subject was unable to treat her/himself. Minor if subject was able to treat her/himself and plasma glucose was below 3.1 mmol/L or 56 mg/dL. Symptoms only if subject was able to treat her/himself and with either no plasma glucose or blood glucose measurement or plasma glucose higher than or equal to 3.1 mmol/L or 56 mg/dL.", "reportingStatus": "POSTED", "paramType": "NUMBER", "unitOfMeasure": "events", "timeFrame": "Weeks 0-26", "groups": [{"id": "OG000", "title": "BIAsp 30", "description": "Biphasic insulin aspart 30 + metformin + glimepiride"}, {"id": "OG001", "title": "Glargine", "description": "Insulin glargine + metformin + glimepiride"}], "denoms": [{"units": "Participants", "counts": [{"groupId": "OG000", "value": "231"}, {"groupId": "OG001", "value": "238"}]}], "classes": [{"title": "Minor", "categories": [{"measurements": [{"groupId": "OG000", "value": "443"}, {"groupId": "OG001", "value": "318"}]}]}, {"title": "Symptom only", "categories": [{"measurements": [{"groupId": "OG000", "value": "265"}, {"groupId": "OG001", "value": "224"}]}]}, {"title": "Major", "categories": [{"measurements": [{"groupId": "OG000", "value": "3"}, {"groupId": "OG001", "value": "3"}]}]}, {"title": "Unclassified", "categories": [{"measurements": [{"groupId": "OG000", "value": "1"}, {"groupId": "OG001", "value": "0"}]}]}]}, {"type": "SECONDARY", "title": "Number of Subjects Reporting Treatment Emergent Adverse Events", "description": "Number of subjects reporting treatment emergent adverse events during the trial (from week 0 to week 26). Adverse events were reported as treatment emergent if they occurred from the date of first insulin trial product administration up to and including the date of last insulin trial product administration.", "populationDescription": "The safety analysis population consists of all subjects exposed to trial products.", "reportingStatus": "POSTED", "paramType": "NUMBER", "unitOfMeasure": "participants", "timeFrame": "Weeks 0-26", "groups": [{"id": "OG000", "title": "BIAsp 30", "description": "Biphasic insulin aspart 30 + metformin + glimepiride"}, {"id": "OG001", "title": "Glargine", "description": "Insulin glargine + metformin + glimepiride"}], "denoms": [{"units": "Participants", "counts": [{"groupId": "OG000", "value": "231"}, {"groupId": "OG001", "value": "238"}]}], "classes": [{"categories": [{"measurements": [{"groupId": "OG000", "value": "117"}, {"groupId": "OG001", "value": "115"}]}]}]}]}, "adverseEventsModule": {"frequencyThreshold": "5", "timeFrame": "The adverse event were collected in a time span of 26 weeks.", "description": "The safety analysis population consists of all subjects exposed to trial products.", "eventGroups": [{"id": "EG000", "title": "BIAsp 30", "description": "Biphasic insulin aspart 30 + metformin + glimepiride", "seriousNumAffected": 13, "seriousNumAtRisk": 231, "otherNumAffected": 56, "otherNumAtRisk": 231}, {"id": "EG001", "title": "Glargine", "description": "Insulin glargine + metformin + glimepiride", "seriousNumAffected": 10, "seriousNumAtRisk": 238, "otherNumAffected": 63, "otherNumAtRisk": 238}], "seriousEvents": [{"term": "Acute Myocardial Infarction", "organSystem": "Cardiac disorders", "sourceVocabulary": "MedDRA (11.0)", "assessmentType": "SYSTEMATIC_ASSESSMENT", "stats": [{"groupId": "EG000", "numEvents": 0, "numAffected": 0, "numAtRisk": 231}, {"groupId": "EG001", "numEvents": 1, "numAffected": 1, "numAtRisk": 238}]}, {"term": "Angina Unstable", "organSystem": "Cardiac disorders", "sourceVocabulary": "MedDRA (11.0)", "assessmentType": "SYSTEMATIC_ASSESSMENT", "stats": [{"groupId": "EG000", "numEvents": 1, "numAffected": 1, "numAtRisk": 231}, {"groupId": "EG001", "numEvents": 0, "numAffected": 0, "numAtRisk": 238}]}, {"term": "Biliary Colic", "organSystem": "Hepatobiliary disorders", "sourceVocabulary": "MedDRA (11.0)", "assessmentType": "SYSTEMATIC_ASSESSMENT", "stats": [{"groupId": "EG000", "numEvents": 1, "numAffected": 1, "numAtRisk": 231}, {"groupId": "EG001", "numEvents": 0, "numAffected": 0, "numAtRisk": 238}]}, {"term": "Gastroenteritis", "organSystem": "Infections and infestations", "sourceVocabulary": "MedDRA (11.0)", "assessmentType": "SYSTEMATIC_ASSESSMENT", "stats": [{"groupId": "EG000", "numEvents": 1, "numAffected": 1, "numAtRisk": 231}, {"groupId": "EG001", "numEvents": 0, "numAffected": 0, "numAtRisk": 238}]}, {"term": "Gastroenteritis Escherichia Coli", "organSystem": "Infections and infestations", "sourceVocabulary": "MedDRA (11.0)", "assessmentType": "SYSTEMATIC_ASSESSMENT", "stats": [{"groupId": "EG000", "numEvents": 1, "numAffected": 1, "numAtRisk": 231}, {"groupId": "EG001", "numEvents": 0, "numAffected": 0, "numAtRisk": 238}]}, {"term": "Otitis Media Chronic", "organSystem": "Infections and infestations", "sourceVocabulary": "MedDRA (11.0)", "assessmentType": "SYSTEMATIC_ASSESSMENT", "stats": [{"groupId": "EG000", "numEvents": 1, "numAffected": 1, "numAtRisk": 231}, {"groupId": "EG001", "numEvents": 0, "numAffected": 0, "numAtRisk": 238}]}, {"term": "Perianal Abscess", "organSystem": "Infections and infestations", "sourceVocabulary": "MedDRA (11.0)", "assessmentType": "SYSTEMATIC_ASSESSMENT", "stats": [{"groupId": "EG000", "numEvents": 1, "numAffected": 1, "numAtRisk": 231}, {"groupId": "EG001", "numEvents": 1, "numAffected": 1, "numAtRisk": 238}]}, {"term": "Pneumonia", "organSystem": "Infections and infestations", "sourceVocabulary": "MedDRA (11.0)", "assessmentType": "SYSTEMATIC_ASSESSMENT", "stats": [{"groupId": "EG000", "numEvents": 0, "numAffected": 0, "numAtRisk": 231}, {"groupId": "EG001", "numEvents": 1, "numAffected": 1, "numAtRisk": 238}]}, {"term": "Pneumonia Primary Atypical", "organSystem": "Infections and infestations", "sourceVocabulary": "MedDRA (11.0)", "assessmentType": "SYSTEMATIC_ASSESSMENT", "stats": [{"groupId": "EG000", "numEvents": 1, "numAffected": 1, "numAtRisk": 231}, {"groupId": "EG001", "numEvents": 0, "numAffected": 0, "numAtRisk": 238}]}, {"term": "Postoperative Wound Infection", "organSystem": "Infections and infestations", "sourceVocabulary": "MedDRA (11.0)", "assessmentType": "SYSTEMATIC_ASSESSMENT", "stats": [{"groupId": "EG000", "numEvents": 0, "numAffected": 0, "numAtRisk": 231}, {"groupId": "EG001", "numEvents": 1, "numAffected": 1, "numAtRisk": 238}]}, {"term": "Femoral Neck Fracture", "organSystem": "Injury, poisoning and procedural complications", "sourceVocabulary": "MedDRA (11.0)", "assessmentType": "SYSTEMATIC_ASSESSMENT", "stats": [{"groupId": "EG000", "numEvents": 1, "numAffected": 1, "numAtRisk": 231}, {"groupId": "EG001", "numEvents": 0, "numAffected": 0, "numAtRisk": 238}]}, {"term": "Vascular Graft Occlusion", "organSystem": "Injury, poisoning and procedural complications", "sourceVocabulary": "MedDRA (11.0)", "assessmentType": "SYSTEMATIC_ASSESSMENT", "stats": [{"groupId": "EG000", "numEvents": 0, "numAffected": 0, "numAtRisk": 231}, {"groupId": "EG001", "numEvents": 1, "numAffected": 1, "numAtRisk": 238}]}, {"term": "Diabetic Foot", "organSystem": "Metabolism and nutrition disorders", "sourceVocabulary": "MedDRA (11.0)", "assessmentType": "SYSTEMATIC_ASSESSMENT", "stats": [{"groupId": "EG000", "numEvents": 1, "numAffected": 1, "numAtRisk": 231}, {"groupId": "EG001", "numEvents": 1, "numAffected": 1, "numAtRisk": 238}]}, {"term": "Hypoglycaemia", "organSystem": "Metabolism and nutrition disorders", "sourceVocabulary": "MedDRA (11.0)", "assessmentType": "SYSTEMATIC_ASSESSMENT", "stats": [{"groupId": "EG000", "numEvents": 0, "numAffected": 0, "numAtRisk": 231}, {"groupId": "EG001", "numEvents": 2, "numAffected": 2, "numAtRisk": 238}]}, {"term": "Hypoglycaemic Unconsciousness", "organSystem": "Metabolism and nutrition disorders", "sourceVocabulary": "MedDRA (11.0)", "assessmentType": "SYSTEMATIC_ASSESSMENT", "stats": [{"groupId": "EG000", "numEvents": 1, "numAffected": 1, "numAtRisk": 231}, {"groupId": "EG001", "numEvents": 0, "numAffected": 0, "numAtRisk": 238}]}, {"term": "Dupuytren's Contracture", "organSystem": "Musculoskeletal and connective tissue disorders", "sourceVocabulary": "MedDRA (11.0)", "assessmentType": "SYSTEMATIC_ASSESSMENT", "stats": [{"groupId": "EG000", "numEvents": 1, "numAffected": 1, "numAtRisk": 231}, {"groupId": "EG001", "numEvents": 0, "numAffected": 0, "numAtRisk": 238}]}, {"term": "Cerebral Infarction", "organSystem": "Nervous system disorders", "sourceVocabulary": "MedDRA (11.0)", "assessmentType": "SYSTEMATIC_ASSESSMENT", "stats": [{"groupId": "EG000", "numEvents": 1, "numAffected": 1, "numAtRisk": 231}, {"groupId": "EG001", "numEvents": 0, "numAffected": 0, "numAtRisk": 238}]}, {"term": "Cerebrovascular Accident", "organSystem": "Nervous system disorders", "sourceVocabulary": "MedDRA (11.0)", "assessmentType": "SYSTEMATIC_ASSESSMENT", "stats": [{"groupId": "EG000", "numEvents": 0, "numAffected": 0, "numAtRisk": 231}, {"groupId": "EG001", "numEvents": 2, "numAffected": 2, "numAtRisk": 238}]}, {"term": "Guillain-Barre Syndrome", "organSystem": "Nervous system disorders", "sourceVocabulary": "MedDRA (11.0)", "assessmentType": "SYSTEMATIC_ASSESSMENT", "stats": [{"groupId": "EG000", "numEvents": 0, "numAffected": 0, "numAtRisk": 231}, {"groupId": "EG001", "numEvents": 1, "numAffected": 1, "numAtRisk": 238}]}, {"term": "Hypoglycaemic Coma", "organSystem": "Nervous system disorders", "sourceVocabulary": "MedDRA (11.0)", "assessmentType": "SYSTEMATIC_ASSESSMENT", "stats": [{"groupId": "EG000", "numEvents": 1, "numAffected": 1, "numAtRisk": 231}, {"groupId": "EG001", "numEvents": 0, "numAffected": 0, "numAtRisk": 238}]}, {"term": "Acute Pulmonary Oedema", "organSystem": "Respiratory, thoracic and mediastinal disorders", "sourceVocabulary": "MedDRA (11.0)", "assessmentType": "SYSTEMATIC_ASSESSMENT", "stats": [{"groupId": "EG000", "numEvents": 1, "numAffected": 1, "numAtRisk": 231}, {"groupId": "EG001", "numEvents": 0, "numAffected": 0, "numAtRisk": 238}]}, {"term": "Wart Excision", "organSystem": "Surgical and medical procedures", "sourceVocabulary": "MedDRA (11.0)", "assessmentType": "SYSTEMATIC_ASSESSMENT", "stats": [{"groupId": "EG000", "numEvents": 1, "numAffected": 1, "numAtRisk": 231}, {"groupId": "EG001", "numEvents": 0, "numAffected": 0, "numAtRisk": 238}]}, {"term": "Arterial Thrombosis Limb", "organSystem": "Vascular disorders", "sourceVocabulary": "MedDRA (11.0)", "assessmentType": "SYSTEMATIC_ASSESSMENT", "stats": [{"groupId": "EG000", "numEvents": 0, "numAffected": 0, "numAtRisk": 231}, {"groupId": "EG001", "numEvents": 2, "numAffected": 1, "numAtRisk": 238}]}, {"term": "Hypertensive Crisis", "organSystem": "Vascular disorders", "sourceVocabulary": "MedDRA (11.0)", "assessmentType": "SYSTEMATIC_ASSESSMENT", "stats": [{"groupId": "EG000", "numEvents": 0, "numAffected": 0, "numAtRisk": 231}, {"groupId": "EG001", "numEvents": 1, "numAffected": 1, "numAtRisk": 238}]}], "otherEvents": [{"term": "Diarrhoea", "organSystem": "Gastrointestinal disorders", "sourceVocabulary": "MedDRA (11.0)", "assessmentType": "SYSTEMATIC_ASSESSMENT", "stats": [{"groupId": "EG000", "numEvents": 10, "numAffected": 8, "numAtRisk": 231}, {"groupId": "EG001", "numEvents": 14, "numAffected": 13, "numAtRisk": 238}]}, {"term": "Nasopharyngitis", "organSystem": "Infections and infestations", "sourceVocabulary": "MedDRA (11.0)", "assessmentType": "SYSTEMATIC_ASSESSMENT", "stats": [{"groupId": "EG000", "numEvents": 22, "numAffected": 20, "numAtRisk": 231}, {"groupId": "EG001", "numEvents": 23, "numAffected": 20, "numAtRisk": 238}]}, {"term": "Upper Respiratory Tract Infection", "organSystem": "Infections and infestations", "sourceVocabulary": "MedDRA (11.0)", "assessmentType": "SYSTEMATIC_ASSESSMENT", "stats": [{"groupId": "EG000", "numEvents": 12, "numAffected": 10, "numAtRisk": 231}, {"groupId": "EG001", "numEvents": 20, "numAffected": 14, "numAtRisk": 238}]}, {"term": "Headache", "organSystem": "Nervous system disorders", "sourceVocabulary": "MedDRA (11.0)", "assessmentType": "SYSTEMATIC_ASSESSMENT", "stats": [{"groupId": "EG000", "numEvents": 29, "numAffected": 18, "numAtRisk": 231}, {"groupId": "EG001", "numEvents": 40, "numAffected": 16, "numAtRisk": 238}]}]}, "moreInfoModule": {"certainAgreement": {"piSponsorEmployee": false, "restrictionType": "OTHER", "restrictiveAgreement": true, "otherDetails": "Novo Nordisk maintains the right to be informed of any plans for publications and to review any scientific paper, presentation, communication or other information concerning the investigation described in this protocol. Any such communication must be submitted in writing to the Novo Nordisk trial manager prior to submission for comments. Comments will be given within four weeks from receipt of the planned communication."}, "pointOfContact": {"title": "Public Access to Clinical Trials", "organization": "Novo Nordisk A/S", "email": "clinicaltrials@novonordisk.com"}}}, "derivedSection": {"miscInfoModule": {"versionHolder": "2024-06-24"}, "conditionBrowseModule": {"meshes": [{"id": "D000003920", "term": "Diabetes Mellitus"}, {"id": "D000003924", "term": "Diabetes Mellitus, Type 2"}], "ancestors": [{"id": "D000044882", "term": "Glucose Metabolism Disorders"}, {"id": "D000008659", "term": "Metabolic Diseases"}, {"id": "D000004700", "term": "Endocrine System Diseases"}], "browseLeaves": [{"id": "M7115", "name": "Diabetes Mellitus", "asFound": "Diabetes", "relevance": "HIGH"}, {"id": "M7119", "name": "Diabetes Mellitus, Type 2", "asFound": "Diabetes Mellitus, Type 2", "relevance": "HIGH"}, {"id": "M11639", "name": "Metabolic Diseases", "relevance": "LOW"}, {"id": "M25403", "name": "Glucose Metabolism Disorders", "relevance": "LOW"}, {"id": "M7862", "name": "Endocrine System Diseases", "relevance": "LOW"}], "browseBranches": [{"abbrev": "BC18", "name": "Nutritional and Metabolic Diseases"}, {"abbrev": "BC19", "name": "Gland and Hormone Related Diseases"}, {"abbrev": "All", "name": "All Conditions"}]}, "interventionBrowseModule": {"meshes": [{"id": "D000007328", "term": "Insulin"}, {"id": "C000557859", "term": "Insulin, Globin Zinc"}, {"id": "D000008687", "term": "Metformin"}, {"id": "D000069036", "term": "Insulin Glargine"}, {"id": "D000061267", "term": "Insulin Aspart"}, {"id": "C000057619", "term": "Glimepiride"}, {"id": "D000061265", "term": "Biphasic Insulins"}], "ancestors": [{"id": "D000007004", "term": "Hypoglycemic Agents"}, {"id": "D000045505", "term": "Physiological Effects of Drugs"}, {"id": "D000000889", "term": "Anti-Arrhythmia Agents"}, {"id": "D000007166", "term": "Immunosuppressive Agents"}, {"id": "D000007155", "term": "Immunologic Factors"}], "browseLeaves": [{"id": "M10365", "name": "Insulin", "asFound": "Blood", "relevance": "HIGH"}, {"id": "M11667", "name": "Metformin", "asFound": "Assessment", "relevance": "HIGH"}, {"id": "M173166", "name": "Insulin, Globin Zinc", "asFound": "Blood", "relevance": "HIGH"}, {"id": "M29801", "name": "Insulin Aspart", "asFound": "Obtained", "relevance": "HIGH"}, {"id": "M347", "name": "Insulin Glargine", "asFound": "Interaction", "relevance": "HIGH"}, {"id": "M252104", "name": "Glimepiride", "asFound": "Bioequivalence", "relevance": "HIGH"}, {"id": "M29799", "name": "Biphasic Insulins", "asFound": "Institutional", "relevance": "HIGH"}, {"id": "M17768", "name": "Zinc", "relevance": "LOW"}, {"id": "M10054", "name": "Hypoglycemic Agents", "relevance": "LOW"}, {"id": "M4213", "name": "Anti-Arrhythmia Agents", "relevance": "LOW"}, {"id": "M10212", "name": "Immunosuppressive Agents", "relevance": "LOW"}, {"id": "M10201", "name": "Immunologic Factors", "relevance": "LOW"}], "browseBranches": [{"abbrev": "Hypo", "name": "Hypoglycemic Agents"}, {"abbrev": "All", "name": "All Drugs and Chemicals"}, {"abbrev": "AnArAg", "name": "Anti-Arrhythmia Agents"}, {"abbrev": "Micro", "name": "Micronutrients"}]}}, "hasResults": true}