{"protocolSection": {"identificationModule": {"nctId": "NCT00206102", "orgStudyIdInfo": {"id": "5077IL/0089"}, "secondaryIdInfos": [{"id": "D1441C00089"}], "organization": {"fullName": "AstraZeneca", "class": "INDUSTRY"}, "briefTitle": "A Study of the Cataractogenic Potential of Seroquel and Risperdal in the Treatment of Participants With Schizophrenia or Schizoaffective Disorder", "officialTitle": "A Multicenter, Open Label, Flexible-dose, Parallel-group Evaluation of the Cataractogenic Potential of Quetiapine Fumarate (Seroquel) and Risperidone (Risperdal) in the Long Term Treatment of Participants With Schizophrenia or Schizoaffective Disorder"}, "statusModule": {"statusVerifiedDate": "2013-01", "overallStatus": "COMPLETED", "expandedAccessInfo": {"hasExpandedAccess": false}, "startDateStruct": {"date": "2003-09"}, "primaryCompletionDateStruct": {"date": "2008-10", "type": "ACTUAL"}, "completionDateStruct": {"date": "2008-10", "type": "ACTUAL"}, "studyFirstSubmitDate": "2005-09-14", "studyFirstSubmitQcDate": "2005-09-14", "studyFirstPostDateStruct": {"date": "2005-09-21", "type": "ESTIMATED"}, "resultsFirstSubmitDate": "2009-10-22", "resultsFirstSubmitQcDate": "2011-06-15", "resultsFirstPostDateStruct": {"date": "2011-07-13", "type": "ESTIMATED"}, "lastUpdateSubmitDate": "2013-01-08", "lastUpdatePostDateStruct": {"date": "2013-01-14", "type": "ESTIMATED"}}, "sponsorCollaboratorsModule": {"responsibleParty": {"type": "SPONSOR"}, "leadSponsor": {"name": "AstraZeneca", "class": "INDUSTRY"}}, "descriptionModule": {"briefSummary": "This Phase IV, randomized, parallel-group study is designed to evaluate the cataractogenic potential of quetiapine fumarate (SEROQUEL) compared with that of a putative non-cataractogenic antipsychotic medication risperidone (RISPERDAL). This study is being conducted to fulfill the SEROQUEL Phase IV commitment regarding evaluation of cataractogenic potential."}, "conditionsModule": {"conditions": ["Schizophrenia", "Schizoaffective Disorder"], "keywords": ["Schizophrenia", "Schizoaffective Disorder"]}, "designModule": {"studyType": "INTERVENTIONAL", "phases": ["PHASE4"], "designInfo": {"allocation": "RANDOMIZED", "interventionModel": "PARALLEL", "primaryPurpose": "TREATMENT", "maskingInfo": {"masking": "NONE"}}, "enrollmentInfo": {"count": 1098, "type": "ACTUAL"}}, "armsInterventionsModule": {"armGroups": [{"label": "1", "type": "EXPERIMENTAL", "description": "Quetiapine fumarate", "interventionNames": ["Drug: quetiapine fumarate"]}, {"label": "2", "type": "ACTIVE_COMPARATOR", "description": "Risperidone", "interventionNames": ["Drug: risperidone"]}], "interventions": [{"type": "DRUG", "name": "quetiapine fumarate", "description": "flexible dose oral", "armGroupLabels": ["1"], "otherNames": ["Seroquel", "ICI 204,636"]}, {"type": "DRUG", "name": "risperidone", "description": "flexible dose oral", "armGroupLabels": ["2"]}]}, "outcomesModule": {"primaryOutcomes": [{"measure": "Presence of a Cortical (C) Type of Cataractogenic Potential Events in Participants as Assessed and Agreed by 2 Independent, Treatment-masked Ophthalmologists Using the Lens Opacities Classification System II (LOCS II ) Grading Scale", "description": "Presence of C type of cataractogenic potential event in participant was defined if any LOCS II grades of 2, 3, 4, 5 (with any grade of 0, trace,1 at randomization) assessed and agreed by 2 independent, treatment-masked ophthalmologists at any post-randomization assessment in one or both eyes. 0= no cataract; 5 is worst. There are no subscales. 0 is the best, 5 is the worst.", "timeFrame": "Randomization to Month 24"}, {"measure": "Presence of a Nuclear Opalescence (N) Type of Cataractogenic Potential Events in Participants as Assessed and Agreed by 2 Independent, Treatment-masked Ophthalmologists Using the LOCS II Grading Scale", "description": "Presence of N type of cataractogenic potential event in Participants was defined if any LOCS II grades of 2, 3, 4 (with grade at rand equals 0,1), or if the LOCS II grades of 3,or 4 (with grade at randomization=2) assessed and agreed by 2 independent, treatment-masked ophthalmologists at any post-randomization assessment in one or both eyes. 0 is the best, 4 is the worst.", "timeFrame": "Randomization to Month 24"}, {"measure": "Presence of a Posterior Subcapsular (P) Type Cataractogenic Potential Events in Participants as Assessed and Agreed by 2 Independent, Treatment-masked Ophthalmologists Using the LOCS II Grading Scale", "description": "Presence of P type of cataractogenic potential event in participant was defined if any LOCS II grades of 1, 2, 3 , 4 (with grade=0 at randomization) assessed and agreed by 2 independent, treatment-masked ophthalmologists at any post-randomization assessment in one or both eyes. 0 is the best, 4 is the worst.", "timeFrame": "Randomization to Month 24"}], "secondaryOutcomes": [{"measure": "Change in the Positive and Negative Syndrome Scale (PANSS) Total Score", "description": "PANSS total score equals sum of the 30-items scores (range: 30-210). Each item has ( 1-7 units), 1 indicates \"absent\" psychosis symptom, and 7 - \"extreme\" symptom degree. Change in PANSS total score : total score at month 24 minus total score at randomization.Alleviation of psychotic symptoms are indicated by a negative change in PANSS total score.", "timeFrame": "Randomization to Month 24"}, {"measure": "Change in the PANSS Positive Subscale Score", "description": "PANSS Positive subscale score equals sum of the 7-items scores(range:7-49). Each item has ( 1-7 units), 1 indicates \"absent\" psychosis symptom, and 7 - \"extreme\" symptom degree.", "timeFrame": "Randomization to Month 24"}, {"measure": "Change in the PANSS Negative Subscale Score", "description": "PANSS Negative subscale score equals sum of the 7-items scores(range:7-49). Each item has ( 1-7 units), 1 indicates \"absent\" psychosis symptom, and 7 - \"extreme\" symptom degree. Change in PANSS Negative subscale score:score at month 24 minus score at randomization. Alleviation of negative psychotic symptoms are indicated by a negative change score.", "timeFrame": "Randomization to Month 24"}, {"measure": "Change in the PANSS Psychopathology Subscale Score", "description": "PANSS psychopathology subscale score equals sum of the 16-items scores(range:16-112). Each item has ( 1-7 units),1= \"absent\" psychosis symptom, 7= \"extreme\" symptom degree.Change in PANSS psychopathology subscale:score at month 24 minus score at randomization. Alleviation of general psychopathology symptoms are indicated by a negative change score.", "timeFrame": "Randomization to Month 24"}, {"measure": "Change in the Clinical Global Impression - Severity of Illness (CGI-S) Score", "description": "CGI-S score is accessed on a seven-graded scale ranging from most extremely ill/ very much worse (7) to normal/very much improved (1) , 1 is best. Change : score at month 24 minus score at randomization.", "timeFrame": "Randomization to Month 24"}, {"measure": "Change in Health-related Quality of Life as Measured by Quality of Life Enjoyment and Satisfaction Questionnaire - Short Form (Q-LES-Q SF) Total Score", "description": "Q-LES-Q total score is the sum of the 16 times of Q-LES-Q SF(range:16-80).Each item has a 5 point satisfaction level scale:from 1=very poor(worst value) to 5=very good(best).Larger values indicate a higher perceived quality of life enjoyment and satisfaction.Change in Q-LES-Q total score:total score at month 24 minus total score at randomization", "timeFrame": "Randomization to Month 24"}, {"measure": "Change in Personal Evaluation of Transitions in Treatment (PETiT) Total Score", "description": "PETiT total score is the sum of the 30 items of PETiT questionnaire(range:0-60) on subjects perceived well-being, adherence, tolerability, satisfaction with treatment. Each item is rated by participant with a 3 point frequency scale:2=often, 1=sometimes, 0=never.Change in PETiT total score: total score at month 24 minus total score at randomization", "timeFrame": "Randomization to Month 24"}, {"measure": "Number of Relapses of Schizophrenia or Schizoaffective Disorder", "description": "Relapse is defined as a hospital stay for psychiatric symptoms or a 2-point increase from baseline in the CGI severity score. CGI-S score ranges from 0-7 with 0 = Not Assessed, 1 = Normal, not at all and 7 = Among the most extremely ill subjects.", "timeFrame": "At Month 24"}, {"measure": "Change in Simpson-Angus Scale (SAS) Total Score", "description": "SAS total score is the sum of the 10 individual-item scores (range:0-40), with the score for each item ranging from 0 to 4, higher scores indicate greater severity of Parkinsonian symptoms. Change : total score at month 24 minus total score at randomization. Increase in Change of total score indicates an increase in extrapyramidal motor symptoms.", "timeFrame": "Randomization to Month 24"}, {"measure": "Change in Barnes Akathisia Rating Scale (BARS) Global Score", "description": "BARS global score is the 4th individual-item score on the BARS scale, the Global Assessment of Akathisia, with the score ranging from 0 (no evidence of akathisia) to 5 (severe akathisia). Change : score at month 24 minus score at randomization. Increase in Change of BARS global score indicates an increase in akathisia.", "timeFrame": "Randomization to Month 24"}, {"measure": "Change in Abnormal Involuntary Movement Scale (AIMS) Total Score", "description": "AIMS total score is the sum of the 10 individual-item scores(range:0-40), with the score for each item ranging from 0 to 4. Change : total score at month 24 minus total score at randomization. Increase in Change of total score indicates an increase in abnormal voluntary movements. The lower score means lower intensity of abnormal voluntary Movements. 0 is best, 4 is worst. Increase in Change of total score indicates an increase in abnormal voluntary Movements.", "timeFrame": "Randomization to Month 24"}, {"measure": "Number of Participants With Potential Extrapyramidal Symptoms (EPS)", "description": "Number of participants with adverse events potentially associated with EPS collected by MedDRA Preferred Terms as akathisia, bradykinesia, drooling, dyskinesia, dystonia, extrapyramidal disorder, grimacing, muscle rigidity, parkinsonism, restlessness, tardive dyskinesia, tremor", "timeFrame": "From start of the study treatment to last dose plus 30 days"}]}, "eligibilityModule": {"eligibilityCriteria": "Inclusion Criteria:\n\n* Men and women age 18 to 65\n* Both Eyes present with lenses intact (no previous cataract extractions)\n* Stable place of residency\n\nExclusion Criteria:\n\n* History of corneal surgery\n* Legal blindness (defined as best corrected visual acuity of 20/200 or worse in one or both eyes\n* Previous participation in this study", "healthyVolunteers": false, "sex": "ALL", "minimumAge": "18 Years", "maximumAge": "65 Years", "stdAges": ["ADULT", "OLDER_ADULT"]}, "contactsLocationsModule": {"overallOfficials": [{"name": "AstraZeneca Seroquel Medical Science Director, MD", "affiliation": "AstraZeneca", "role": "STUDY_DIRECTOR"}], "locations": [{"facility": "Research Site", "city": "Little Rock", "state": "Arkansas", "country": "United States", "geoPoint": {"lat": 34.74648, "lon": -92.28959}}, {"facility": "Research Site", "city": "Mabelvale", "state": "Arkansas", "country": "United States", "geoPoint": {"lat": 34.65509, "lon": -92.38654}}, {"facility": "Research Site", "city": "Morrilton", "state": "Arkansas", "country": "United States", "geoPoint": {"lat": 35.15092, "lon": -92.74405}}, {"facility": "Research Site", "city": "Anaheim", "state": "California", "country": "United States", "geoPoint": {"lat": 33.83529, "lon": -117.9145}}, {"facility": "Research Site", "city": "Cerritos", "state": "California", "country": "United States", "geoPoint": {"lat": 33.85835, "lon": -118.06479}}, {"facility": "Research Site", "city": "Chula Vista", "state": "California", "country": "United States", "geoPoint": {"lat": 32.64005, "lon": -117.0842}}, {"facility": "Research Site", "city": "Garden Grove", "state": "California", "country": "United States", "geoPoint": {"lat": 33.77391, "lon": -117.94145}}, {"facility": "Research Site", "city": "Long Beach", "state": "California", "country": "United States", "geoPoint": {"lat": 33.76696, "lon": -118.18923}}, {"facility": "Research Site", "city": "Los Angeles", "state": "California", "country": "United States", "geoPoint": {"lat": 34.05223, "lon": -118.24368}}, {"facility": "Research Site", "city": "Orange", "state": "California", "country": "United States", "geoPoint": {"lat": 33.78779, "lon": -117.85311}}, {"facility": "Research Site", "city": "San Diego", "state": "California", "country": "United States", "geoPoint": {"lat": 32.71533, "lon": -117.15726}}, {"facility": "Research Site", "city": "San Marcos", "state": "California", "country": "United States", "geoPoint": {"lat": 33.14337, "lon": -117.16614}}, {"facility": "Research Site", "city": "Denver", "state": "Colorado", "country": "United States", "geoPoint": {"lat": 39.73915, "lon": -104.9847}}, {"facility": "Research Site", "city": "New Britian", "state": "Connecticut", "country": "United States", "geoPoint": {"lat": 41.66121, "lon": -72.77954}}, {"facility": "Research Site", "city": "Boca Raton", "state": "Florida", "country": "United States", "geoPoint": {"lat": 26.3669, "lon": -80.13033}}, {"facility": "Research Site", "city": "Boynton Beach", "state": "Florida", "country": "United States", "geoPoint": {"lat": 26.52535, "lon": -80.06643}}, {"facility": "Research Site", "city": "Deerfield Beach", "state": "Florida", "country": "United States", "geoPoint": {"lat": 26.31841, "lon": -80.09977}}, {"facility": "Research Site", "city": "Ft Lauderdale", "state": "Florida", "country": "United States", "geoPoint": {"lat": 26.12231, "lon": -80.14338}}, {"facility": "Research Site", "city": "Orlando", "state": "Florida", "country": "United States", "geoPoint": {"lat": 28.53834, "lon": -81.37924}}, {"facility": "Research Site", "city": "Pompano Beach", "state": "Florida", "country": "United States", "geoPoint": {"lat": 26.23786, "lon": -80.12477}}, {"facility": "Research Site", "city": "Tampa", "state": "Florida", "country": "United States", "geoPoint": {"lat": 27.94752, "lon": -82.45843}}, {"facility": "Research Site", "city": "W. Palm Beach", "state": "Florida", "country": "United States", "geoPoint": {"lat": 26.71534, "lon": -80.05337}}, {"facility": "Research Site", "city": "West Palm Beach", "state": "Florida", "country": "United States", "geoPoint": {"lat": 26.71534, "lon": -80.05337}}, {"facility": "Research Site", "city": "Atlanta", "state": "Georgia", "country": "United States", "geoPoint": {"lat": 33.749, "lon": -84.38798}}, {"facility": "Research Site", "city": "Augusta", "state": "Georgia", "country": "United States", "geoPoint": {"lat": 33.47097, "lon": -81.97484}}, {"facility": "Research Site", "city": "Chicago", "state": "Illinois", "country": "United States", "geoPoint": {"lat": 41.85003, "lon": -87.65005}}, {"facility": "Research Site", "city": "Joliet", "state": "Illinois", "country": "United States", "geoPoint": {"lat": 41.52519, "lon": -88.0834}}, {"facility": "Research Site", "city": "Oak Brook Terrace", "state": "Illinois", "country": "United States", "geoPoint": {"lat": 41.85003, "lon": -87.96451}}, {"facility": "Research Site", "city": "Schaumburg", "state": "Illinois", "country": "United States", "geoPoint": {"lat": 42.03336, "lon": -88.08341}}, {"facility": "Research Site", "city": "Newton", "state": "Kansas", "country": "United States", "geoPoint": {"lat": 38.04668, "lon": -97.34504}}, {"facility": "Research Site", "city": "Wichita", "state": "Kansas", "country": "United States", "geoPoint": {"lat": 37.69224, "lon": -97.33754}}, {"facility": "Research Site", "city": "Metairie", "state": "Louisiana", "country": "United States", "geoPoint": {"lat": 29.98409, "lon": -90.15285}}, {"facility": "Research Site", "city": "New Orleans", "state": "Louisiana", "country": "United States", "geoPoint": {"lat": 29.95465, "lon": -90.07507}}, {"facility": "Research Site", "city": "Glen Burnie", "state": "Maryland", "country": "United States", "geoPoint": {"lat": 39.16261, "lon": -76.62469}}, {"facility": "Research Site", "city": "Minneapolis", "state": "Minnesota", "country": "United States", "geoPoint": {"lat": 44.97997, "lon": -93.26384}}, {"facility": "Research Site", "city": "St. Louis", "state": "Missouri", "country": "United States", "geoPoint": {"lat": 38.62727, "lon": -90.19789}}, {"facility": "Research Site", "city": "Las Vegas", "state": "Nevada", "country": "United States", "geoPoint": {"lat": 36.17497, "lon": -115.13722}}, {"facility": "Research Site", "city": "Cherry Hill", "state": "New Jersey", "country": "United States", "geoPoint": {"lat": 39.93484, "lon": -75.03073}}, {"facility": "Research Site", "city": "Moorestown", "state": "New Jersey", "country": "United States", "geoPoint": {"lat": 39.96706, "lon": -74.94267}}, {"facility": "Research Site", "city": "Paramus", "state": "New Jersey", "country": "United States", "geoPoint": {"lat": 40.94454, "lon": -74.07542}}, {"facility": "Research Site", "city": "Stratford", "state": "New Jersey", "country": "United States", "geoPoint": {"lat": 39.82678, "lon": -75.01545}}, {"facility": "Research Site", "city": "Brooklyn", "state": "New York", "country": "United States", "geoPoint": {"lat": 40.6501, "lon": -73.94958}}, {"facility": "Research Site", "city": "New York", "state": "New York", "country": "United States", "geoPoint": {"lat": 40.71427, "lon": -74.00597}}, {"facility": "Research Site", "city": "Staten Island", "state": "New York", "country": "United States", "geoPoint": {"lat": 40.56233, "lon": -74.13986}}, {"facility": "Research Site", "city": "Beechwood", "state": "Ohio", "country": "United States"}, {"facility": "Research Site", "city": "Cincinnati", "state": "Ohio", "country": "United States", "geoPoint": {"lat": 39.12713, "lon": -84.51435}}, {"facility": "Research Site", "city": "Dayton", "state": "Ohio", "country": "United States", "geoPoint": {"lat": 39.75895, "lon": -84.19161}}, {"facility": "Research Site", "city": "Lyndhurst", "state": "Ohio", "country": "United States", "geoPoint": {"lat": 41.52005, "lon": -81.48873}}, {"facility": "Research Site", "city": "Medina", "state": "Ohio", "country": "United States", "geoPoint": {"lat": 41.13839, "lon": -81.86375}}, {"facility": "Research Site", "city": "Oklahoma City", "state": "Oklahoma", "country": "United States", "geoPoint": {"lat": 35.46756, "lon": -97.51643}}, {"facility": "Research Site", "city": "Portland", "state": "Oregon", "country": "United States", "geoPoint": {"lat": 45.52345, "lon": -122.67621}}, {"facility": "Research Site", "city": "Media", "state": "Pennsylvania", "country": "United States", "geoPoint": {"lat": 39.91678, "lon": -75.38769}}, {"facility": "Research Site", "city": "Philadelphia", "state": "Pennsylvania", "country": "United States", "geoPoint": {"lat": 39.95233, "lon": -75.16379}}, {"facility": "Research Site", "city": "Charleston", "state": "South Carolina", "country": "United States", "geoPoint": {"lat": 32.77657, "lon": -79.93092}}, {"facility": "Research Site", "city": "Austin", "state": "Texas", "country": "United States", "geoPoint": {"lat": 30.26715, "lon": -97.74306}}, {"facility": "Research Site", "city": "Dallas", "state": "Texas", "country": "United States", "geoPoint": {"lat": 32.78306, "lon": -96.80667}}, {"facility": "Research Site", "city": "Houston", "state": "Texas", "country": "United States", "geoPoint": {"lat": 29.76328, "lon": -95.36327}}, {"facility": "Research Site", "city": "Irving", "state": "Texas", "country": "United States", "geoPoint": {"lat": 32.81402, "lon": -96.94889}}, {"facility": "Research Site", "city": "McKinney", "state": "Texas", "country": "United States", "geoPoint": {"lat": 33.19762, "lon": -96.61527}}, {"facility": "Research Site", "city": "San Antonio", "state": "Texas", "country": "United States", "geoPoint": {"lat": 29.42412, "lon": -98.49363}}, {"facility": "Research Site", "city": "Midvale", "state": "Utah", "country": "United States", "geoPoint": {"lat": 40.61106, "lon": -111.89994}}, {"facility": "Research Site", "city": "Arlington", "state": "Virginia", "country": "United States", "geoPoint": {"lat": 38.88101, "lon": -77.10428}}, {"facility": "Research Site", "city": "Falls Church", "state": "Virginia", "country": "United States", "geoPoint": {"lat": 38.88233, "lon": -77.17109}}, {"facility": "Research Site", "city": "Richmond", "state": "Virginia", "country": "United States", "geoPoint": {"lat": 37.55376, "lon": -77.46026}}]}}, "resultsSection": {"participantFlowModule": {"preAssignmentDetails": "Screening for eligibility and must be cross-tapered off of all previous antipsychotic medications", "recruitmentDetails": "A 24-month, multi-center, evaluator masked (ophthalmologist), open-label, flexible-dose, parallel-group study, 82 sites recruited Sept 2003 through Oct 2008. In total 1099 participants were randomized by Interactive Voice Response System (IVRS). One excluded participant was randomized before the rand visit, and never returned to any study visits.", "groups": [{"id": "FG000", "title": "Quetiapine Fumarate", "description": "Quetiapine fumarate - flexibly dosed (200 - 800 mg/day)"}, {"id": "FG001", "title": "Risperidone", "description": "Risperidone - flexibly dosed (2 - 8 mg/day)"}], "periods": [{"title": "Overall Study", "milestones": [{"type": "STARTED", "achievements": [{"groupId": "FG000", "numSubjects": "596"}, {"groupId": "FG001", "numSubjects": "502"}]}, {"type": "COMPLETED", "achievements": [{"groupId": "FG000", "numSubjects": "188"}, {"groupId": "FG001", "numSubjects": "187"}]}, {"type": "NOT COMPLETED", "achievements": [{"groupId": "FG000", "numSubjects": "408"}, {"groupId": "FG001", "numSubjects": "315"}]}], "dropWithdraws": [{"type": "Adverse Event", "reasons": [{"groupId": "FG000", "numSubjects": "119"}, {"groupId": "FG001", "numSubjects": "82"}]}, {"type": "Protocol Violation", "reasons": [{"groupId": "FG000", "numSubjects": "0"}, {"groupId": "FG001", "numSubjects": "2"}]}, {"type": "Lack of therapeutic response", "reasons": [{"groupId": "FG000", "numSubjects": "16"}, {"groupId": "FG001", "numSubjects": "11"}]}, {"type": "Lost to Follow-up", "reasons": [{"groupId": "FG000", "numSubjects": "95"}, {"groupId": "FG001", "numSubjects": "66"}]}, {"type": "Withdrawal by Subject", "reasons": [{"groupId": "FG000", "numSubjects": "118"}, {"groupId": "FG001", "numSubjects": "101"}]}, {"type": "Study-specific discontinuation criteria", "reasons": [{"groupId": "FG000", "numSubjects": "18"}, {"groupId": "FG001", "numSubjects": "17"}]}, {"type": "None of those categories", "reasons": [{"groupId": "FG000", "numSubjects": "42"}, {"groupId": "FG001", "numSubjects": "36"}]}]}]}, "baselineCharacteristicsModule": {"groups": [{"id": "BG000", "title": "Quetiapine Fumarate", "description": "Quetiapine fumarate - flexibly dosed (200 - 800 mg/day)"}, {"id": "BG001", "title": "Risperidone", "description": "Risperidone - flexibly dosed (2 - 8 mg/day)"}, {"id": "BG002", "title": "Total", "description": "Total of all reporting groups"}], "denoms": [{"units": "Participants", "counts": [{"groupId": "BG000", "value": "596"}, {"groupId": "BG001", "value": "502"}, {"groupId": "BG002", "value": "1098"}]}], "measures": [{"title": "Age, Customized", "paramType": "NUMBER", "unitOfMeasure": "Participants", "classes": [{"title": "< 40 years", "categories": [{"measurements": [{"groupId": "BG000", "value": "265"}, {"groupId": "BG001", "value": "223"}, {"groupId": "BG002", "value": "488"}]}]}, {"title": "40 to 65 years", "categories": [{"measurements": [{"groupId": "BG000", "value": "331"}, {"groupId": "BG001", "value": "279"}, {"groupId": "BG002", "value": "610"}]}]}]}, {"title": "Sex: Female, Male", "description": "Participants in the United States (USA) randomized by the study's Interactive Voice Response System (IVRS).", "paramType": "COUNT_OF_PARTICIPANTS", "unitOfMeasure": "Participants", "classes": [{"categories": [{"title": "Female", "measurements": [{"groupId": "BG000", "value": "253"}, {"groupId": "BG001", "value": "199"}, {"groupId": "BG002", "value": "452"}]}, {"title": "Male", "measurements": [{"groupId": "BG000", "value": "343"}, {"groupId": "BG001", "value": "303"}, {"groupId": "BG002", "value": "646"}]}]}]}]}, "outcomeMeasuresModule": {"outcomeMeasures": [{"type": "PRIMARY", "title": "Presence of a Cortical (C) Type of Cataractogenic Potential Events in Participants as Assessed and Agreed by 2 Independent, Treatment-masked Ophthalmologists Using the Lens Opacities Classification System II (LOCS II ) Grading Scale", "description": "Presence of C type of cataractogenic potential event in participant was defined if any LOCS II grades of 2, 3, 4, 5 (with any grade of 0, trace,1 at randomization) assessed and agreed by 2 independent, treatment-masked ophthalmologists at any post-randomization assessment in one or both eyes. 0= no cataract; 5 is worst. There are no subscales. 0 is the best, 5 is the worst.", "populationDescription": "The 2-year eye per protocol (E2PP) analysis included all randomized participants who met eye eligibility, had a valid baseline LOCS II evaluation, had reached the study endpoint of either a LOCS II identified cataractogenic potential event or dosed for 21 months without a LOCS II event, and had no major protocol deviations.", "reportingStatus": "POSTED", "paramType": "NUMBER", "unitOfMeasure": "Participants with C type event", "timeFrame": "Randomization to Month 24", "groups": [{"id": "OG000", "title": "Quetiapine Fumarate", "description": "Quetiapine fumarate - flexibly dosed (200 - 800 mg/day)"}, {"id": "OG001", "title": "Risperidone", "description": "Risperidone - flexibly dosed (2 - 8 mg/day)"}], "denoms": [{"units": "Participants", "counts": [{"groupId": "OG000", "value": "161"}, {"groupId": "OG001", "value": "168"}]}], "classes": [{"categories": [{"measurements": [{"groupId": "OG000", "value": "2"}, {"groupId": "OG001", "value": "8"}]}]}]}, {"type": "PRIMARY", "title": "Presence of a Nuclear Opalescence (N) Type of Cataractogenic Potential Events in Participants as Assessed and Agreed by 2 Independent, Treatment-masked Ophthalmologists Using the LOCS II Grading Scale", "description": "Presence of N type of cataractogenic potential event in Participants was defined if any LOCS II grades of 2, 3, 4 (with grade at rand equals 0,1), or if the LOCS II grades of 3,or 4 (with grade at randomization=2) assessed and agreed by 2 independent, treatment-masked ophthalmologists at any post-randomization assessment in one or both eyes. 0 is the best, 4 is the worst.", "populationDescription": "The 2-year eye per protocol (E2PP) analysis included all randomized participants who met eye eligibility, had a valid baseline LOCS II evaluation, had reached the study endpoint of either a LOCS II identified cataractogenic potential event or dosed for 21 months without a LOCS II event, and had no major protocol deviations.", "reportingStatus": "POSTED", "paramType": "NUMBER", "unitOfMeasure": "Participants with N type event", "timeFrame": "Randomization to Month 24", "groups": [{"id": "OG000", "title": "Quetiapine Fumarate", "description": "Quetiapine fumarate - flexibly dosed (200 - 800 mg/day)"}, {"id": "OG001", "title": "Risperidone", "description": "Risperidone - flexibly dosed (2 - 8 mg/day)"}], "denoms": [{"units": "Participants", "counts": [{"groupId": "OG000", "value": "161"}, {"groupId": "OG001", "value": "168"}]}], "classes": [{"categories": [{"measurements": [{"groupId": "OG000", "value": "0"}, {"groupId": "OG001", "value": "2"}]}]}]}, {"type": "PRIMARY", "title": "Presence of a Posterior Subcapsular (P) Type Cataractogenic Potential Events in Participants as Assessed and Agreed by 2 Independent, Treatment-masked Ophthalmologists Using the LOCS II Grading Scale", "description": "Presence of P type of cataractogenic potential event in participant was defined if any LOCS II grades of 1, 2, 3 , 4 (with grade=0 at randomization) assessed and agreed by 2 independent, treatment-masked ophthalmologists at any post-randomization assessment in one or both eyes. 0 is the best, 4 is the worst.", "populationDescription": "The 2-year eye per protocol (E2PP) analysis included all randomized participants who met eye eligibility, had a valid baseline LOCS II evaluation, had reached the study endpoint of either a LOCS II identified cataractogenic potential event or dosed for 21 months without a LOCS II event, and had no major protocol deviations.", "reportingStatus": "POSTED", "paramType": "NUMBER", "unitOfMeasure": "Participants with P type event", "timeFrame": "Randomization to Month 24", "groups": [{"id": "OG000", "title": "Quetiapine Fumarate", "description": "Quetiapine fumarate - flexibly dosed (200 - 800 mg/day)"}, {"id": "OG001", "title": "Risperidone", "description": "Risperidone - flexibly dosed (2 - 8 mg/day)"}], "denoms": [{"units": "Participants", "counts": [{"groupId": "OG000", "value": "161"}, {"groupId": "OG001", "value": "168"}]}], "classes": [{"categories": [{"measurements": [{"groupId": "OG000", "value": "4"}, {"groupId": "OG001", "value": "7"}]}]}]}, {"type": "SECONDARY", "title": "Change in the Positive and Negative Syndrome Scale (PANSS) Total Score", "description": "PANSS total score equals sum of the 30-items scores (range: 30-210). Each item has ( 1-7 units), 1 indicates \"absent\" psychosis symptom, and 7 - \"extreme\" symptom degree. Change in PANSS total score : total score at month 24 minus total score at randomization.Alleviation of psychotic symptoms are indicated by a negative change in PANSS total score.", "populationDescription": "The intention-to-treat for psychiatric assessments (ITTP) analysis included all randomized participants who had a valid baseline and at least 1 post baseline assessment of PANSS total score, and received at least 1 dose of study medication.", "reportingStatus": "POSTED", "paramType": "MEAN", "dispersionType": "Standard Deviation", "unitOfMeasure": "units on scale", "timeFrame": "Randomization to Month 24", "groups": [{"id": "OG000", "title": "Quetiapine Fumarate", "description": "Quetiapine fumarate - flexibly dosed (200 - 800 mg/day)"}, {"id": "OG001", "title": "Risperidone", "description": "Risperidone - flexibly dosed (2 - 8 mg/day)"}], "denoms": [{"units": "Participants", "counts": [{"groupId": "OG000", "value": "506"}, {"groupId": "OG001", "value": "428"}]}], "classes": [{"categories": [{"measurements": [{"groupId": "OG000", "value": "-9.1", "spread": "15.4"}, {"groupId": "OG001", "value": "-8.6", "spread": "16.6"}]}]}]}, {"type": "SECONDARY", "title": "Change in the PANSS Positive Subscale Score", "description": "PANSS Positive subscale score equals sum of the 7-items scores(range:7-49). Each item has ( 1-7 units), 1 indicates \"absent\" psychosis symptom, and 7 - \"extreme\" symptom degree.", "populationDescription": "The intention-to-treat for psychiatric assessments (ITTP) analysis included all randomized participants who had a valid baseline and at least 1 post baseline assessment of PANSS total score, and received at least 1 dose of study medication.", "reportingStatus": "POSTED", "paramType": "MEAN", "dispersionType": "Standard Deviation", "unitOfMeasure": "units on scale", "timeFrame": "Randomization to Month 24", "groups": [{"id": "OG000", "title": "Quetiapine Fumarate", "description": "Quetiapine fumarate - flexibly dosed (200 - 800 mg/day)"}, {"id": "OG001", "title": "Risperidone", "description": "Risperidone - flexibly dosed (2 - 8 mg/day)"}], "denoms": [{"units": "Participants", "counts": [{"groupId": "OG000", "value": "506"}, {"groupId": "OG001", "value": "428"}]}], "classes": [{"categories": [{"measurements": [{"groupId": "OG000", "value": "-2.7", "spread": "5.3"}, {"groupId": "OG001", "value": "-2.8", "spread": "5.1"}]}]}]}, {"type": "SECONDARY", "title": "Change in the PANSS Negative Subscale Score", "description": "PANSS Negative subscale score equals sum of the 7-items scores(range:7-49). Each item has ( 1-7 units), 1 indicates \"absent\" psychosis symptom, and 7 - \"extreme\" symptom degree. Change in PANSS Negative subscale score:score at month 24 minus score at randomization. Alleviation of negative psychotic symptoms are indicated by a negative change score.", "populationDescription": "The intention-to-treat for psychiatric assessments (ITTP) analysis included all randomized participants who had a valid baseline and at least 1 post baseline assessment of PANSS total score, and received at least 1 dose of study medication.", "reportingStatus": "POSTED", "paramType": "MEAN", "dispersionType": "Standard Deviation", "unitOfMeasure": "units on scale", "timeFrame": "Randomization to Month 24", "groups": [{"id": "OG000", "title": "Quetiapine Fumarate", "description": "Quetiapine fumarate - flexibly dosed (200 - 800 mg/day)"}, {"id": "OG001", "title": "Risperidone", "description": "Risperidone - flexibly dosed (2 - 8 mg/day)"}], "denoms": [{"units": "Participants", "counts": [{"groupId": "OG000", "value": "506"}, {"groupId": "OG001", "value": "428"}]}], "classes": [{"categories": [{"measurements": [{"groupId": "OG000", "value": "-2.2", "spread": "5.5"}, {"groupId": "OG001", "value": "-1.5", "spread": "5.7"}]}]}]}, {"type": "SECONDARY", "title": "Change in the PANSS Psychopathology Subscale Score", "description": "PANSS psychopathology subscale score equals sum of the 16-items scores(range:16-112). Each item has ( 1-7 units),1= \"absent\" psychosis symptom, 7= \"extreme\" symptom degree.Change in PANSS psychopathology subscale:score at month 24 minus score at randomization. Alleviation of general psychopathology symptoms are indicated by a negative change score.", "populationDescription": "The intention-to-treat for psychiatric assessments (ITTP) analysis included all randomized participants who had a valid baseline and at least 1 post baseline assessment of PANSS total score, and received at least 1 dose of study medication.", "reportingStatus": "POSTED", "paramType": "MEAN", "dispersionType": "Standard Deviation", "unitOfMeasure": "units on scale", "timeFrame": "Randomization to Month 24", "groups": [{"id": "OG000", "title": "Quetiapine Fumarate", "description": "Quetiapine fumarate - flexibly dosed (200 - 800 mg/day)"}, {"id": "OG001", "title": "Risperidone", "description": "Risperidone - flexibly dosed (2 - 8 mg/day)"}], "denoms": [{"units": "Participants", "counts": [{"groupId": "OG000", "value": "161"}, {"groupId": "OG001", "value": "168"}]}], "classes": [{"categories": [{"measurements": [{"groupId": "OG000", "value": "-4.2", "spread": "7.7"}, {"groupId": "OG001", "value": "-4.4", "spread": "8.8"}]}]}]}, {"type": "SECONDARY", "title": "Change in the Clinical Global Impression - Severity of Illness (CGI-S) Score", "description": "CGI-S score is accessed on a seven-graded scale ranging from most extremely ill/ very much worse (7) to normal/very much improved (1) , 1 is best. Change : score at month 24 minus score at randomization.", "populationDescription": "The intention-to-treat for psychiatric assessments (ITTP) analysis included all randomized participants who had a valid baseline and at least 1 post baseline assessment of PANSS total score (not related to CGI-S), and received at least 1 dose of study medication.", "reportingStatus": "POSTED", "paramType": "MEAN", "dispersionType": "Standard Deviation", "unitOfMeasure": "units on scale", "timeFrame": "Randomization to Month 24", "groups": [{"id": "OG000", "title": "Quetiapine Fumarate", "description": "Quetiapine fumarate - flexibly dosed (200 - 800 mg/day)"}, {"id": "OG001", "title": "Risperidone", "description": "Risperidone - flexibly dosed (2 - 8 mg/day)"}], "denoms": [{"units": "Participants", "counts": [{"groupId": "OG000", "value": "506"}, {"groupId": "OG001", "value": "428"}]}], "classes": [{"categories": [{"measurements": [{"groupId": "OG000", "value": "-0.7", "spread": "0.9"}, {"groupId": "OG001", "value": "-0.5", "spread": "1.0"}]}]}]}, {"type": "SECONDARY", "title": "Change in Health-related Quality of Life as Measured by Quality of Life Enjoyment and Satisfaction Questionnaire - Short Form (Q-LES-Q SF) Total Score", "description": "Q-LES-Q total score is the sum of the 16 times of Q-LES-Q SF(range:16-80).Each item has a 5 point satisfaction level scale:from 1=very poor(worst value) to 5=very good(best).Larger values indicate a higher perceived quality of life enjoyment and satisfaction.Change in Q-LES-Q total score:total score at month 24 minus total score at randomization", "populationDescription": "The intention-to-treat for psychiatric assessments (ITTP) analysis included all randomized participants who had a valid baseline and at least 1 post baseline assessment of PANSS total score, and received at least 1 dose of study medication.", "reportingStatus": "POSTED", "paramType": "MEAN", "dispersionType": "Standard Deviation", "unitOfMeasure": "units on scale", "timeFrame": "Randomization to Month 24", "groups": [{"id": "OG000", "title": "Quetiapine Fumarate", "description": "Quetiapine fumarate - flexibly dosed (200 - 800 mg/day)"}, {"id": "OG001", "title": "Risperidone", "description": "Risperidone - flexibly dosed (2 - 8 mg/day)"}], "denoms": [{"units": "Participants", "counts": [{"groupId": "OG000", "value": "506"}, {"groupId": "OG001", "value": "428"}]}], "classes": [{"categories": [{"measurements": [{"groupId": "OG000", "value": "2.4", "spread": "11.6"}, {"groupId": "OG001", "value": "2.7", "spread": "10.4"}]}]}]}, {"type": "SECONDARY", "title": "Change in Personal Evaluation of Transitions in Treatment (PETiT) Total Score", "description": "PETiT total score is the sum of the 30 items of PETiT questionnaire(range:0-60) on subjects perceived well-being, adherence, tolerability, satisfaction with treatment. Each item is rated by participant with a 3 point frequency scale:2=often, 1=sometimes, 0=never.Change in PETiT total score: total score at month 24 minus total score at randomization", "populationDescription": "The intention-to-treat for psychiatric assessments (ITTP) analysis included all randomized participants who had a valid baseline and at least 1 post baseline assessment of PANSS total score, and received at least 1 dose of study medication.", "reportingStatus": "POSTED", "paramType": "MEAN", "dispersionType": "Standard Deviation", "unitOfMeasure": "units on scale", "timeFrame": "Randomization to Month 24", "groups": [{"id": "OG000", "title": "Quetiapine Fumarate", "description": "Quetiapine fumarate - flexibly dosed (200 - 800 mg/day)"}, {"id": "OG001", "title": "Risperidone", "description": "Risperidone - flexibly dosed (2 - 8 mg/day)"}], "denoms": [{"units": "Participants", "counts": [{"groupId": "OG000", "value": "506"}, {"groupId": "OG001", "value": "428"}]}], "classes": [{"categories": [{"measurements": [{"groupId": "OG000", "value": "1.2", "spread": "6.2"}, {"groupId": "OG001", "value": "0.9", "spread": "6.0"}]}]}]}, {"type": "SECONDARY", "title": "Number of Relapses of Schizophrenia or Schizoaffective Disorder", "description": "Relapse is defined as a hospital stay for psychiatric symptoms or a 2-point increase from baseline in the CGI severity score. CGI-S score ranges from 0-7 with 0 = Not Assessed, 1 = Normal, not at all and 7 = Among the most extremely ill subjects.", "populationDescription": "The intention-to-treat for psychiatric assessments (ITTP) analysis included all randomized participants who had a valid baseline and at least 1 post baseline assessment of PANSS total score, and received at least 1 dose of study medication.", "reportingStatus": "POSTED", "paramType": "NUMBER", "unitOfMeasure": "Relapses", "timeFrame": "At Month 24", "groups": [{"id": "OG000", "title": "Quetiapine Fumarate", "description": "Quetiapine fumarate - flexibly dosed (200 - 800 mg/day)"}, {"id": "OG001", "title": "Risperidone", "description": "Risperidone - flexibly dosed (2 - 8 mg/day)"}], "denoms": [{"units": "Participants", "counts": [{"groupId": "OG000", "value": "506"}, {"groupId": "OG001", "value": "428"}]}], "classes": [{"categories": [{"measurements": [{"groupId": "OG000", "value": "24"}, {"groupId": "OG001", "value": "33"}]}]}]}, {"type": "SECONDARY", "title": "Change in Simpson-Angus Scale (SAS) Total Score", "description": "SAS total score is the sum of the 10 individual-item scores (range:0-40), with the score for each item ranging from 0 to 4, higher scores indicate greater severity of Parkinsonian symptoms. Change : total score at month 24 minus total score at randomization. Increase in Change of total score indicates an increase in extrapyramidal motor symptoms.", "populationDescription": "The Safety analysis set included all randomized participants who received at least 1 dose of study medication", "reportingStatus": "POSTED", "paramType": "MEAN", "dispersionType": "Standard Deviation", "unitOfMeasure": "units on scale", "timeFrame": "Randomization to Month 24", "groups": [{"id": "OG000", "title": "Quetiapine Fumarate", "description": "Quetiapine fumarate - flexibly dosed (200 - 800 mg/day)"}, {"id": "OG001", "title": "Risperidone", "description": "Risperidone - flexibly dosed (2 - 8 mg/day)"}], "denoms": [{"units": "Participants", "counts": [{"groupId": "OG000", "value": "586"}, {"groupId": "OG001", "value": "496"}]}], "classes": [{"categories": [{"measurements": [{"groupId": "OG000", "value": "-0.7", "spread": "2.1"}, {"groupId": "OG001", "value": "-0.4", "spread": "2.8"}]}]}]}, {"type": "SECONDARY", "title": "Change in Barnes Akathisia Rating Scale (BARS) Global Score", "description": "BARS global score is the 4th individual-item score on the BARS scale, the Global Assessment of Akathisia, with the score ranging from 0 (no evidence of akathisia) to 5 (severe akathisia). Change : score at month 24 minus score at randomization. Increase in Change of BARS global score indicates an increase in akathisia.", "populationDescription": "The Safety analysis set included all randomized participants who received at least 1 dose of study medication", "reportingStatus": "POSTED", "paramType": "MEAN", "dispersionType": "Standard Deviation", "unitOfMeasure": "units of scale", "timeFrame": "Randomization to Month 24", "groups": [{"id": "OG000", "title": "Quetiapine Fumarate", "description": "Quetiapine fumarate - flexibly dosed (200 - 800 mg/day)"}, {"id": "OG001", "title": "Risperidone", "description": "Risperidone - flexibly dosed (2 - 8 mg/day)"}], "denoms": [{"units": "Participants", "counts": [{"groupId": "OG000", "value": "586"}, {"groupId": "OG001", "value": "496"}]}], "classes": [{"categories": [{"measurements": [{"groupId": "OG000", "value": "-0.1", "spread": "0.7"}, {"groupId": "OG001", "value": "0.1", "spread": "0.8"}]}]}]}, {"type": "SECONDARY", "title": "Change in Abnormal Involuntary Movement Scale (AIMS) Total Score", "description": "AIMS total score is the sum of the 10 individual-item scores(range:0-40), with the score for each item ranging from 0 to 4. Change : total score at month 24 minus total score at randomization. Increase in Change of total score indicates an increase in abnormal voluntary movements. The lower score means lower intensity of abnormal voluntary Movements. 0 is best, 4 is worst. Increase in Change of total score indicates an increase in abnormal voluntary Movements.", "populationDescription": "The Safety analysis set included all randomized participants who received at least 1 dose of study medication", "reportingStatus": "POSTED", "paramType": "MEAN", "dispersionType": "Standard Deviation", "unitOfMeasure": "units on scale", "timeFrame": "Randomization to Month 24", "groups": [{"id": "OG000", "title": "Quetiapine Fumarate", "description": "Quetiapine fumarate - flexibly dosed (200 - 800 mg/day)"}, {"id": "OG001", "title": "Risperidone", "description": "Risperidone - flexibly dosed (2 - 8 mg/day)"}], "denoms": [{"units": "Participants", "counts": [{"groupId": "OG000", "value": "586"}, {"groupId": "OG001", "value": "496"}]}], "classes": [{"categories": [{"measurements": [{"groupId": "OG000", "value": "-0.2", "spread": "2.5"}, {"groupId": "OG001", "value": "0.1", "spread": "2.5"}]}]}]}, {"type": "SECONDARY", "title": "Number of Participants With Potential Extrapyramidal Symptoms (EPS)", "description": "Number of participants with adverse events potentially associated with EPS collected by MedDRA Preferred Terms as akathisia, bradykinesia, drooling, dyskinesia, dystonia, extrapyramidal disorder, grimacing, muscle rigidity, parkinsonism, restlessness, tardive dyskinesia, tremor", "populationDescription": "The Safety analysis set included all randomized participants who received at least 1 dose of study medication", "reportingStatus": "POSTED", "paramType": "NUMBER", "unitOfMeasure": "Participants", "timeFrame": "From start of the study treatment to last dose plus 30 days", "groups": [{"id": "OG000", "title": "Quetiapine Fumarate", "description": "Quetiapine fumarate - flexibly dosed (200 - 800 mg/day)"}, {"id": "OG001", "title": "Risperidone", "description": "Risperidone - flexibly dosed (2 - 8 mg/day)"}], "denoms": [{"units": "Participants", "counts": [{"groupId": "OG000", "value": "586"}, {"groupId": "OG001", "value": "496"}]}], "classes": [{"categories": [{"measurements": [{"groupId": "OG000", "value": "73"}, {"groupId": "OG001", "value": "106"}]}]}]}]}, "adverseEventsModule": {"frequencyThreshold": "5", "eventGroups": [{"id": "EG000", "title": "Quetiapine Fumarate", "description": "Quetiapine fumarate - flexibly dosed (200 - 800 mg/day)", "seriousNumAffected": 151, "seriousNumAtRisk": 596, "otherNumAffected": 476, "otherNumAtRisk": 596}, {"id": "EG001", "title": "Risperidone", "description": "Risperidone - flexibly dosed (2 - 8 mg/day)", "seriousNumAffected": 114, "seriousNumAtRisk": 502, "otherNumAffected": 368, "otherNumAtRisk": 502}], "seriousEvents": [{"term": "Anaemia", "organSystem": "Blood and lymphatic system disorders", "sourceVocabulary": "MedDRA 11.1", "assessmentType": "SYSTEMATIC_ASSESSMENT", "stats": [{"groupId": "EG000", "numAffected": 1, "numAtRisk": 586}, {"groupId": "EG001", "numAffected": 1, "numAtRisk": 496}]}, {"term": "Angina Pectoris", "organSystem": "Cardiac disorders", "sourceVocabulary": "MedDRA 11.1", "assessmentType": "SYSTEMATIC_ASSESSMENT", "stats": [{"groupId": "EG000", "numAffected": 0, "numAtRisk": 586}, {"groupId": "EG001", "numAffected": 2, "numAtRisk": 496}]}, {"term": "Cardiac Failure Congestive", "organSystem": "Cardiac disorders", "sourceVocabulary": "MedDRA 11.1", "assessmentType": "SYSTEMATIC_ASSESSMENT", "stats": [{"groupId": "EG000", "numAffected": 2, "numAtRisk": 586}, {"groupId": "EG001", "numAffected": 0, "numAtRisk": 496}]}, {"term": "Arrhythmia", "organSystem": "Cardiac disorders", "sourceVocabulary": "MedDRA 11.1", "assessmentType": "SYSTEMATIC_ASSESSMENT", "stats": [{"groupId": "EG000", "numAffected": 0, "numAtRisk": 586}, {"groupId": "EG001", "numAffected": 1, "numAtRisk": 496}]}, {"term": "Coronary Artery Disease", "organSystem": "Cardiac disorders", "sourceVocabulary": "MedDRA 11.1", "assessmentType": "SYSTEMATIC_ASSESSMENT", "stats": [{"groupId": "EG000", "numAffected": 0, "numAtRisk": 586}, {"groupId": "EG001", "numAffected": 1, "numAtRisk": 496}]}, {"term": "Diastolic Dysfunction", "organSystem": "Cardiac disorders", "sourceVocabulary": "MedDRA 11.1", "assessmentType": "SYSTEMATIC_ASSESSMENT", "stats": [{"groupId": "EG000", "numAffected": 1, "numAtRisk": 586}, {"groupId": "EG001", "numAffected": 0, "numAtRisk": 496}]}, {"term": "Myocardial Infarction", "organSystem": "Cardiac disorders", "sourceVocabulary": "MedDRA 11.1", "assessmentType": "SYSTEMATIC_ASSESSMENT", "stats": [{"groupId": "EG000", "numAffected": 1, "numAtRisk": 586}, {"groupId": "EG001", "numAffected": 0, "numAtRisk": 496}]}, {"term": "Hyperparathyroidism", "organSystem": "Endocrine disorders", "sourceVocabulary": "MedDRA 11.1", "assessmentType": "SYSTEMATIC_ASSESSMENT", "stats": [{"groupId": "EG000", "numAffected": 0, "numAtRisk": 586}, {"groupId": "EG001", "numAffected": 1, "numAtRisk": 496}]}, {"term": "Hypoparathyroidism", "organSystem": "Endocrine disorders", "sourceVocabulary": "MedDRA 11.1", "assessmentType": "SYSTEMATIC_ASSESSMENT", "stats": [{"groupId": "EG000", "numAffected": 0, "numAtRisk": 586}, {"groupId": "EG001", "numAffected": 1, "numAtRisk": 496}]}, {"term": "Hypothyroidism", "organSystem": "Endocrine disorders", "sourceVocabulary": "MedDRA 11.1", "assessmentType": "SYSTEMATIC_ASSESSMENT", "stats": [{"groupId": "EG000", "numAffected": 0, "numAtRisk": 586}, {"groupId": "EG001", "numAffected": 1, "numAtRisk": 496}]}, {"term": "Intestinal Ischaemia", "organSystem": "Gastrointestinal disorders", "sourceVocabulary": "MedDRA 11.1", "assessmentType": "SYSTEMATIC_ASSESSMENT", "stats": [{"groupId": "EG000", "numAffected": 0, "numAtRisk": 586}, {"groupId": "EG001", "numAffected": 1, "numAtRisk": 496}]}, {"term": "Nausea", "organSystem": "Gastrointestinal disorders", "sourceVocabulary": "MedDRA 11.1", "assessmentType": "SYSTEMATIC_ASSESSMENT", "stats": [{"groupId": "EG000", "numAffected": 0, "numAtRisk": 586}, {"groupId": "EG001", "numAffected": 1, "numAtRisk": 496}]}, {"term": "Pancreatic Insufficiency", "organSystem": "Gastrointestinal disorders", "sourceVocabulary": "MedDRA 11.1", "assessmentType": "SYSTEMATIC_ASSESSMENT", "stats": [{"groupId": "EG000", "numAffected": 0, "numAtRisk": 586}, {"groupId": "EG001", "numAffected": 1, "numAtRisk": 496}]}, {"term": "Abdominal Discomfort", "organSystem": "Gastrointestinal disorders", "sourceVocabulary": "MedDRA 11.1", "assessmentType": "SYSTEMATIC_ASSESSMENT", "stats": [{"groupId": "EG000", "numAffected": 1, "numAtRisk": 586}, {"groupId": "EG001", "numAffected": 0, "numAtRisk": 496}]}, {"term": "Anal Fistula", "organSystem": "Gastrointestinal disorders", "sourceVocabulary": "MedDRA 11.1", "assessmentType": "SYSTEMATIC_ASSESSMENT", "stats": [{"groupId": "EG000", "numAffected": 1, "numAtRisk": 586}, {"groupId": "EG001", "numAffected": 0, "numAtRisk": 496}]}, {"term": "Colitis", "organSystem": "Gastrointestinal disorders", "sourceVocabulary": "MedDRA 11.1", "assessmentType": "SYSTEMATIC_ASSESSMENT", "stats": [{"groupId": "EG000", "numAffected": 1, "numAtRisk": 586}, {"groupId": "EG001", "numAffected": 0, "numAtRisk": 496}]}, {"term": "Intestinal Obstruction", "organSystem": "Gastrointestinal disorders", "sourceVocabulary": "MedDRA 11.1", "assessmentType": "SYSTEMATIC_ASSESSMENT", "stats": [{"groupId": "EG000", "numAffected": 1, "numAtRisk": 586}, {"groupId": "EG001", "numAffected": 0, "numAtRisk": 496}]}, {"term": "Pancreatitis", "organSystem": "Gastrointestinal disorders", "sourceVocabulary": "MedDRA 11.1", "assessmentType": "SYSTEMATIC_ASSESSMENT", "stats": [{"groupId": "EG000", "numAffected": 1, "numAtRisk": 586}, {"groupId": "EG001", "numAffected": 0, "numAtRisk": 496}]}, {"term": "Pancreatitis Acute", "organSystem": "Gastrointestinal disorders", "sourceVocabulary": "MedDRA 11.1", "assessmentType": "SYSTEMATIC_ASSESSMENT", "stats": [{"groupId": "EG000", "numAffected": 1, "numAtRisk": 586}, {"groupId": "EG001", "numAffected": 0, "numAtRisk": 496}]}, {"term": "Chest Pain", "organSystem": "General disorders", "sourceVocabulary": "MedDRA 11.1", "assessmentType": "SYSTEMATIC_ASSESSMENT", "stats": [{"groupId": "EG000", "numAffected": 2, "numAtRisk": 586}, {"groupId": "EG001", "numAffected": 0, "numAtRisk": 496}]}, {"term": "Non-Cardiac Chest Pain", "organSystem": "General disorders", "sourceVocabulary": "MedDRA 11.1", "assessmentType": "SYSTEMATIC_ASSESSMENT", "stats": [{"groupId": "EG000", "numAffected": 2, "numAtRisk": 586}, {"groupId": "EG001", "numAffected": 0, "numAtRisk": 496}]}, {"term": "Cholecystitis", "organSystem": "Hepatobiliary disorders", "sourceVocabulary": "MedDRA 11.1", "assessmentType": "SYSTEMATIC_ASSESSMENT", "stats": [{"groupId": "EG000", "numAffected": 0, "numAtRisk": 586}, {"groupId": "EG001", "numAffected": 1, "numAtRisk": 496}]}, {"term": "Cholelithiasis", "organSystem": "Hepatobiliary disorders", "sourceVocabulary": "MedDRA 11.1", "assessmentType": "SYSTEMATIC_ASSESSMENT", "stats": [{"groupId": "EG000", "numAffected": 0, "numAtRisk": 586}, {"groupId": "EG001", "numAffected": 1, "numAtRisk": 496}]}, {"term": "Cholecystitis Acute", "organSystem": "Hepatobiliary disorders", "sourceVocabulary": "MedDRA 11.1", "assessmentType": "SYSTEMATIC_ASSESSMENT", "stats": [{"groupId": "EG000", "numAffected": 1, "numAtRisk": 586}, {"groupId": "EG001", "numAffected": 0, "numAtRisk": 496}]}, {"term": "Pneumonia", "organSystem": "Infections and infestations", "sourceVocabulary": "MedDRA 11.1", "assessmentType": "SYSTEMATIC_ASSESSMENT", "stats": [{"groupId": "EG000", "numAffected": 4, "numAtRisk": 586}, {"groupId": "EG001", "numAffected": 3, "numAtRisk": 496}]}, {"term": "Appendicitis", "organSystem": "Infections and infestations", "sourceVocabulary": "MedDRA 11.1", "assessmentType": "SYSTEMATIC_ASSESSMENT", "stats": [{"groupId": "EG000", "numAffected": 1, "numAtRisk": 586}, {"groupId": "EG001", "numAffected": 1, "numAtRisk": 496}]}, {"term": "Cellulitis", "organSystem": "Infections and infestations", "sourceVocabulary": "MedDRA 11.1", "assessmentType": "SYSTEMATIC_ASSESSMENT", "stats": [{"groupId": "EG000", "numAffected": 0, "numAtRisk": 586}, {"groupId": "EG001", "numAffected": 1, "numAtRisk": 496}]}, {"term": "Conjunctivitis Bacterial", "organSystem": "Infections and infestations", "sourceVocabulary": "MedDRA 11.1", "assessmentType": "SYSTEMATIC_ASSESSMENT", "stats": [{"groupId": "EG000", "numAffected": 0, "numAtRisk": 586}, {"groupId": "EG001", "numAffected": 1, "numAtRisk": 496}]}, {"term": "Diarrhoea Infectious", "organSystem": "Infections and infestations", "sourceVocabulary": "MedDRA 11.1", "assessmentType": "SYSTEMATIC_ASSESSMENT", "stats": [{"groupId": "EG000", "numAffected": 0, "numAtRisk": 586}, {"groupId": "EG001", "numAffected": 1, "numAtRisk": 496}]}, {"term": "Diverticulitis", "organSystem": "Infections and infestations", "sourceVocabulary": "MedDRA 11.1", "assessmentType": "SYSTEMATIC_ASSESSMENT", "stats": [{"groupId": "EG000", "numAffected": 0, "numAtRisk": 586}, {"groupId": "EG001", "numAffected": 1, "numAtRisk": 496}]}, {"term": "Gastroenteritis", "organSystem": "Infections and infestations", "sourceVocabulary": "MedDRA 11.1", "assessmentType": "SYSTEMATIC_ASSESSMENT", "stats": [{"groupId": "EG000", "numAffected": 1, "numAtRisk": 586}, {"groupId": "EG001", "numAffected": 1, "numAtRisk": 496}]}, {"term": "Gastroenteritis Viral", "organSystem": "Infections and infestations", "sourceVocabulary": "MedDRA 11.1", "assessmentType": "SYSTEMATIC_ASSESSMENT", "stats": [{"groupId": "EG000", "numAffected": 0, "numAtRisk": 586}, {"groupId": "EG001", "numAffected": 1, "numAtRisk": 496}]}, {"term": "Skin Infection", "organSystem": "Infections and infestations", "sourceVocabulary": "MedDRA 11.1", "assessmentType": "SYSTEMATIC_ASSESSMENT", "stats": [{"groupId": "EG000", "numAffected": 0, "numAtRisk": 586}, {"groupId": "EG001", "numAffected": 1, "numAtRisk": 496}]}, {"term": "Urinary Tract Infection", "organSystem": "Infections and infestations", "sourceVocabulary": "MedDRA 11.1", "assessmentType": "SYSTEMATIC_ASSESSMENT", "stats": [{"groupId": "EG000", "numAffected": 1, "numAtRisk": 586}, {"groupId": "EG001", "numAffected": 1, "numAtRisk": 496}]}, {"term": "Bronchitis", "organSystem": "Infections and infestations", "sourceVocabulary": "MedDRA 11.1", "assessmentType": "SYSTEMATIC_ASSESSMENT", "stats": [{"groupId": "EG000", "numAffected": 1, "numAtRisk": 586}, {"groupId": "EG001", "numAffected": 0, "numAtRisk": 496}]}, {"term": "Localised Infection", "organSystem": "Infections and infestations", "sourceVocabulary": "MedDRA 11.1", "assessmentType": "SYSTEMATIC_ASSESSMENT", "stats": [{"groupId": "EG000", "numAffected": 1, "numAtRisk": 586}, {"groupId": "EG001", "numAffected": 0, "numAtRisk": 496}]}, {"term": "Pilonidal Cyst", "organSystem": "Infections and infestations", "sourceVocabulary": "MedDRA 11.1", "assessmentType": "SYSTEMATIC_ASSESSMENT", "stats": [{"groupId": "EG000", "numAffected": 1, "numAtRisk": 586}, {"groupId": "EG001", "numAffected": 0, "numAtRisk": 496}]}, {"term": "Postoperative Wound Infection", "organSystem": "Infections and infestations", "sourceVocabulary": "MedDRA 11.1", "assessmentType": "SYSTEMATIC_ASSESSMENT", "stats": [{"groupId": "EG000", "numAffected": 1, "numAtRisk": 586}, {"groupId": "EG001", "numAffected": 0, "numAtRisk": 496}]}, {"term": "Sepsis", "organSystem": "Infections and infestations", "sourceVocabulary": "MedDRA 11.1", "assessmentType": "SYSTEMATIC_ASSESSMENT", "stats": [{"groupId": "EG000", "numAffected": 1, "numAtRisk": 586}, {"groupId": "EG001", "numAffected": 0, "numAtRisk": 496}]}, {"term": "Alcohol Poisoning", "organSystem": "Injury, poisoning and procedural complications", "sourceVocabulary": "MedDRA 11.1", "assessmentType": "SYSTEMATIC_ASSESSMENT", "stats": [{"groupId": "EG000", "numAffected": 1, "numAtRisk": 586}, {"groupId": "EG001", "numAffected": 3, "numAtRisk": 496}]}, {"term": "Accidental Overdose", "organSystem": "Injury, poisoning and procedural complications", "sourceVocabulary": "MedDRA 11.1", "assessmentType": "SYSTEMATIC_ASSESSMENT", "stats": [{"groupId": "EG000", "numAffected": 2, "numAtRisk": 586}, {"groupId": "EG001", "numAffected": 2, "numAtRisk": 496}]}, {"term": "Drug Toxicity", "organSystem": "Injury, poisoning and procedural complications", "sourceVocabulary": "MedDRA 11.1", "assessmentType": "SYSTEMATIC_ASSESSMENT", "stats": [{"groupId": "EG000", "numAffected": 0, "numAtRisk": 586}, {"groupId": "EG001", "numAffected": 2, "numAtRisk": 496}]}, {"term": "Concussion", "organSystem": "Injury, poisoning and procedural complications", "sourceVocabulary": "MedDRA 11.1", "assessmentType": "SYSTEMATIC_ASSESSMENT", "stats": [{"groupId": "EG000", "numAffected": 0, "numAtRisk": 586}, {"groupId": "EG001", "numAffected": 1, "numAtRisk": 496}]}, {"term": "Incisional Hernia", "organSystem": "Injury, poisoning and procedural complications", "sourceVocabulary": "MedDRA 11.1", "assessmentType": "SYSTEMATIC_ASSESSMENT", "stats": [{"groupId": "EG000", "numAffected": 0, "numAtRisk": 586}, {"groupId": "EG001", "numAffected": 1, "numAtRisk": 496}]}, {"term": "Injury", "organSystem": "Injury, poisoning and procedural complications", "sourceVocabulary": "MedDRA 11.1", "assessmentType": "SYSTEMATIC_ASSESSMENT", "stats": [{"groupId": "EG000", "numAffected": 0, "numAtRisk": 586}, {"groupId": "EG001", "numAffected": 1, "numAtRisk": 496}]}, {"term": "Intentional Overdose", "organSystem": "Injury, poisoning and procedural complications", "sourceVocabulary": "MedDRA 11.1", "assessmentType": "SYSTEMATIC_ASSESSMENT", "stats": [{"groupId": "EG000", "numAffected": 0, "numAtRisk": 586}, {"groupId": "EG001", "numAffected": 1, "numAtRisk": 496}]}, {"term": "Joint Dislocation", "organSystem": "Injury, poisoning and procedural complications", "sourceVocabulary": "MedDRA 11.1", "assessmentType": "SYSTEMATIC_ASSESSMENT", "stats": [{"groupId": "EG000", "numAffected": 0, "numAtRisk": 586}, {"groupId": "EG001", "numAffected": 1, "numAtRisk": 496}]}, {"term": "Laceration", "organSystem": "Injury, poisoning and procedural complications", "sourceVocabulary": "MedDRA 11.1", "assessmentType": "SYSTEMATIC_ASSESSMENT", "stats": [{"groupId": "EG000", "numAffected": 0, "numAtRisk": 586}, {"groupId": "EG001", "numAffected": 1, "numAtRisk": 496}]}, {"term": "Multiple Drug Overdose Accidental", "organSystem": "Injury, poisoning and procedural complications", "sourceVocabulary": "MedDRA 11.1", "assessmentType": "SYSTEMATIC_ASSESSMENT", "stats": [{"groupId": "EG000", "numAffected": 0, "numAtRisk": 586}, {"groupId": "EG001", "numAffected": 1, "numAtRisk": 496}]}, {"term": "Procedural Pain", "organSystem": "Injury, poisoning and procedural complications", "sourceVocabulary": "MedDRA 11.1", "assessmentType": "SYSTEMATIC_ASSESSMENT", "stats": [{"groupId": "EG000", "numAffected": 0, "numAtRisk": 586}, {"groupId": "EG001", "numAffected": 1, "numAtRisk": 496}]}, {"term": "Therapeutic Agent Toxicity", "organSystem": "Injury, poisoning and procedural complications", "sourceVocabulary": "MedDRA 11.1", "assessmentType": "SYSTEMATIC_ASSESSMENT", "stats": [{"groupId": "EG000", "numAffected": 0, "numAtRisk": 586}, {"groupId": "EG001", "numAffected": 1, "numAtRisk": 496}]}, {"term": "Thermal Burn", "organSystem": "Injury, poisoning and procedural complications", "sourceVocabulary": "MedDRA 11.1", "assessmentType": "SYSTEMATIC_ASSESSMENT", "stats": [{"groupId": "EG000", "numAffected": 1, "numAtRisk": 586}, {"groupId": "EG001", "numAffected": 1, "numAtRisk": 496}]}, {"term": "Ankle Fracture", "organSystem": "Injury, poisoning and procedural complications", "sourceVocabulary": "MedDRA 11.1", "assessmentType": "SYSTEMATIC_ASSESSMENT", "stats": [{"groupId": "EG000", "numAffected": 1, "numAtRisk": 586}, {"groupId": "EG001", "numAffected": 0, "numAtRisk": 496}]}, {"term": "Contusion", "organSystem": "Injury, poisoning and procedural complications", "sourceVocabulary": "MedDRA 11.1", "assessmentType": "SYSTEMATIC_ASSESSMENT", "stats": [{"groupId": "EG000", "numAffected": 1, "numAtRisk": 586}, {"groupId": "EG001", "numAffected": 0, "numAtRisk": 496}]}, {"term": "Respiratory Fume Inhalation Disorder", "organSystem": "Injury, poisoning and procedural complications", "sourceVocabulary": "MedDRA 11.1", "assessmentType": "SYSTEMATIC_ASSESSMENT", "stats": [{"groupId": "EG000", "numAffected": 1, "numAtRisk": 586}, {"groupId": "EG001", "numAffected": 0, "numAtRisk": 496}]}, {"term": "Electrocardiogram Qt Prolonged", "organSystem": "Injury, poisoning and procedural complications", "sourceVocabulary": "MedDRA 11.1", "assessmentType": "SYSTEMATIC_ASSESSMENT", "stats": [{"groupId": "EG000", "numAffected": 1, "numAtRisk": 586}, {"groupId": "EG001", "numAffected": 0, "numAtRisk": 496}]}, {"term": "Neutrophil Count Decreased", "organSystem": "Injury, poisoning and procedural complications", "sourceVocabulary": "MedDRA 11.1", "assessmentType": "SYSTEMATIC_ASSESSMENT", "stats": [{"groupId": "EG000", "numAffected": 1, "numAtRisk": 586}, {"groupId": "EG001", "numAffected": 0, "numAtRisk": 496}]}, {"term": "Diabetes Mellitus", "organSystem": "Metabolism and nutrition disorders", "sourceVocabulary": "MedDRA 11.1", "assessmentType": "SYSTEMATIC_ASSESSMENT", "stats": [{"groupId": "EG000", "numAffected": 0, "numAtRisk": 586}, {"groupId": "EG001", "numAffected": 3, "numAtRisk": 496}]}, {"term": "Dehydration", "organSystem": "Metabolism and nutrition disorders", "sourceVocabulary": "MedDRA 11.1", "assessmentType": "SYSTEMATIC_ASSESSMENT", "stats": [{"groupId": "EG000", "numAffected": 0, "numAtRisk": 586}, {"groupId": "EG001", "numAffected": 1, "numAtRisk": 496}]}, {"term": "Diabetic Ketoacidosis", "organSystem": "Metabolism and nutrition disorders", "sourceVocabulary": "MedDRA 11.1", "assessmentType": "SYSTEMATIC_ASSESSMENT", "stats": [{"groupId": "EG000", "numAffected": 0, "numAtRisk": 586}, {"groupId": "EG001", "numAffected": 1, "numAtRisk": 496}]}, {"term": "Hypercalcaemia", "organSystem": "Metabolism and nutrition disorders", "sourceVocabulary": "MedDRA 11.1", "assessmentType": "SYSTEMATIC_ASSESSMENT", "stats": [{"groupId": "EG000", "numAffected": 0, "numAtRisk": 586}, {"groupId": "EG001", "numAffected": 1, "numAtRisk": 496}]}, {"term": "Hypoglycaemia", "organSystem": "Metabolism and nutrition disorders", "sourceVocabulary": "MedDRA 11.1", "assessmentType": "SYSTEMATIC_ASSESSMENT", "stats": [{"groupId": "EG000", "numAffected": 0, "numAtRisk": 586}, {"groupId": "EG001", "numAffected": 1, "numAtRisk": 496}]}, {"term": "Hypokalaemia", "organSystem": "Metabolism and nutrition disorders", "sourceVocabulary": "MedDRA 11.1", "assessmentType": "SYSTEMATIC_ASSESSMENT", "stats": [{"groupId": "EG000", "numAffected": 1, "numAtRisk": 586}, {"groupId": "EG001", "numAffected": 0, "numAtRisk": 496}]}, {"term": "Inguinal Mass", "organSystem": "Musculoskeletal and connective tissue disorders", "sourceVocabulary": "MedDRA 11.1", "assessmentType": "SYSTEMATIC_ASSESSMENT", "stats": [{"groupId": "EG000", "numAffected": 0, "numAtRisk": 586}, {"groupId": "EG001", "numAffected": 1, "numAtRisk": 496}]}, {"term": "Muscular Weakness", "organSystem": "Musculoskeletal and connective tissue disorders", "sourceVocabulary": "MedDRA 11.1", "assessmentType": "SYSTEMATIC_ASSESSMENT", "stats": [{"groupId": "EG000", "numAffected": 0, "numAtRisk": 586}, {"groupId": "EG001", "numAffected": 1, "numAtRisk": 496}]}, {"term": "Rhabdomyolysis", "organSystem": "Musculoskeletal and connective tissue disorders", "sourceVocabulary": "MedDRA 11.1", "assessmentType": "SYSTEMATIC_ASSESSMENT", "stats": [{"groupId": "EG000", "numAffected": 0, "numAtRisk": 586}, {"groupId": "EG001", "numAffected": 1, "numAtRisk": 496}]}, {"term": "Back Pain", "organSystem": "Musculoskeletal and connective tissue disorders", "sourceVocabulary": "MedDRA 11.1", "assessmentType": "SYSTEMATIC_ASSESSMENT", "stats": [{"groupId": "EG000", "numAffected": 1, "numAtRisk": 586}, {"groupId": "EG001", "numAffected": 0, "numAtRisk": 496}]}, {"term": "Flank Pain", "organSystem": "Musculoskeletal and connective tissue disorders", "sourceVocabulary": "MedDRA 11.1", "assessmentType": "SYSTEMATIC_ASSESSMENT", "stats": [{"groupId": "EG000", "numAffected": 1, "numAtRisk": 586}, {"groupId": "EG001", "numAffected": 0, "numAtRisk": 496}]}, {"term": "Intervertebral Disc Disorder", "organSystem": "Musculoskeletal and connective tissue disorders", "sourceVocabulary": "MedDRA 11.1", "assessmentType": "SYSTEMATIC_ASSESSMENT", "stats": [{"groupId": "EG000", "numAffected": 1, "numAtRisk": 586}, {"groupId": "EG001", "numAffected": 0, "numAtRisk": 496}]}, {"term": "Intervertebral Disc Protrusion", "organSystem": "Musculoskeletal and connective tissue disorders", "sourceVocabulary": "MedDRA 11.1", "assessmentType": "SYSTEMATIC_ASSESSMENT", "stats": [{"groupId": "EG000", "numAffected": 1, "numAtRisk": 586}, {"groupId": "EG001", "numAffected": 0, "numAtRisk": 496}]}, {"term": "Lumbar Spinal Stenosis", "organSystem": "Musculoskeletal and connective tissue disorders", "sourceVocabulary": "MedDRA 11.1", "assessmentType": "SYSTEMATIC_ASSESSMENT", "stats": [{"groupId": "EG000", "numAffected": 1, "numAtRisk": 586}, {"groupId": "EG001", "numAffected": 0, "numAtRisk": 496}]}, {"term": "Cervix Carcinoma Stage 0", "organSystem": "Neoplasms benign, malignant and unspecified (incl cysts and polyps)", "sourceVocabulary": "MedDRA 11.1", "assessmentType": "SYSTEMATIC_ASSESSMENT", "stats": [{"groupId": "EG000", "numAffected": 0, "numAtRisk": 586}, {"groupId": "EG001", "numAffected": 1, "numAtRisk": 496}]}, {"term": "Metastases To Liver", "organSystem": "Neoplasms benign, malignant and unspecified (incl cysts and polyps)", "sourceVocabulary": "MedDRA 11.1", "assessmentType": "SYSTEMATIC_ASSESSMENT", "stats": [{"groupId": "EG000", "numAffected": 1, "numAtRisk": 586}, {"groupId": "EG001", "numAffected": 0, "numAtRisk": 496}]}, {"term": "Oesophageal Adenocarcinoma Metastatic", "organSystem": "Neoplasms benign, malignant and unspecified (incl cysts and polyps)", "sourceVocabulary": "MedDRA 11.1", "assessmentType": "SYSTEMATIC_ASSESSMENT", "stats": [{"groupId": "EG000", "numAffected": 1, "numAtRisk": 586}, {"groupId": "EG001", "numAffected": 0, "numAtRisk": 496}]}, {"term": "Uterine Leiomyoma", "organSystem": "Neoplasms benign, malignant and unspecified (incl cysts and polyps)", "sourceVocabulary": "MedDRA 11.1", "assessmentType": "SYSTEMATIC_ASSESSMENT", "stats": [{"groupId": "EG000", "numAffected": 1, "numAtRisk": 586}, {"groupId": "EG001", "numAffected": 0, "numAtRisk": 496}]}, {"term": "Dizziness", "organSystem": "Nervous system disorders", "sourceVocabulary": "MedDRA 11.1", "assessmentType": "SYSTEMATIC_ASSESSMENT", "stats": [{"groupId": "EG000", "numAffected": 0, "numAtRisk": 586}, {"groupId": "EG001", "numAffected": 2, "numAtRisk": 496}]}, {"term": "Syncope", "organSystem": "Nervous system disorders", "sourceVocabulary": "MedDRA 11.1", "assessmentType": "SYSTEMATIC_ASSESSMENT", "stats": [{"groupId": "EG000", "numAffected": 2, "numAtRisk": 586}, {"groupId": "EG001", "numAffected": 0, "numAtRisk": 496}]}, {"term": "Ataxia", "organSystem": "Nervous system disorders", "sourceVocabulary": "MedDRA 11.1", "assessmentType": "SYSTEMATIC_ASSESSMENT", "stats": [{"groupId": "EG000", "numAffected": 0, "numAtRisk": 586}, {"groupId": "EG001", "numAffected": 1, "numAtRisk": 496}]}, {"term": "Convulsion", "organSystem": "Nervous system disorders", "sourceVocabulary": "MedDRA 11.1", "assessmentType": "SYSTEMATIC_ASSESSMENT", "stats": [{"groupId": "EG000", "numAffected": 0, "numAtRisk": 586}, {"groupId": "EG001", "numAffected": 1, "numAtRisk": 496}]}, {"term": "Hemiparesis", "organSystem": "Nervous system disorders", "sourceVocabulary": "MedDRA 11.1", "assessmentType": "SYSTEMATIC_ASSESSMENT", "stats": [{"groupId": "EG000", "numAffected": 1, "numAtRisk": 586}, {"groupId": "EG001", "numAffected": 1, "numAtRisk": 496}]}, {"term": "Migraine", "organSystem": "Nervous system disorders", "sourceVocabulary": "MedDRA 11.1", "assessmentType": "SYSTEMATIC_ASSESSMENT", "stats": [{"groupId": "EG000", "numAffected": 0, "numAtRisk": 586}, {"groupId": "EG001", "numAffected": 1, "numAtRisk": 496}]}, {"term": "Transient Ischaemic Attack", "organSystem": "Nervous system disorders", "sourceVocabulary": "MedDRA 11.1", "assessmentType": "SYSTEMATIC_ASSESSMENT", "stats": [{"groupId": "EG000", "numAffected": 0, "numAtRisk": 586}, {"groupId": "EG001", "numAffected": 1, "numAtRisk": 496}]}, {"term": "Dysarthria", "organSystem": "Nervous system disorders", "sourceVocabulary": "MedDRA 11.1", "assessmentType": "SYSTEMATIC_ASSESSMENT", "stats": [{"groupId": "EG000", "numAffected": 1, "numAtRisk": 586}, {"groupId": "EG001", "numAffected": 0, "numAtRisk": 496}]}, {"term": "Multiple Sclerosis", "organSystem": "Nervous system disorders", "sourceVocabulary": "MedDRA 11.1", "assessmentType": "SYSTEMATIC_ASSESSMENT", "stats": [{"groupId": "EG000", "numAffected": 1, "numAtRisk": 586}, {"groupId": "EG001", "numAffected": 0, "numAtRisk": 496}]}, {"term": "Presyncope", "organSystem": "Nervous system disorders", "sourceVocabulary": "MedDRA 11.1", "assessmentType": "SYSTEMATIC_ASSESSMENT", "stats": [{"groupId": "EG000", "numAffected": 1, "numAtRisk": 586}, {"groupId": "EG001", "numAffected": 0, "numAtRisk": 496}]}, {"term": "Subarachnoid Haemorrhage", "organSystem": "Nervous system disorders", "sourceVocabulary": "MedDRA 11.1", "assessmentType": "SYSTEMATIC_ASSESSMENT", "stats": [{"groupId": "EG000", "numAffected": 1, "numAtRisk": 586}, {"groupId": "EG001", "numAffected": 0, "numAtRisk": 496}]}, {"term": "Psychotic Disorder", "organSystem": "Psychiatric disorders", "sourceVocabulary": "MedDRA 11.1", "assessmentType": "SYSTEMATIC_ASSESSMENT", "stats": [{"groupId": "EG000", "numAffected": 38, "numAtRisk": 586}, {"groupId": "EG001", "numAffected": 19, "numAtRisk": 496}]}, {"term": "Schizophrenia", "organSystem": "Psychiatric disorders", "sourceVocabulary": "MedDRA 11.1", "assessmentType": "SYSTEMATIC_ASSESSMENT", "stats": [{"groupId": "EG000", "numAffected": 25, "numAtRisk": 586}, {"groupId": "EG001", "numAffected": 20, "numAtRisk": 496}]}, {"term": "Schizoaffective Disorder", "organSystem": "Psychiatric disorders", "sourceVocabulary": "MedDRA 11.1", "assessmentType": "SYSTEMATIC_ASSESSMENT", "stats": [{"groupId": "EG000", "numAffected": 19, "numAtRisk": 586}, {"groupId": "EG001", "numAffected": 14, "numAtRisk": 496}]}, {"term": "Suicidal Ideation", "organSystem": "Psychiatric disorders", "sourceVocabulary": "MedDRA 11.1", "assessmentType": "SYSTEMATIC_ASSESSMENT", "stats": [{"groupId": "EG000", "numAffected": 12, "numAtRisk": 586}, {"groupId": "EG001", "numAffected": 12, "numAtRisk": 496}]}, {"term": "Depression", "organSystem": "Psychiatric disorders", "sourceVocabulary": "MedDRA 11.1", "assessmentType": "SYSTEMATIC_ASSESSMENT", "stats": [{"groupId": "EG000", "numAffected": 13, "numAtRisk": 586}, {"groupId": "EG001", "numAffected": 8, "numAtRisk": 496}]}, {"term": "Suicide Attempt", "organSystem": "Psychiatric disorders", "sourceVocabulary": "MedDRA 11.1", "assessmentType": "SYSTEMATIC_ASSESSMENT", "stats": [{"groupId": "EG000", "numAffected": 5, "numAtRisk": 586}, {"groupId": "EG001", "numAffected": 6, "numAtRisk": 496}]}, {"term": "Schizophrenia, Paranoid Type", "organSystem": "Psychiatric disorders", "sourceVocabulary": "MedDRA 11.1", "assessmentType": "SYSTEMATIC_ASSESSMENT", "stats": [{"groupId": "EG000", "numAffected": 5, "numAtRisk": 586}, {"groupId": "EG001", "numAffected": 3, "numAtRisk": 496}]}, {"term": "Anxiety", "organSystem": "Psychiatric disorders", "sourceVocabulary": "MedDRA 11.1", "assessmentType": "SYSTEMATIC_ASSESSMENT", "stats": [{"groupId": "EG000", "numAffected": 3, "numAtRisk": 586}, {"groupId": "EG001", "numAffected": 2, "numAtRisk": 496}]}, {"term": "Aggression", "organSystem": "Psychiatric disorders", "sourceVocabulary": "MedDRA 11.1", "assessmentType": "SYSTEMATIC_ASSESSMENT", "stats": [{"groupId": "EG000", "numAffected": 2, "numAtRisk": 586}, {"groupId": "EG001", "numAffected": 0, "numAtRisk": 496}]}, {"term": "Alcohol Abuse", "organSystem": "Psychiatric disorders", "sourceVocabulary": "MedDRA 11.1", "assessmentType": "SYSTEMATIC_ASSESSMENT", "stats": [{"groupId": "EG000", "numAffected": 2, "numAtRisk": 586}, {"groupId": "EG001", "numAffected": 0, "numAtRisk": 496}]}, {"term": "Completed Suicide", "organSystem": "Psychiatric disorders", "sourceVocabulary": "MedDRA 11.1", "assessmentType": "SYSTEMATIC_ASSESSMENT", "stats": [{"groupId": "EG000", "numAffected": 2, "numAtRisk": 586}, {"groupId": "EG001", "numAffected": 1, "numAtRisk": 496}]}, {"term": "Drug Abuse", "organSystem": "Psychiatric disorders", "sourceVocabulary": "MedDRA 11.1", "assessmentType": "SYSTEMATIC_ASSESSMENT", "stats": [{"groupId": "EG000", "numAffected": 2, "numAtRisk": 586}, {"groupId": "EG001", "numAffected": 0, "numAtRisk": 496}]}, {"term": "Hallucination", "organSystem": "Psychiatric disorders", "sourceVocabulary": "MedDRA 11.1", "assessmentType": "SYSTEMATIC_ASSESSMENT", "stats": [{"groupId": "EG000", "numAffected": 2, "numAtRisk": 586}, {"groupId": "EG001", "numAffected": 0, "numAtRisk": 496}]}, {"term": "Paranoia", "organSystem": "Psychiatric disorders", "sourceVocabulary": "MedDRA 11.1", "assessmentType": "SYSTEMATIC_ASSESSMENT", "stats": [{"groupId": "EG000", "numAffected": 2, "numAtRisk": 586}, {"groupId": "EG001", "numAffected": 0, "numAtRisk": 496}]}, {"term": "Affective Disorder", "organSystem": "Psychiatric disorders", "sourceVocabulary": "MedDRA 11.1", "assessmentType": "SYSTEMATIC_ASSESSMENT", "stats": [{"groupId": "EG000", "numAffected": 0, "numAtRisk": 586}, {"groupId": "EG001", "numAffected": 1, "numAtRisk": 496}]}, {"term": "Delusion", "organSystem": "Psychiatric disorders", "sourceVocabulary": "MedDRA 11.1", "assessmentType": "SYSTEMATIC_ASSESSMENT", "stats": [{"groupId": "EG000", "numAffected": 0, "numAtRisk": 586}, {"groupId": "EG001", "numAffected": 1, "numAtRisk": 496}]}, {"term": "Homicidal Ideation", "organSystem": "Psychiatric disorders", "sourceVocabulary": "MedDRA 11.1", "assessmentType": "SYSTEMATIC_ASSESSMENT", "stats": [{"groupId": "EG000", "numAffected": 1, "numAtRisk": 586}, {"groupId": "EG001", "numAffected": 1, "numAtRisk": 496}]}, {"term": "Major Depression", "organSystem": "Psychiatric disorders", "sourceVocabulary": "MedDRA 11.1", "assessmentType": "SYSTEMATIC_ASSESSMENT", "stats": [{"groupId": "EG000", "numAffected": 1, "numAtRisk": 586}, {"groupId": "EG001", "numAffected": 1, "numAtRisk": 496}]}, {"term": "Acute Psychosis", "organSystem": "Psychiatric disorders", "sourceVocabulary": "MedDRA 11.1", "assessmentType": "SYSTEMATIC_ASSESSMENT", "stats": [{"groupId": "EG000", "numAffected": 1, "numAtRisk": 586}, {"groupId": "EG001", "numAffected": 0, "numAtRisk": 496}]}, {"term": "Alcoholism", "organSystem": "Psychiatric disorders", "sourceVocabulary": "MedDRA 11.1", "assessmentType": "SYSTEMATIC_ASSESSMENT", "stats": [{"groupId": "EG000", "numAffected": 1, "numAtRisk": 586}, {"groupId": "EG001", "numAffected": 0, "numAtRisk": 496}]}, {"term": "Catatonia", "organSystem": "Psychiatric disorders", "sourceVocabulary": "MedDRA 11.1", "assessmentType": "SYSTEMATIC_ASSESSMENT", "stats": [{"groupId": "EG000", "numAffected": 1, "numAtRisk": 586}, {"groupId": "EG001", "numAffected": 0, "numAtRisk": 496}]}, {"term": "Drug Dependence", "organSystem": "Psychiatric disorders", "sourceVocabulary": "MedDRA 11.1", "assessmentType": "SYSTEMATIC_ASSESSMENT", "stats": [{"groupId": "EG000", "numAffected": 1, "numAtRisk": 586}, {"groupId": "EG001", "numAffected": 0, "numAtRisk": 496}]}, {"term": "Flashback", "organSystem": "Psychiatric disorders", "sourceVocabulary": "MedDRA 11.1", "assessmentType": "SYSTEMATIC_ASSESSMENT", "stats": [{"groupId": "EG000", "numAffected": 1, "numAtRisk": 586}, {"groupId": "EG001", "numAffected": 0, "numAtRisk": 496}]}, {"term": "Self Injurious Behaviour", "organSystem": "Psychiatric disorders", "sourceVocabulary": "MedDRA 11.1", "assessmentType": "SYSTEMATIC_ASSESSMENT", "stats": [{"groupId": "EG000", "numAffected": 1, "numAtRisk": 586}, {"groupId": "EG001", "numAffected": 0, "numAtRisk": 496}]}, {"term": "Somatic Delusion", "organSystem": "Psychiatric disorders", "sourceVocabulary": "MedDRA 11.1", "assessmentType": "SYSTEMATIC_ASSESSMENT", "stats": [{"groupId": "EG000", "numAffected": 1, "numAtRisk": 586}, {"groupId": "EG001", "numAffected": 0, "numAtRisk": 496}]}, {"term": "Substance Abuse", "organSystem": "Psychiatric disorders", "sourceVocabulary": "MedDRA 11.1", "assessmentType": "SYSTEMATIC_ASSESSMENT", "stats": [{"groupId": "EG000", "numAffected": 1, "numAtRisk": 586}, {"groupId": "EG001", "numAffected": 0, "numAtRisk": 496}]}, {"term": "Suicidal Behaviour", "organSystem": "Psychiatric disorders", "sourceVocabulary": "MedDRA 11.1", "assessmentType": "SYSTEMATIC_ASSESSMENT", "stats": [{"groupId": "EG000", "numAffected": 1, "numAtRisk": 586}, {"groupId": "EG001", "numAffected": 0, "numAtRisk": 496}]}, {"term": "Bladder Disorder", "organSystem": "Renal and urinary disorders", "sourceVocabulary": "MedDRA 11.1", "assessmentType": "SYSTEMATIC_ASSESSMENT", "stats": [{"groupId": "EG000", "numAffected": 0, "numAtRisk": 586}, {"groupId": "EG001", "numAffected": 1, "numAtRisk": 496}]}, {"term": "Renal Failure Acute", "organSystem": "Renal and urinary disorders", "sourceVocabulary": "MedDRA 11.1", "assessmentType": "SYSTEMATIC_ASSESSMENT", "stats": [{"groupId": "EG000", "numAffected": 1, "numAtRisk": 586}, {"groupId": "EG001", "numAffected": 1, "numAtRisk": 496}]}, {"term": "Breast Mass", "organSystem": "Reproductive system and breast disorders", "sourceVocabulary": "MedDRA 11.1", "assessmentType": "SYSTEMATIC_ASSESSMENT", "stats": [{"groupId": "EG000", "numAffected": 1, "numAtRisk": 586}, {"groupId": "EG001", "numAffected": 0, "numAtRisk": 496}]}, {"term": "Chronic Obstructive Pulmonary Disease", "organSystem": "Respiratory, thoracic and mediastinal disorders", "sourceVocabulary": "MedDRA 11.1", "assessmentType": "SYSTEMATIC_ASSESSMENT", "stats": [{"groupId": "EG000", "numAffected": 4, "numAtRisk": 586}, {"groupId": "EG001", "numAffected": 0, "numAtRisk": 496}]}, {"term": "Respiratory Failure", "organSystem": "Respiratory, thoracic and mediastinal disorders", "sourceVocabulary": "MedDRA 11.1", "assessmentType": "SYSTEMATIC_ASSESSMENT", "stats": [{"groupId": "EG000", "numAffected": 2, "numAtRisk": 586}, {"groupId": "EG001", "numAffected": 0, "numAtRisk": 496}]}, {"term": "Asthma", "organSystem": "Respiratory, thoracic and mediastinal disorders", "sourceVocabulary": "MedDRA 11.1", "assessmentType": "SYSTEMATIC_ASSESSMENT", "stats": [{"groupId": "EG000", "numAffected": 0, "numAtRisk": 586}, {"groupId": "EG001", "numAffected": 1, "numAtRisk": 496}]}, {"term": "Bronchitis Chronic", "organSystem": "Respiratory, thoracic and mediastinal disorders", "sourceVocabulary": "MedDRA 11.1", "assessmentType": "SYSTEMATIC_ASSESSMENT", "stats": [{"groupId": "EG000", "numAffected": 0, "numAtRisk": 586}, {"groupId": "EG001", "numAffected": 1, "numAtRisk": 496}]}, {"term": "Hypoxia", "organSystem": "Respiratory, thoracic and mediastinal disorders", "sourceVocabulary": "MedDRA 11.1", "assessmentType": "SYSTEMATIC_ASSESSMENT", "stats": [{"groupId": "EG000", "numAffected": 0, "numAtRisk": 586}, {"groupId": "EG001", "numAffected": 1, "numAtRisk": 496}]}, {"term": "Pulmonary Embolism", "organSystem": "Respiratory, thoracic and mediastinal disorders", "sourceVocabulary": "MedDRA 11.1", "assessmentType": "SYSTEMATIC_ASSESSMENT", "stats": [{"groupId": "EG000", "numAffected": 0, "numAtRisk": 586}, {"groupId": "EG001", "numAffected": 1, "numAtRisk": 496}]}, {"term": "Angioedema", "organSystem": "Skin and subcutaneous tissue disorders", "sourceVocabulary": "MedDRA 11.1", "assessmentType": "SYSTEMATIC_ASSESSMENT", "stats": [{"groupId": "EG000", "numAffected": 0, "numAtRisk": 586}, {"groupId": "EG001", "numAffected": 1, "numAtRisk": 496}]}, {"term": "Substance Abuser", "organSystem": "Vascular disorders", "sourceVocabulary": "MedDRA 11.1", "assessmentType": "SYSTEMATIC_ASSESSMENT", "stats": [{"groupId": "EG000", "numAffected": 1, "numAtRisk": 586}, {"groupId": "EG001", "numAffected": 0, "numAtRisk": 496}]}, {"term": "Hypertension", "organSystem": "Vascular disorders", "sourceVocabulary": "MedDRA 11.1", "assessmentType": "SYSTEMATIC_ASSESSMENT", "stats": [{"groupId": "EG000", "numAffected": 0, "numAtRisk": 586}, {"groupId": "EG001", "numAffected": 1, "numAtRisk": 496}]}, {"term": "Malignant Hypertension", "organSystem": "Vascular disorders", "sourceVocabulary": "MedDRA 11.1", "assessmentType": "SYSTEMATIC_ASSESSMENT", "stats": [{"groupId": "EG000", "numAffected": 0, "numAtRisk": 586}, {"groupId": "EG001", "numAffected": 1, "numAtRisk": 496}]}, {"term": "Arteriosclerosis", "organSystem": "Vascular disorders", "sourceVocabulary": "MedDRA 11.1", "assessmentType": "SYSTEMATIC_ASSESSMENT", "stats": [{"groupId": "EG000", "numAffected": 1, "numAtRisk": 586}, {"groupId": "EG001", "numAffected": 0, "numAtRisk": 496}]}, {"term": "Hypotension", "organSystem": "Vascular disorders", "sourceVocabulary": "MedDRA 11.1", "assessmentType": "SYSTEMATIC_ASSESSMENT", "stats": [{"groupId": "EG000", "numAffected": 1, "numAtRisk": 586}, {"groupId": "EG001", "numAffected": 0, "numAtRisk": 496}]}], "otherEvents": [{"term": "Dry Mouth", "organSystem": "Gastrointestinal disorders", "sourceVocabulary": "MedDRA 11.1", "assessmentType": "SYSTEMATIC_ASSESSMENT", "stats": [{"groupId": "EG000", "numAffected": 78, "numAtRisk": 586}, {"groupId": "EG001", "numAffected": 39, "numAtRisk": 496}]}, {"term": "Nausea", "organSystem": "Gastrointestinal disorders", "sourceVocabulary": "MedDRA 11.1", "assessmentType": "SYSTEMATIC_ASSESSMENT", "stats": [{"groupId": "EG000", "numAffected": 47, "numAtRisk": 586}, {"groupId": "EG001", "numAffected": 43, "numAtRisk": 496}]}, {"term": "Constipation", "organSystem": "Gastrointestinal disorders", "sourceVocabulary": "MedDRA 11.1", "assessmentType": "SYSTEMATIC_ASSESSMENT", "stats": [{"groupId": "EG000", "numAffected": 45, "numAtRisk": 586}, {"groupId": "EG001", "numAffected": 28, "numAtRisk": 496}]}, {"term": "Vomiting", "organSystem": "Gastrointestinal disorders", "sourceVocabulary": "MedDRA 11.1", "assessmentType": "SYSTEMATIC_ASSESSMENT", "stats": [{"groupId": "EG000", "numAffected": 21, "numAtRisk": 586}, {"groupId": "EG001", "numAffected": 36, "numAtRisk": 496}]}, {"term": "Toothache", "organSystem": "Gastrointestinal disorders", "sourceVocabulary": "MedDRA 11.1", "assessmentType": "SYSTEMATIC_ASSESSMENT", "stats": [{"groupId": "EG000", "numAffected": 38, "numAtRisk": 586}, {"groupId": "EG001", "numAffected": 17, "numAtRisk": 496}]}, {"term": "Diarrhoea", "organSystem": "Gastrointestinal disorders", "sourceVocabulary": "MedDRA 11.1", "assessmentType": "SYSTEMATIC_ASSESSMENT", "stats": [{"groupId": "EG000", "numAffected": 25, "numAtRisk": 586}, {"groupId": "EG001", "numAffected": 30, "numAtRisk": 496}]}, {"term": "Fatigue", "organSystem": "General disorders", "sourceVocabulary": "MedDRA 11.1", "assessmentType": "SYSTEMATIC_ASSESSMENT", "stats": [{"groupId": "EG000", "numAffected": 60, "numAtRisk": 586}, {"groupId": "EG001", "numAffected": 46, "numAtRisk": 496}]}, {"term": "Nasopharyngitis", "organSystem": "Infections and infestations", "sourceVocabulary": "MedDRA 11.1", "assessmentType": "SYSTEMATIC_ASSESSMENT", "stats": [{"groupId": "EG000", "numAffected": 54, "numAtRisk": 586}, {"groupId": "EG001", "numAffected": 50, "numAtRisk": 496}]}, {"term": "Upper Respiratory Tract Infection", "organSystem": "Infections and infestations", "sourceVocabulary": "MedDRA 11.1", "assessmentType": "SYSTEMATIC_ASSESSMENT", "stats": [{"groupId": "EG000", "numAffected": 31, "numAtRisk": 586}, {"groupId": "EG001", "numAffected": 32, "numAtRisk": 496}]}, {"term": "Weight Increased", "organSystem": "Infections and infestations", "sourceVocabulary": "MedDRA 11.1", "assessmentType": "SYSTEMATIC_ASSESSMENT", "stats": [{"groupId": "EG000", "numAffected": 69, "numAtRisk": 586}, {"groupId": "EG001", "numAffected": 41, "numAtRisk": 496}]}, {"term": "Back Pain", "organSystem": "Musculoskeletal and connective tissue disorders", "sourceVocabulary": "MedDRA 11.1", "assessmentType": "SYSTEMATIC_ASSESSMENT", "stats": [{"groupId": "EG000", "numAffected": 42, "numAtRisk": 586}, {"groupId": "EG001", "numAffected": 30, "numAtRisk": 496}]}, {"term": "Arthralgia", "organSystem": "Musculoskeletal and connective tissue disorders", "sourceVocabulary": "MedDRA 11.1", "assessmentType": "SYSTEMATIC_ASSESSMENT", "stats": [{"groupId": "EG000", "numAffected": 36, "numAtRisk": 586}, {"groupId": "EG001", "numAffected": 28, "numAtRisk": 496}]}, {"term": "Somnolence", "organSystem": "Nervous system disorders", "sourceVocabulary": "MedDRA 11.1", "assessmentType": "SYSTEMATIC_ASSESSMENT", "stats": [{"groupId": "EG000", "numAffected": 169, "numAtRisk": 586}, {"groupId": "EG001", "numAffected": 64, "numAtRisk": 496}]}, {"term": "Sedation", "organSystem": "Nervous system disorders", "sourceVocabulary": "MedDRA 11.1", "assessmentType": "SYSTEMATIC_ASSESSMENT", "stats": [{"groupId": "EG000", "numAffected": 135, "numAtRisk": 586}, {"groupId": "EG001", "numAffected": 54, "numAtRisk": 496}]}, {"term": "Headache", "organSystem": "Nervous system disorders", "sourceVocabulary": "MedDRA 11.1", "assessmentType": "SYSTEMATIC_ASSESSMENT", "stats": [{"groupId": "EG000", "numAffected": 96, "numAtRisk": 586}, {"groupId": "EG001", "numAffected": 78, "numAtRisk": 496}]}, {"term": "Dizziness", "organSystem": "Nervous system disorders", "sourceVocabulary": "MedDRA 11.1", "assessmentType": "SYSTEMATIC_ASSESSMENT", "stats": [{"groupId": "EG000", "numAffected": 84, "numAtRisk": 586}, {"groupId": "EG001", "numAffected": 49, "numAtRisk": 496}]}, {"term": "Akathisia", "organSystem": "Nervous system disorders", "sourceVocabulary": "MedDRA 11.1", "assessmentType": "SYSTEMATIC_ASSESSMENT", "stats": [{"groupId": "EG000", "numAffected": 26, "numAtRisk": 586}, {"groupId": "EG001", "numAffected": 33, "numAtRisk": 496}]}, {"term": "Tremor", "organSystem": "Nervous system disorders", "sourceVocabulary": "MedDRA 11.1", "assessmentType": "SYSTEMATIC_ASSESSMENT", "stats": [{"groupId": "EG000", "numAffected": 25, "numAtRisk": 586}, {"groupId": "EG001", "numAffected": 31, "numAtRisk": 496}]}, {"term": "Extrapyramidal Disorder", "organSystem": "Nervous system disorders", "sourceVocabulary": "MedDRA 11.1", "assessmentType": "SYSTEMATIC_ASSESSMENT", "stats": [{"groupId": "EG000", "numAffected": 9, "numAtRisk": 586}, {"groupId": "EG001", "numAffected": 27, "numAtRisk": 496}]}, {"term": "Insomnia", "organSystem": "Psychiatric disorders", "sourceVocabulary": "MedDRA 11.1", "assessmentType": "SYSTEMATIC_ASSESSMENT", "stats": [{"groupId": "EG000", "numAffected": 89, "numAtRisk": 586}, {"groupId": "EG001", "numAffected": 110, "numAtRisk": 496}]}, {"term": "Anxiety", "organSystem": "Psychiatric disorders", "sourceVocabulary": "MedDRA 11.1", "assessmentType": "SYSTEMATIC_ASSESSMENT", "stats": [{"groupId": "EG000", "numAffected": 71, "numAtRisk": 586}, {"groupId": "EG001", "numAffected": 52, "numAtRisk": 496}]}, {"term": "Depression", "organSystem": "Psychiatric disorders", "sourceVocabulary": "MedDRA 11.1", "assessmentType": "SYSTEMATIC_ASSESSMENT", "stats": [{"groupId": "EG000", "numAffected": 52, "numAtRisk": 586}, {"groupId": "EG001", "numAffected": 48, "numAtRisk": 496}]}, {"term": "Cough", "organSystem": "Respiratory, thoracic and mediastinal disorders", "sourceVocabulary": "MedDRA 11.1", "assessmentType": "SYSTEMATIC_ASSESSMENT", "stats": [{"groupId": "EG000", "numAffected": 25, "numAtRisk": 586}, {"groupId": "EG001", "numAffected": 25, "numAtRisk": 496}]}]}, "moreInfoModule": {"certainAgreement": {"piSponsorEmployee": false, "restrictionType": "OTHER", "restrictiveAgreement": true, "otherDetails": "The PI agrees to collaborate in good faith with AstraZeneca with regards to the contents and formation of any publication or disclosure to be made by the PI and to pay due consideration to the comments, views and opinions offered by AstraZeneca"}, "pointOfContact": {"title": "Gerard Lynch", "organization": "AstraZeneca", "email": "AZTrial_Results_Posting@astrazeneca.com"}}}, "derivedSection": {"miscInfoModule": {"versionHolder": "2024-06-26"}, "conditionBrowseModule": {"meshes": [{"id": "D000012559", "term": "Schizophrenia"}, {"id": "D000011618", "term": "Psychotic Disorders"}], "ancestors": [{"id": "D000019967", "term": "Schizophrenia Spectrum and Other Psychotic Disorders"}, {"id": "D000001523", "term": "Mental Disorders"}], "browseLeaves": [{"id": "M15376", "name": "Schizophrenia", "asFound": "Schizophrenia", "relevance": "HIGH"}, {"id": "M4815", "name": "Mental Disorders", "relevance": "LOW"}, {"id": "M14473", "name": "Psychotic Disorders", "asFound": "Schizoaffective Disorder", "relevance": "HIGH"}, {"id": "M21838", "name": "Schizophrenia Spectrum and Other Psychotic Disorders", "relevance": "LOW"}], "browseBranches": [{"abbrev": "BXM", "name": "Behaviors and Mental Disorders"}, {"abbrev": "All", "name": "All Conditions"}]}, "interventionBrowseModule": {"meshes": [{"id": "D000018967", "term": "Risperidone"}, {"id": "D000069348", "term": "Quetiapine Fumarate"}], "ancestors": [{"id": "D000012702", "term": "Serotonin Antagonists"}, {"id": "D000018490", "term": "Serotonin Agents"}, {"id": "D000018377", "term": "Neurotransmitter Agents"}, {"id": "D000045504", "term": "Molecular Mechanisms of Pharmacological Action"}, {"id": "D000045505", "term": "Physiological Effects of Drugs"}, {"id": "D000014150", "term": "Antipsychotic Agents"}, {"id": "D000014149", "term": "Tranquilizing Agents"}, {"id": "D000002492", "term": "Central Nervous System Depressants"}, {"id": "D000011619", "term": "Psychotropic Drugs"}, {"id": "D000018492", "term": "Dopamine Antagonists"}, {"id": "D000015259", "term": "Dopamine Agents"}, {"id": "D000000928", "term": "Antidepressive Agents"}], "browseLeaves": [{"id": "M399", "name": "Quetiapine Fumarate", "asFound": "Retraction", "relevance": "HIGH"}, {"id": "M20999", "name": "Risperidone", "asFound": "Stable", "relevance": "HIGH"}, {"id": "M15512", "name": "Serotonin", "relevance": "LOW"}, {"id": "M20504", "name": "Neurotransmitter Agents", "relevance": "LOW"}, {"id": "M16904", "name": "Antipsychotic Agents", "relevance": "LOW"}, {"id": "M14474", "name": "Psychotropic Drugs", "relevance": "LOW"}, {"id": "M7473", "name": "Dopamine", "relevance": "LOW"}, {"id": "M20596", "name": "Dopamine Antagonists", "relevance": "LOW"}, {"id": "M17962", "name": "Dopamine Agents", "relevance": "LOW"}, {"id": "M4247", "name": "Antidepressive Agents", "relevance": "LOW"}], "browseBranches": [{"abbrev": "CNSDep", "name": "Central Nervous System Depressants"}, {"abbrev": "PsychDr", "name": "Psychotropic Drugs"}, {"abbrev": "All", "name": "All Drugs and Chemicals"}, {"abbrev": "CaAg", "name": "Cardiotonic Agents"}]}}, "hasResults": true}