{"protocolSection": {"identificationModule": {"nctId": "NCT00976521", "orgStudyIdInfo": {"id": "901"}, "organization": {"fullName": "Atrium Medical Corporation", "class": "INDUSTRY"}, "briefTitle": "The INFUSE - Anterior Myocardial Infarction (AMI) Study", "officialTitle": "A 2x2 Factorial, Randomized, Multicenter, Single-Blind Evaluation of Intracoronary Abciximab Infusion and Aspiration Thrombectomy in Patients Undergoing Percutaneous Coronary Intervention for Anterior ST-Segment Elevation Myocardial Infarction"}, "statusModule": {"statusVerifiedDate": "2013-05", "overallStatus": "COMPLETED", "expandedAccessInfo": {"hasExpandedAccess": false}, "startDateStruct": {"date": "2009-09"}, "primaryCompletionDateStruct": {"date": "2012-02", "type": "ACTUAL"}, "completionDateStruct": {"date": "2013-04", "type": "ACTUAL"}, "studyFirstSubmitDate": "2009-09-11", "studyFirstSubmitQcDate": "2009-09-11", "studyFirstPostDateStruct": {"date": "2009-09-14", "type": "ESTIMATED"}, "resultsFirstSubmitDate": "2013-04-12", "resultsFirstSubmitQcDate": "2013-05-31", "resultsFirstPostDateStruct": {"date": "2013-07-08", "type": "ESTIMATED"}, "lastUpdateSubmitDate": "2013-05-31", "lastUpdatePostDateStruct": {"date": "2013-07-08", "type": "ESTIMATED"}}, "sponsorCollaboratorsModule": {"responsibleParty": {"type": "SPONSOR"}, "leadSponsor": {"name": "Atrium Medical Corporation", "class": "INDUSTRY"}}, "oversightModule": {"oversightHasDmc": true}, "descriptionModule": {"briefSummary": "This is a multicenter, open-label, controlled, single-blind, randomized study with up to 452 subjects enrolled in up to 50 US and European sites. Subjects who present with anterior ST-elevation myocardial infarction (STEMI) and an occluded proximal or mid left anterior descending (LAD) with TIMI 0/1/2 flow will be eligible for randomization to one of the following arms:\n\n1. Local infusion of abciximab following thrombus aspiration\n2. Local infusion of abciximab and no thrombus aspiration\n3. No local infusion and thrombus aspiration\n4. No local infusion and no thrombus aspiration\n\nIn addition, a cardiac magnetic resonance imaging (MRI) sub-study evaluating microvascular obstruction (MVO) will be performed with up to 160 subjects at up to 20 sites.", "detailedDescription": "The primary objective of the study is to demonstrate that among subjects undergoing primary PCI for anterior STEMI treated with a bivalirudin monotherapy anticoagulation strategy, the intracoronary infusion of an abciximab bolus with or without thrombus aspiration prior to stent implantation, compared to no infusion with or without thrombus aspiration (standard of care), results in 1) reduced infarct size measured by cardiac MRI at 30 days (range -7 days/+14 days; i.e., between 23 and 44 days), 2) reduce microvascular obstruction (MVO) by cardiac MRI at 5 + 2 days (i.e., between 3 and 7 days), 3) enhanced ST-segment resolution, 4) improved myocardial perfusion, 5) reduced thrombus burden and angiographic complications, and 6) no increase in major and minor bleeding."}, "conditionsModule": {"conditions": ["Acute Anterior Myocardial Infarction"]}, "designModule": {"studyType": "INTERVENTIONAL", "phases": ["NA"], "designInfo": {"allocation": "RANDOMIZED", "interventionModel": "FACTORIAL", "primaryPurpose": "TREATMENT", "maskingInfo": {"masking": "SINGLE", "whoMasked": ["PARTICIPANT"]}}, "enrollmentInfo": {"count": 452, "type": "ACTUAL"}}, "armsInterventionsModule": {"armGroups": [{"label": "Local infusion, thrombus aspiration", "type": "EXPERIMENTAL", "description": "Local infusion of abciximab using the ClearWay\u2122 RX Infusion Catheter following thrombus aspiration.", "interventionNames": ["Drug: Abciximab local infusion", "Procedure: Thrombus aspiration"]}, {"label": "Local infusion, no aspiration", "type": "EXPERIMENTAL", "description": "Local infusion of abciximab using the ClearWay\u2122 RX Infusion Catheter and no aspiration", "interventionNames": ["Drug: Abciximab local infusion"]}, {"label": "No local infusion, thrombus aspiration", "type": "ACTIVE_COMPARATOR", "description": "No local infusion of abciximab, thrombus aspiration.", "interventionNames": ["Other: No local infusion", "Procedure: Thrombus aspiration"]}, {"label": "No local infusion, no aspiration", "type": "ACTIVE_COMPARATOR", "description": "No local infusion abciximab and no thrombus aspiration", "interventionNames": ["Other: No local infusion"]}], "interventions": [{"type": "DRUG", "name": "Abciximab local infusion", "description": "Local infusion of abciximab using the ClearWay\u2122 RX Infusion Catheter", "armGroupLabels": ["Local infusion, no aspiration", "Local infusion, thrombus aspiration"]}, {"type": "OTHER", "name": "No local infusion", "description": "Intervention without local infusion", "armGroupLabels": ["No local infusion, no aspiration", "No local infusion, thrombus aspiration"]}, {"type": "PROCEDURE", "name": "Thrombus aspiration", "description": "Thrombus aspiration", "armGroupLabels": ["Local infusion, thrombus aspiration", "No local infusion, thrombus aspiration"]}]}, "outcomesModule": {"primaryOutcomes": [{"measure": "Primary Endpoint - Infarct Size at 30 Days as a Percentage of Total Left Ventricular Mass - Abciximab Infusion vs. No Infusion", "description": "The primary endpoint of the INFUSE AMI study is infarct size as a percentage of total left ventricular mass at 30 days as measured by cardiac MRI (cMRI), comparing the pooled randomized active (abciximab) infusion to the pooled non infusion arms, without regard to aspiration.", "timeFrame": "30 Days Post Index Procedure"}], "secondaryOutcomes": [{"measure": "Major Secondary Endpoint - Infarct Size at 30 Days as a Percentage of Total Left Ventricular Mass - Aspiration vs. No Aspiration", "description": "The major secondary endpoint of the INFUSE AMI Study is infarct size as a percentage of total myocardial mass at 30 days measured by cardiac MRI (cMRI), comparing the pooled randomized aspiration arms to the pooled no aspiration arms, without regard to abciximab infusion.", "timeFrame": "30 Days"}]}, "eligibilityModule": {"eligibilityCriteria": "Key Inclusion Criteria:\n\n* The subject must be \\>18 years of age;\n* Subject is experiencing clinical symptoms consistent with AMI (e.g., chest pain, arm pain, etc.,) \\>30 minutes duration and unresponsive to nitroglycerin;\n* Anterior MI with ECG showing at least 1 mm of ST-segment elevation in 2 or more contiguous leads in V1-V4, or new (or presumably new) left bundle branch block;\n* Anticipated symptom onset to balloon or aspiration time of \u22645 hours;\n* The subject and his/her physician are willing to comply with specified follow-up evaluations;\n* The subject or legally authorized representative has been informed of the nature of the study, agrees to its provisions and has been provided and signed written informed consent, approved by the appropriate Medical Ethics Committee (MEC) or Institutional Review Board (IRB)\n* Infarct artery located in the proximal or mid left anterior descending coronary artery, with TIMI 0/1/2 flow at the time of initial diagnostic angiography (prior to wire passage);\n* Based on coronary anatomy, PCI is indicated for revascularization;\n* Only one epicardial coronary artery will be treated;\n* Expected ability to deliver a ClearWay\u2122 RX Infusion Catheter to the infarct lesion (absence of excessive tortuosity, diffuse disease or moderate/heavy calcification).\n\nKey Exclusion Criteria:\n\n* Prior myocardial infarction, or known prior systolic dysfunction (known ejection fraction \\<40% by any prior measure or regional wall motion abnormalities);\n* An elective surgical procedure is planned that would necessitate interruption of anti-platelet agents during the first twelve months post enrollment;\n* Subjects who previously underwent coronary stent implantation and in whom coronary angiography demonstrates stent thrombosis to be the cause of the AMI;\n* Subject has previously undergone an angioplasty or stenting procedure in the left anterior descending artery;\n* Definite planned use of aspiration, atherectomy, thrombectomy and/or distal protection catheters prior to PTCA or stent implantation (other than in subjects randomized to thrombus aspiration);\n* Any contraindication to undergo MRI imaging.\n* Multivessel intervention required during the index procedure (subjects may be enrolled if treatment of more than one lesion in the LAD or its branches is required, however) (planned staged procedures are permitted with strong recommendation to be performed after 30-day clinical and MRI endpoints are completed);\n* Severe vessel tortuosity, diffuse disease or severe calcification is present which may impede successful delivery of the ClearWay\u2122 RX Infusion Catheter or the Export\u00ae Aspiration Catheter;\n* Features are present highly unfavorable for PCI;\n* Target lesion is present within a bypass graft conduit;\n* MI is due to thrombosis within or adjacent to a previously implanted stent;\n* Left ventriculography demonstrates severe mitral regurgitation or a VSD;\n* Unprotected left main stenosis \\>40% or that will require intervention", "healthyVolunteers": false, "sex": "ALL", "minimumAge": "18 Years", "stdAges": ["ADULT", "OLDER_ADULT"]}, "contactsLocationsModule": {"overallOfficials": [{"name": "Greg W Stone, MD", "affiliation": "Columbia University", "role": "PRINCIPAL_INVESTIGATOR"}], "locations": [{"facility": "Washington Adventist Hospital", "city": "Takoma Park", "state": "Maryland", "zip": "20912", "country": "United States", "geoPoint": {"lat": 38.97789, "lon": -77.00748}}, {"facility": "Carolinas Medical Center-SHVI", "city": "Charlotte", "state": "North Carolina", "zip": "28203", "country": "United States", "geoPoint": {"lat": 35.22709, "lon": -80.84313}}, {"facility": "Moses Cone Vascular Center", "city": "Greensboro", "state": "North Carolina", "zip": "27401", "country": "United States", "geoPoint": {"lat": 36.07264, "lon": -79.79198}}, {"facility": "Geisinger Medical Center", "city": "Danville", "state": "Pennsylvania", "zip": "17822", "country": "United States", "geoPoint": {"lat": 40.96342, "lon": -76.61273}}, {"facility": "Harrisburg Hospital/ Pinnacle Health", "city": "Harrisburg", "state": "Pennsylvania", "zip": "17110", "country": "United States", "geoPoint": {"lat": 40.2737, "lon": -76.88442}}, {"facility": "Wellmont Holston Valley Medical Center", "city": "Kingsport", "state": "Tennessee", "zip": "37660", "country": "United States", "geoPoint": {"lat": 36.54843, "lon": -82.56182}}, {"facility": "Sentara Virginia Beach General Hospital", "city": "Virginia Beach", "state": "Virginia", "zip": "23454", "country": "United States", "geoPoint": {"lat": 36.85293, "lon": -75.97799}}, {"facility": "Landeskrankenhaus Braunau/Simbach", "city": "Braunau", "zip": "5280", "country": "Austria"}, {"facility": "Landeskrankenhaus Bruck/Mur", "city": "Bruck/Mur", "zip": "8600", "country": "Austria"}, {"facility": "Landeskrankenhaus Graz West", "city": "Graz", "zip": "8020", "country": "Austria", "geoPoint": {"lat": 47.06667, "lon": 15.45}}, {"facility": "Univ. Klinik f\u00fcr Innere Medizin III Innsbruck", "city": "Innsbruck", "zip": "6020", "country": "Austria", "geoPoint": {"lat": 47.26266, "lon": 11.39454}}, {"facility": "Univ. Klinik f\u00fcr Innere Medizin II", "city": "Vienna", "zip": "1090", "country": "Austria", "geoPoint": {"lat": 48.20849, "lon": 16.37208}}, {"facility": "Charite- University Medicine Campus Benjamin Franklin", "city": "Berlin", "zip": "D-12200", "country": "Germany", "geoPoint": {"lat": 52.52437, "lon": 13.41053}}, {"facility": "Klinikum Villingen Kardiologie", "city": "Darmstadt", "zip": "64283", "country": "Germany", "geoPoint": {"lat": 49.87167, "lon": 8.65027}}, {"facility": "Facharzt fur Innere Medizin/Kardiologie", "city": "Ludwigshafen", "zip": "D-67063", "country": "Germany", "geoPoint": {"lat": 49.48121, "lon": 8.44641}}, {"facility": "Universit\u00e4tsmedizin Mannheim - I. Medizinische Klinik", "city": "Mannheim", "zip": "68167", "country": "Germany", "geoPoint": {"lat": 49.4891, "lon": 8.46694}}, {"facility": "Klinikum der Universit\u00e4t Regensburg", "city": "Regensburg", "zip": "93053", "country": "Germany", "geoPoint": {"lat": 49.01513, "lon": 12.10161}}, {"facility": "Universtit\u00e4tsklinikuim Ulm", "city": "Ulm", "zip": "89081", "country": "Germany", "geoPoint": {"lat": 48.39841, "lon": 9.99155}}, {"facility": "Ziekenhuis Rijnstate", "city": "Arnhem", "state": "NL", "zip": "6815 AD", "country": "Netherlands", "geoPoint": {"lat": 51.98, "lon": 5.91111}}, {"facility": "Catharina Hospital Eindhoven", "city": "Eindhoven", "zip": "5623 EJ", "country": "Netherlands", "geoPoint": {"lat": 51.44083, "lon": 5.47778}}, {"facility": "Isala Klinieken, Locatie de Weezenlanden", "city": "Zwolle", "zip": "8011 JW", "country": "Netherlands", "geoPoint": {"lat": 52.5125, "lon": 6.09444}}, {"facility": "Polsko - Ameryka\u0144skie Kliniki Serca II Oddzia\u0142 Kardiologiczny American Heart of Poland Sp. z o.o.", "city": "Bielsko-Bia\u0142a", "zip": "43316", "country": "Poland", "geoPoint": {"lat": 49.82245, "lon": 19.04686}}, {"facility": "Krakowskie Centrum Kardiologii Inwazyjnej, Elektroterapii i Angiologii", "city": "Krakow", "zip": "30693", "country": "Poland", "geoPoint": {"lat": 50.06143, "lon": 19.93658}}, {"facility": "Krakowski Szpital Specjalistyczny im. Jana Paw\u0142a II w Krakowie, Centrum Interwencyjne Leczenia Chor\u00f3b Serca i Naczy\u0144", "city": "Krak\u00f3w", "zip": "31102", "country": "Poland", "geoPoint": {"lat": 50.06143, "lon": 19.93658}}, {"facility": "SPZOZ Szpital Uniwersytecki w Krakowie, Samodzielna Pracownia Hemodynamiki i Angiografii", "city": "Krak\u00f3w", "zip": "31501", "country": "Poland", "geoPoint": {"lat": 50.06143, "lon": 19.93658}}, {"facility": "Pracownia Hemodynamiki Oddzia\u0142u Kardiologicznego Wojew\u00f3dzkiego Centrum Medycyny w Opolu", "city": "Opole", "zip": "45418", "country": "Poland", "geoPoint": {"lat": 50.67211, "lon": 17.92533}}, {"facility": "Centrum Kardiologii Inwazyjnej GVM Carint", "city": "Oswiecim", "zip": "32600", "country": "Poland", "geoPoint": {"lat": 50.03437, "lon": 19.21037}}, {"facility": "Samodzielny Publiczny Centralny Szpital Kliniczny w Warszawie Pracownia Hemodynamiki I Katedry i Kliniki Kardiologii", "city": "Warszawa", "zip": "2097", "country": "Poland", "geoPoint": {"lat": 52.22977, "lon": 21.01178}}, {"facility": "Instytut Kardiologii im. Prymasa Tysi\u0105clecia Kardyna\u0142a Stefana Wyszy\u0144skiego,I Samodzielna Pracownia Hemodynamiki", "city": "Warszawa", "zip": "4628", "country": "Poland", "geoPoint": {"lat": 52.22977, "lon": 21.01178}}, {"facility": "University Hospitals of Leicester - Glenfield Hospital", "city": "Leicester", "state": "U.k.", "zip": "LE3 9QP", "country": "United Kingdom", "geoPoint": {"lat": 52.6386, "lon": -1.13169}}, {"facility": "King's College Hospital", "city": "London", "state": "U.k.", "zip": "SE5 9RS", "country": "United Kingdom", "geoPoint": {"lat": 51.50853, "lon": -0.12574}}, {"facility": "Manchester Royal Infirmary", "city": "Manchester", "state": "U.k.", "zip": "M13 9WL", "country": "United Kingdom", "geoPoint": {"lat": 53.48095, "lon": -2.23743}}, {"facility": "Wythenshawe Hospital", "city": "Manchester", "state": "U.k.", "zip": "M23 9LT", "country": "United Kingdom", "geoPoint": {"lat": 53.48095, "lon": -2.23743}}, {"facility": "Southampton University Hospital", "city": "Southampton", "state": "U.k.", "zip": "SO16 6UD", "country": "United Kingdom", "geoPoint": {"lat": 50.90395, "lon": -1.40428}}, {"facility": "Royal Victoria Hospital, Belfast Trust", "city": "Belfast", "zip": "BT12 6BA", "country": "United Kingdom", "geoPoint": {"lat": 54.59682, "lon": -5.92541}}, {"facility": "Bristol Heart Institute", "city": "Bristol", "zip": "BS2 8HW", "country": "United Kingdom", "geoPoint": {"lat": 51.45523, "lon": -2.59665}}, {"facility": "Golden Jubilee National Hospital", "city": "Glasgow", "zip": "G81 4DY", "country": "United Kingdom", "geoPoint": {"lat": 55.86515, "lon": -4.25763}}, {"facility": "Freeman Hospital", "city": "Newcastle-upon-Tyne", "zip": "NE7 7DN", "country": "United Kingdom", "geoPoint": {"lat": 54.97328, "lon": -1.61396}}]}, "referencesModule": {"references": [{"pmid": "28828881", "type": "DERIVED", "citation": "Giustino G, Redfors B, Brener SJ, Kirtane AJ, Genereux P, Maehara A, Dudek D, Neunteufl T, Metzger DC, Crowley A, Mehran R, Gibson CM, Stone GW. Correlates and prognostic impact of new-onset heart failure after ST-segment elevation myocardial infarction treated with primary percutaneous coronary intervention: insights from the INFUSE-AMI trial. Eur Heart J Acute Cardiovasc Care. 2018 Jun;7(4):339-347. doi: 10.1177/2048872617719649. Epub 2017 Aug 22."}, {"pmid": "25497252", "type": "DERIVED", "citation": "Tomey MI, Mehran R, Brener SJ, Maehara A, Witzenbichler B, Dizon JM, El-Omar M, Xu K, Gibson CM, Stone GW. Sex, adverse cardiac events, and infarct size in anterior myocardial infarction: an analysis of intracoronary abciximab and aspiration thrombectomy in patients with large anterior myocardial infarction (INFUSE-AMI). Am Heart J. 2015 Jan;169(1):86-93. doi: 10.1016/j.ahj.2014.06.019. Epub 2014 Jul 3."}, {"pmid": "25060015", "type": "DERIVED", "citation": "Guerchicoff A, Brener SJ, Maehara A, Witzenbichler B, Fahy M, Xu K, Gersh BJ, Mehran R, Gibson CM, Stone GW. Impact of delay to reperfusion on reperfusion success, infarct size, and clinical outcomes in patients with ST-segment elevation myocardial infarction: the INFUSE-AMI Trial (INFUSE-Anterior Myocardial Infarction). JACC Cardiovasc Interv. 2014 Jul;7(7):733-40. doi: 10.1016/j.jcin.2014.01.166."}, {"pmid": "24084626", "type": "DERIVED", "citation": "Stone GW, Witzenbichler B, Godlewski J, Dambrink JH, Ochala A, Chowdhary S, El-Omar M, Neunteufl T, Metzger DC, Dizon JM, Wolff SD, Brener SJ, Mehran R, Maehara A, Gibson CM. Intralesional abciximab and thrombus aspiration in patients with large anterior myocardial infarction: one-year results from the INFUSE-AMI trial. Circ Cardiovasc Interv. 2013 Oct 1;6(5):527-34. doi: 10.1161/CIRCINTERVENTIONS.113.000644. Epub 2013 Oct 1."}, {"pmid": "23866184", "type": "DERIVED", "citation": "Brener SJ, Maehara A, Dizon JM, Fahy M, Witzenbichler B, Parise H, El-Omar M, Dambrink JH, Mehran R, Oldroyd K, Gibson CM, Stone GW. Relationship between myocardial reperfusion, infarct size, and mortality: the INFUSE-AMI (Intracoronary Abciximab and Aspiration Thrombectomy in Patients With Large Anterior Myocardial Infarction) trial. JACC Cardiovasc Interv. 2013 Jul;6(7):718-24. doi: 10.1016/j.jcin.2013.03.013."}, {"pmid": "23816023", "type": "DERIVED", "citation": "Brener SJ, Witzenbichler B, Maehara A, Dizon J, Fahy M, El-Omar M, Dambrink JH, Genereux P, Mehran R, Oldroyd K, Parise H, Gibson CM, Stone GW. Infarct size and mortality in patients with proximal versus mid left anterior descending artery occlusion: the Intracoronary Abciximab and Aspiration Thrombectomy in Patients With Large Anterior Myocardial Infarction (INFUSE-AMI) trial. Am Heart J. 2013 Jul;166(1):64-70. doi: 10.1016/j.ahj.2013.03.029. Epub 2013 Apr 30."}, {"pmid": "22447888", "type": "DERIVED", "citation": "Stone GW, Maehara A, Witzenbichler B, Godlewski J, Parise H, Dambrink JH, Ochala A, Carlton TW, Cristea E, Wolff SD, Brener SJ, Chowdhary S, El-Omar M, Neunteufl T, Metzger DC, Karwoski T, Dizon JM, Mehran R, Gibson CM; INFUSE-AMI Investigators. Intracoronary abciximab and aspiration thrombectomy in patients with large anterior myocardial infarction: the INFUSE-AMI randomized trial. JAMA. 2012 May 2;307(17):1817-26. doi: 10.1001/jama.2012.421. Epub 2012 Mar 25."}, {"pmid": "21392601", "type": "DERIVED", "citation": "Gibson CM, Maehara A, Lansky AJ, Wohrle J, Stuckey T, Dave R, Cox D, Grines C, Dudek D, Steg G, Parise H, Wolff SD, Cristea E, Stone GW. Rationale and design of the INFUSE-AMI study: A 2 x 2 factorial, randomized, multicenter, single-blind evaluation of intracoronary abciximab infusion and aspiration thrombectomy in patients undergoing percutaneous coronary intervention for anterior ST-segment elevation myocardial infarction. Am Heart J. 2011 Mar;161(3):478-486.e7. doi: 10.1016/j.ahj.2010.10.006. Epub 2011 Jan 28."}]}}, "resultsSection": {"participantFlowModule": {"preAssignmentDetails": "Subjects were randomized in a 1:1:1:1 ratio to each of the randomized groups (abciximab infusion with aspiration, abciximab infusion without aspiration, no infusion with aspiration, no infusion without aspiration).", "recruitmentDetails": "Between 28-Nov-09 and 02-Dec-11, 452 subjects meeting all clinical eligibility criteria were consented and enrolled at 37 US and European sites.", "groups": [{"id": "FG000", "title": "Local Infusion, Thrombus Aspiration", "description": "Local infusion of abciximab using the ClearWay\u2122 RX Infusion Catheter following thrombus aspiration.\n\nA 6 French Export\u00ae Aspiration Catheter is passed across the target coronary segment during continuous aspiration. Several passes should be made across the lesion to attempt to remove residual thrombus, always with continuous aspiration when advancing or withdrawing the catheter until the operator appreciates that no further thrombus is being removed.\n\nAfter withdrawing the aspiration catheter, the lesion is crossed with a 1.0 mm, 1.5 mm, or 2.0 mm diameter ClearWay\u2122 RX Infusion Catheter (depending on the lumen diameter created by thrombus aspiration and the reference vessel diameter). If the lesion is successfully crossed or penetrated by at least 1 mm, an intracoronary bolus of abciximab (0.25 mg/kg body weight, given as 10 cc over approximately 60 seconds) is infused through the ClearWay\u2122 RX Infusion Catheter."}, {"id": "FG001", "title": "Local Infusion, no Aspiration", "description": "Local infusion of abciximab using the ClearWay\u2122 RX Infusion Catheter and no thrombus aspiration.\n\nThe initial device used to cross the lesion is a 1.0 mm or 1.5 mm diameter ClearWay\u2122 RX Infusion Catheter (1.0 mm for complete occlusion).\n\nIf the lesion is successfully crossed or penetrated by at least 1 mm, an intracoronary bolus of abciximab (0.25 mg/kg body weight, infused at a rate of 10 cc over approximately 60 seconds) is infused through the ClearWay\u2122 RX Infusion Catheter."}, {"id": "FG002", "title": "No Local Infusion, Thrombus Aspiration", "description": "No local infusion of abciximab, thrombus aspiration.\n\nA 6 French Export\u00ae Aspiration Catheter is passed across the target coronary segment during continuous aspiration. Several passes should be made across the lesion to attempt to remove residual thrombus, always with continuous aspiration when advancing or withdrawing the catheter until the operator appreciates that no further thrombus is being removed."}, {"id": "FG003", "title": "No Local Infusion, no Aspiration", "description": "No local infusion of abciximab and no thrombus aspiration.\n\nThe lesion is pre-dilated with at least a 2.0 mm angioplasty balloon and then stent implantation is performed as per standard of care."}], "periods": [{"title": "Overall Study", "milestones": [{"type": "STARTED", "achievements": [{"groupId": "FG000", "numSubjects": "118"}, {"groupId": "FG001", "numSubjects": "111"}, {"groupId": "FG002", "numSubjects": "111"}, {"groupId": "FG003", "numSubjects": "112"}]}, {"type": "COMPLETED", "achievements": [{"groupId": "FG000", "numSubjects": "109"}, {"groupId": "FG001", "numSubjects": "99"}, {"groupId": "FG002", "numSubjects": "102"}, {"groupId": "FG003", "numSubjects": "93"}]}, {"type": "NOT COMPLETED", "achievements": [{"groupId": "FG000", "numSubjects": "9"}, {"groupId": "FG001", "numSubjects": "12"}, {"groupId": "FG002", "numSubjects": "9"}, {"groupId": "FG003", "numSubjects": "19"}]}]}]}, "baselineCharacteristicsModule": {"groups": [{"id": "BG000", "title": "Local Infusion, Thrombus Aspiration", "description": "Local infusion of abciximab using the ClearWay\u2122 RX Infusion Catheter following thrombus aspiration."}, {"id": "BG001", "title": "Local Infusion, no Aspiration", "description": "Local infusion of abciximab using the ClearWay\u2122 RX Infusion Catheter and no thrombus aspiration"}, {"id": "BG002", "title": "No Local Infusion, Thrombus Aspiration", "description": "No local infusion of abciximab, thrombus aspiration."}, {"id": "BG003", "title": "No Local Infusion, no Aspiration", "description": "No local infusion of abciximab and no thrombus aspiration"}, {"id": "BG004", "title": "Total", "description": "Total of all reporting groups"}], "denoms": [{"units": "Participants", "counts": [{"groupId": "BG000", "value": "118"}, {"groupId": "BG001", "value": "111"}, {"groupId": "BG002", "value": "111"}, {"groupId": "BG003", "value": "112"}, {"groupId": "BG004", "value": "452"}]}], "measures": [{"title": "Age, Categorical", "paramType": "COUNT_OF_PARTICIPANTS", "unitOfMeasure": "Participants", "classes": [{"categories": [{"title": "<=18 years", "measurements": [{"groupId": "BG000", "value": "0"}, {"groupId": "BG001", "value": "0"}, {"groupId": "BG002", "value": "0"}, {"groupId": "BG003", "value": "0"}, {"groupId": "BG004", "value": "0"}]}, {"title": "Between 18 and 65 years", "measurements": [{"groupId": "BG000", "value": "80"}, {"groupId": "BG001", "value": "79"}, {"groupId": "BG002", "value": "61"}, {"groupId": "BG003", "value": "67"}, {"groupId": "BG004", "value": "287"}]}, {"title": ">=65 years", "measurements": [{"groupId": "BG000", "value": "38"}, {"groupId": "BG001", "value": "32"}, {"groupId": "BG002", "value": "50"}, {"groupId": "BG003", "value": "45"}, {"groupId": "BG004", "value": "165"}]}]}]}, {"title": "Age Continuous", "paramType": "MEDIAN", "dispersionType": "INTER_QUARTILE_RANGE", "unitOfMeasure": "years", "classes": [{"categories": [{"measurements": [{"groupId": "BG000", "value": "60.0", "lowerLimit": "52.0", "upperLimit": "66.0"}, {"groupId": "BG001", "value": "56.0", "lowerLimit": "49.0", "upperLimit": "68.0"}, {"groupId": "BG002", "value": "62.0", "lowerLimit": "53.0", "upperLimit": "73.0"}, {"groupId": "BG003", "value": "62.5", "lowerLimit": "52.5", "upperLimit": "71.0"}, {"groupId": "BG004", "value": "61.0", "lowerLimit": "52.0", "upperLimit": "72.0"}]}]}]}, {"title": "Sex: Female, Male", "paramType": "COUNT_OF_PARTICIPANTS", "unitOfMeasure": "Participants", "classes": [{"categories": [{"title": "Female", "measurements": [{"groupId": "BG000", "value": "34"}, {"groupId": "BG001", "value": "27"}, {"groupId": "BG002", "value": "26"}, {"groupId": "BG003", "value": "31"}, {"groupId": "BG004", "value": "118"}]}, {"title": "Male", "measurements": [{"groupId": "BG000", "value": "84"}, {"groupId": "BG001", "value": "84"}, {"groupId": "BG002", "value": "85"}, {"groupId": "BG003", "value": "81"}, {"groupId": "BG004", "value": "334"}]}]}]}, {"title": "Region of Enrollment", "paramType": "NUMBER", "unitOfMeasure": "participants", "classes": [{"title": "United States", "categories": [{"measurements": [{"groupId": "BG000", "value": "14"}, {"groupId": "BG001", "value": "15"}, {"groupId": "BG002", "value": "12"}, {"groupId": "BG003", "value": "12"}, {"groupId": "BG004", "value": "53"}]}]}, {"title": "Poland", "categories": [{"measurements": [{"groupId": "BG000", "value": "25"}, {"groupId": "BG001", "value": "24"}, {"groupId": "BG002", "value": "27"}, {"groupId": "BG003", "value": "23"}, {"groupId": "BG004", "value": "99"}]}]}, {"title": "Austria", "categories": [{"measurements": [{"groupId": "BG000", "value": "13"}, {"groupId": "BG001", "value": "14"}, {"groupId": "BG002", "value": "11"}, {"groupId": "BG003", "value": "9"}, {"groupId": "BG004", "value": "47"}]}]}, {"title": "Netherlands", "categories": [{"measurements": [{"groupId": "BG000", "value": "14"}, {"groupId": "BG001", "value": "11"}, {"groupId": "BG002", "value": "10"}, {"groupId": "BG003", "value": "15"}, {"groupId": "BG004", "value": "50"}]}]}, {"title": "Germany", "categories": [{"measurements": [{"groupId": "BG000", "value": "22"}, {"groupId": "BG001", "value": "21"}, {"groupId": "BG002", "value": "19"}, {"groupId": "BG003", "value": "19"}, {"groupId": "BG004", "value": "81"}]}]}, {"title": "United Kingdom", "categories": [{"measurements": [{"groupId": "BG000", "value": "30"}, {"groupId": "BG001", "value": "26"}, {"groupId": "BG002", "value": "32"}, {"groupId": "BG003", "value": "34"}, {"groupId": "BG004", "value": "122"}]}]}]}]}, "outcomeMeasuresModule": {"outcomeMeasures": [{"type": "PRIMARY", "title": "Primary Endpoint - Infarct Size at 30 Days as a Percentage of Total Left Ventricular Mass - Abciximab Infusion vs. No Infusion", "description": "The primary endpoint of the INFUSE AMI study is infarct size as a percentage of total left ventricular mass at 30 days as measured by cardiac MRI (cMRI), comparing the pooled randomized active (abciximab) infusion to the pooled non infusion arms, without regard to aspiration.", "populationDescription": "Evaluable cardiac MRI (cMRI) results at 30 days to assess percentage of total left ventricular mass were available for 181 and 172 patients randomized to intracoronary abciximab infusion versus no abciximab infusion, respectively for the ITT (intention to treat) analysis set.", "reportingStatus": "POSTED", "paramType": "MEDIAN", "dispersionType": "Inter-Quartile Range", "unitOfMeasure": "Percentage of Left Ventricular Mass", "timeFrame": "30 Days Post Index Procedure", "groups": [{"id": "OG000", "title": "Abciximab Infusion", "description": "Abciximab Infusion includes subjects randomized to either the following two arms: abciximab active infusion arm with aspiration or abciximab infusion arm without aspiration. If the lesion is successfully crossed or penetrated by at least 1 mm, an intracoronary bolus of abciximab (0.25 mg/kg body weight, given as 10 cc over approximately 60 seconds) is infused through the ClearWay\u2122 RX Infusion Catheter."}, {"id": "OG001", "title": "No Infusion", "description": "No Infusion includes subjects randomized to either the following two arms: no abciximab infusion with aspiration or no abciximab infusion without aspiration. If randomized to abciximab infusion with aspiration, a 6 French Export\u00ae Aspiration Catheter is passed across the target coronary segment during continuous aspiration. Several passes should be made across the lesion to attempt to remove residual thrombus, always with continuous aspiration when advancing or withdrawing the catheter until no further thrombus is being removed. If randomized to no abciximab infusion without aspiration, the lesion is pre-dilated with at least a 2.0 mm angioplasty balloon and then stent implantation is performed as per standard of care."}, {"id": "OG002", "title": "Combined", "description": "Combined includes subjects randomized to all four arms."}], "denoms": [{"units": "Participants", "counts": [{"groupId": "OG000", "value": "181"}, {"groupId": "OG001", "value": "172"}, {"groupId": "OG002", "value": "353"}]}], "classes": [{"categories": [{"measurements": [{"groupId": "OG000", "value": "15.1", "lowerLimit": "6.8", "upperLimit": "22.7"}, {"groupId": "OG001", "value": "17.9", "lowerLimit": "10.3", "upperLimit": "25.4"}, {"groupId": "OG002", "value": "17.2", "lowerLimit": "7.4", "upperLimit": "23.6"}]}]}], "analyses": [{"groupIds": ["OG000", "OG001"], "groupDescription": "The primary endpoint of infarct size at 30 days measured by cardiac MRI, was summarized using the median, IQR, minimum and maximum values, in each infusion group, comparing the pooled active infusion arm to the pooled control non-infusion arm with the Wilcoxon rank sum test in the ITT analysis set. Data was only analyzed in subjects completing the cardiac MRI study and for whom the imaging data was received and deemed analyzable by the core laboratory.", "testedNonInferiority": false, "nonInferiorityType": "SUPERIORITY_OR_OTHER", "pValue": "0.034", "statisticalMethod": "Wilcoxon (Mann-Whitney)", "ciPctValue": "95"}]}, {"type": "SECONDARY", "title": "Major Secondary Endpoint - Infarct Size at 30 Days as a Percentage of Total Left Ventricular Mass - Aspiration vs. No Aspiration", "description": "The major secondary endpoint of the INFUSE AMI Study is infarct size as a percentage of total myocardial mass at 30 days measured by cardiac MRI (cMRI), comparing the pooled randomized aspiration arms to the pooled no aspiration arms, without regard to abciximab infusion.", "populationDescription": "Evaluable cardiac MRI (cMRI) results at 30 days to assess percentage of total myocardial mass were available for 192 and 190 patients randomized to thrombus aspiration versus no no thrombus aspiration, respectively for the ITT (intention to treat) analysis set.", "reportingStatus": "POSTED", "paramType": "MEDIAN", "dispersionType": "Inter-Quartile Range", "unitOfMeasure": "Percentage of Total Myocardial Mass", "timeFrame": "30 Days", "groups": [{"id": "OG000", "title": "Thrombus Aspiration", "description": "Thrombus aspiration includes subjects randomized to either the following two arms: abciximab active infusion arm with aspiration or no abciximab infusion with aspiration. A 6 French Export\u00ae Aspiration Catheter is passed across the target coronary segment during continuous aspiration. Several passes should be made across the lesion to attempt to remove residual thrombus, always with continuous aspiration when advancing or withdrawing the catheter. Multiple passes should be made with contrast injection after each pass until the operator appreciates that no further thrombus is being removed."}, {"id": "OG001", "title": "No Aspiration", "description": "No aspiration includes subjects randomized to either the following two arms: abciximab infusion arm without aspiration or no abciximab infusion without aspiration. If randomized to abciximab infusion without aspiration, the lesion is successfully crossed or penetrated by at least 1 mm, an intracoronary bolus of abciximab (0.25 mg/kg body weight, infused at a rate of 10 cc over approximately 60 seconds) is infused through the ClearWay\u2122 RX Infusion Catheter. If randomized to no abciximab without aspiration, the lesion is pre-dilated with at least a 2.0 mm angioplasty balloon and then stent implantation is performed as per standard of care."}, {"id": "OG002", "title": "Combined", "description": "Combined includes subjects randomized to all four arms."}], "denoms": [{"units": "Participants", "counts": [{"groupId": "OG000", "value": "192"}, {"groupId": "OG001", "value": "190"}, {"groupId": "OG002", "value": "382"}]}], "classes": [{"categories": [{"measurements": [{"groupId": "OG000", "value": "17.0", "lowerLimit": "9.0", "upperLimit": "22.8"}, {"groupId": "OG001", "value": "17.3", "lowerLimit": "7.1", "upperLimit": "25.5"}, {"groupId": "OG002", "value": "17.2", "lowerLimit": "7.4", "upperLimit": "23.6"}]}]}], "analyses": [{"groupIds": ["OG000", "OG001"], "groupDescription": "The primary endpoint of infarct size at 30 days measured by cardiac MRI, was summarized using the median, IQR, minimum and maximum values, in each infusion group, comparing the pooled active infusion arm to the pooled control non-infusion arm with the Wilcoxon rank sum test in the ITT analysis set. Data was only analyzed in subjects completing the cardiac MRI study and for whom the imaging data was received and deemed analyzable by the core laboratory.", "testedNonInferiority": false, "nonInferiorityType": "SUPERIORITY_OR_OTHER", "pValue": "0.51", "statisticalMethod": "Wilcoxon (Mann-Whitney)", "ciPctValue": "95"}]}]}, "adverseEventsModule": {"frequencyThreshold": "5", "eventGroups": [{"id": "EG000", "title": "Local Infusion, Thrombus Aspiration", "description": "Local infusion of abciximab using the ClearWay\u2122 RX Infusion Catheter following thrombus aspiration", "seriousNumAffected": 31, "seriousNumAtRisk": 118, "otherNumAffected": 0, "otherNumAtRisk": 0}, {"id": "EG001", "title": "Local Infusion, No Aspiration", "description": "Local infusion of abciximab using the ClearWay\u2122 RX Infusion Catheter and no thrombus aspiration.", "seriousNumAffected": 31, "seriousNumAtRisk": 111, "otherNumAffected": 0, "otherNumAtRisk": 0}, {"id": "EG002", "title": "No Local Infusion, Thrombus Aspiration", "description": "No local infusion of abciximab, thrombus aspiration.", "seriousNumAffected": 35, "seriousNumAtRisk": 111, "otherNumAffected": 0, "otherNumAtRisk": 0}, {"id": "EG003", "title": "No Local Infusion, No Aspiration", "description": "No local infusion of abciximab and no thrombus aspiration.", "seriousNumAffected": 41, "seriousNumAtRisk": 112, "otherNumAffected": 0, "otherNumAtRisk": 0}], "seriousEvents": [{"term": "Haemorrhagic diathesis", "organSystem": "Blood and lymphatic system disorders", "stats": [{"groupId": "EG000", "numEvents": 1, "numAffected": 1, "numAtRisk": 118}, {"groupId": "EG001", "numEvents": 0, "numAffected": 0, "numAtRisk": 111}, {"groupId": "EG002", "numEvents": 0, "numAffected": 0, "numAtRisk": 111}, {"groupId": "EG003", "numEvents": 0, "numAffected": 0, "numAtRisk": 112}]}, {"term": "Anemia", "organSystem": "Blood and lymphatic system disorders", "stats": [{"groupId": "EG000", "numEvents": 1, "numAffected": 1, "numAtRisk": 118}, {"groupId": "EG001", "numEvents": 0, "numAffected": 0, "numAtRisk": 111}, {"groupId": "EG002", "numEvents": 0, "numAffected": 0, "numAtRisk": 111}, {"groupId": "EG003", "numEvents": 0, "numAffected": 0, "numAtRisk": 112}]}, {"term": "Angina pectoris", "organSystem": "Cardiac disorders", "stats": [{"groupId": "EG000", "numEvents": 7, "numAffected": 7, "numAtRisk": 118}, {"groupId": "EG001", "numEvents": 8, "numAffected": 7, "numAtRisk": 111}, {"groupId": "EG002", "numEvents": 8, "numAffected": 6, "numAtRisk": 111}, {"groupId": "EG003", "numEvents": 6, "numAffected": 5, "numAtRisk": 112}]}, {"term": "Angina unstable", "organSystem": "Cardiac disorders", "stats": [{"groupId": "EG000", "numEvents": 1, "numAffected": 1, "numAtRisk": 118}, {"groupId": "EG001", "numEvents": 0, "numAffected": 0, "numAtRisk": 111}, {"groupId": "EG002", "numEvents": 0, "numAffected": 0, "numAtRisk": 111}, {"groupId": "EG003", "numEvents": 0, "numAffected": 0, "numAtRisk": 112}]}, {"term": "Aortic valve disease", "organSystem": "Cardiac disorders", "stats": [{"groupId": "EG000", "numEvents": 0, "numAffected": 0, "numAtRisk": 118}, {"groupId": "EG001", "numEvents": 0, "numAffected": 0, "numAtRisk": 111}, {"groupId": "EG002", "numEvents": 1, "numAffected": 1, "numAtRisk": 111}, {"groupId": "EG003", "numEvents": 0, "numAffected": 0, "numAtRisk": 112}]}, {"term": "Atrial fibrillation", "organSystem": "Cardiac disorders", "stats": [{"groupId": "EG000", "numEvents": 0, "numAffected": 0, "numAtRisk": 118}, {"groupId": "EG001", "numEvents": 0, "numAffected": 0, "numAtRisk": 111}, {"groupId": "EG002", "numEvents": 1, "numAffected": 1, "numAtRisk": 111}, {"groupId": "EG003", "numEvents": 0, "numAffected": 0, "numAtRisk": 112}]}, {"term": "Cardiac aneurysm", "organSystem": "Cardiac disorders", "stats": [{"groupId": "EG000", "numEvents": 0, "numAffected": 0, "numAtRisk": 118}, {"groupId": "EG001", "numEvents": 0, "numAffected": 0, "numAtRisk": 111}, {"groupId": "EG002", "numEvents": 1, "numAffected": 1, "numAtRisk": 111}, {"groupId": "EG003", "numEvents": 0, "numAffected": 0, "numAtRisk": 112}]}, {"term": "Cardiac arrest", "organSystem": "Cardiac disorders", "stats": [{"groupId": "EG000", "numEvents": 0, "numAffected": 0, "numAtRisk": 118}, {"groupId": "EG001", "numEvents": 1, "numAffected": 1, "numAtRisk": 111}, {"groupId": "EG002", "numEvents": 0, "numAffected": 0, "numAtRisk": 111}, {"groupId": "EG003", "numEvents": 0, "numAffected": 0, "numAtRisk": 112}]}, {"term": "Cardiac failure", "organSystem": "Cardiac disorders", "stats": [{"groupId": "EG000", "numEvents": 0, "numAffected": 0, "numAtRisk": 118}, {"groupId": "EG001", "numEvents": 1, "numAffected": 1, "numAtRisk": 111}, {"groupId": "EG002", "numEvents": 0, "numAffected": 0, "numAtRisk": 111}, {"groupId": "EG003", "numEvents": 2, "numAffected": 2, "numAtRisk": 112}]}, {"term": "Cardiac pseudoaneurysm", "organSystem": "Cardiac disorders", "stats": [{"groupId": "EG000", "numEvents": 0, "numAffected": 0, "numAtRisk": 118}, {"groupId": "EG001", "numEvents": 0, "numAffected": 0, "numAtRisk": 111}, {"groupId": "EG002", "numEvents": 0, "numAffected": 0, "numAtRisk": 111}, {"groupId": "EG003", "numEvents": 1, "numAffected": 1, "numAtRisk": 112}]}, {"term": "Cardiac tamponade", "organSystem": "Cardiac disorders", "stats": [{"groupId": "EG000", "numEvents": 0, "numAffected": 0, "numAtRisk": 118}, {"groupId": "EG001", "numEvents": 1, "numAffected": 1, "numAtRisk": 111}, {"groupId": "EG002", "numEvents": 1, "numAffected": 1, "numAtRisk": 111}, {"groupId": "EG003", "numEvents": 0, "numAffected": 0, "numAtRisk": 112}]}, {"term": "Cardiogenic shock", "organSystem": "Cardiac disorders", "stats": [{"groupId": "EG000", "numEvents": 1, "numAffected": 1, "numAtRisk": 118}, {"groupId": "EG001", "numEvents": 1, "numAffected": 1, "numAtRisk": 111}, {"groupId": "EG002", "numEvents": 0, "numAffected": 0, "numAtRisk": 111}, {"groupId": "EG003", "numEvents": 3, "numAffected": 3, "numAtRisk": 112}]}, {"term": "Congestive heart failure", "organSystem": "Cardiac disorders", "stats": [{"groupId": "EG000", "numEvents": 1, "numAffected": 1, "numAtRisk": 118}, {"groupId": "EG001", "numEvents": 3, "numAffected": 3, "numAtRisk": 111}, {"groupId": "EG002", "numEvents": 1, "numAffected": 1, "numAtRisk": 111}, {"groupId": "EG003", "numEvents": 0, "numAffected": 0, "numAtRisk": 112}]}, {"term": "Coronary artery disease", "organSystem": "Cardiac disorders", "stats": [{"groupId": "EG000", "numEvents": 0, "numAffected": 0, "numAtRisk": 118}, {"groupId": "EG001", "numEvents": 1, "numAffected": 1, "numAtRisk": 111}, {"groupId": "EG002", "numEvents": 1, "numAffected": 1, "numAtRisk": 111}, {"groupId": "EG003", "numEvents": 0, "numAffected": 0, "numAtRisk": 112}]}, {"term": "Coronary artery occlusion", "organSystem": "Cardiac disorders", "stats": [{"groupId": "EG000", "numEvents": 0, "numAffected": 0, "numAtRisk": 118}, {"groupId": "EG001", "numEvents": 0, "numAffected": 0, "numAtRisk": 111}, {"groupId": "EG002", "numEvents": 0, "numAffected": 0, "numAtRisk": 111}, {"groupId": "EG003", "numEvents": 2, "numAffected": 2, "numAtRisk": 112}]}, {"term": "Coronary artery perforation", "organSystem": "Cardiac disorders", "stats": [{"groupId": "EG000", "numEvents": 0, "numAffected": 0, "numAtRisk": 118}, {"groupId": "EG001", "numEvents": 0, "numAffected": 0, "numAtRisk": 111}, {"groupId": "EG002", "numEvents": 1, "numAffected": 1, "numAtRisk": 111}, {"groupId": "EG003", "numEvents": 0, "numAffected": 0, "numAtRisk": 112}]}, {"term": "Coronary artery stenosis", "organSystem": "Cardiac disorders", "stats": [{"groupId": "EG000", "numEvents": 0, "numAffected": 0, "numAtRisk": 118}, {"groupId": "EG001", "numEvents": 0, "numAffected": 0, "numAtRisk": 111}, {"groupId": "EG002", "numEvents": 1, "numAffected": 1, "numAtRisk": 111}, {"groupId": "EG003", "numEvents": 0, "numAffected": 0, "numAtRisk": 112}]}, {"term": "Heart block", "organSystem": "Cardiac disorders", "stats": [{"groupId": "EG000", "numEvents": 0, "numAffected": 0, "numAtRisk": 118}, {"groupId": "EG001", "numEvents": 1, "numAffected": 1, "numAtRisk": 111}, {"groupId": "EG002", "numEvents": 1, "numAffected": 1, "numAtRisk": 111}, {"groupId": "EG003", "numEvents": 1, "numAffected": 1, "numAtRisk": 112}]}, {"term": "Heart failure", "organSystem": "Cardiac disorders", "stats": [{"groupId": "EG000", "numEvents": 2, "numAffected": 2, "numAtRisk": 118}, {"groupId": "EG001", "numEvents": 4, "numAffected": 4, "numAtRisk": 111}, {"groupId": "EG002", "numEvents": 4, "numAffected": 4, "numAtRisk": 111}, {"groupId": "EG003", "numEvents": 15, "numAffected": 11, "numAtRisk": 112}]}, {"term": "Interventricular septum rupture", "organSystem": "Cardiac disorders", "stats": [{"groupId": "EG000", "numEvents": 0, "numAffected": 0, "numAtRisk": 118}, {"groupId": "EG001", "numEvents": 1, "numAffected": 1, "numAtRisk": 111}, {"groupId": "EG002", "numEvents": 0, "numAffected": 0, "numAtRisk": 111}, {"groupId": "EG003", "numEvents": 0, "numAffected": 0, "numAtRisk": 112}]}, {"term": "Intracardiac thrombus", "organSystem": "Cardiac disorders", "stats": [{"groupId": "EG000", "numEvents": 2, "numAffected": 2, "numAtRisk": 118}, {"groupId": "EG001", "numEvents": 3, "numAffected": 3, "numAtRisk": 111}, {"groupId": "EG002", "numEvents": 3, "numAffected": 3, "numAtRisk": 111}, {"groupId": "EG003", "numEvents": 0, "numAffected": 0, "numAtRisk": 112}]}, {"term": "Myocardial infarction", "organSystem": "Cardiac disorders", "stats": [{"groupId": "EG000", "numEvents": 0, "numAffected": 0, "numAtRisk": 118}, {"groupId": "EG001", "numEvents": 2, "numAffected": 1, "numAtRisk": 111}, {"groupId": "EG002", "numEvents": 2, "numAffected": 2, "numAtRisk": 111}, {"groupId": "EG003", "numEvents": 1, "numAffected": 1, "numAtRisk": 112}]}, {"term": "Pericardial effusion", "organSystem": "Cardiac disorders", "stats": [{"groupId": "EG000", "numEvents": 1, "numAffected": 1, "numAtRisk": 118}, {"groupId": "EG001", "numEvents": 0, "numAffected": 0, "numAtRisk": 111}, {"groupId": "EG002", "numEvents": 0, "numAffected": 0, "numAtRisk": 111}, {"groupId": "EG003", "numEvents": 0, "numAffected": 0, "numAtRisk": 112}]}, {"term": "Supraventricular arrhythmia NOS", "organSystem": "Cardiac disorders", "stats": [{"groupId": "EG000", "numEvents": 1, "numAffected": 1, "numAtRisk": 118}, {"groupId": "EG001", "numEvents": 0, "numAffected": 0, "numAtRisk": 111}, {"groupId": "EG002", "numEvents": 0, "numAffected": 0, "numAtRisk": 111}, {"groupId": "EG003", "numEvents": 0, "numAffected": 0, "numAtRisk": 112}]}, {"term": "Ventricular fibrillation", "organSystem": "Cardiac disorders", "stats": [{"groupId": "EG000", "numEvents": 1, "numAffected": 1, "numAtRisk": 118}, {"groupId": "EG001", "numEvents": 0, "numAffected": 0, "numAtRisk": 111}, {"groupId": "EG002", "numEvents": 0, "numAffected": 0, "numAtRisk": 111}, {"groupId": "EG003", "numEvents": 0, "numAffected": 0, "numAtRisk": 112}]}, {"term": "Ventricular tachycardia", "organSystem": "Cardiac disorders", "stats": [{"groupId": "EG000", "numEvents": 0, "numAffected": 0, "numAtRisk": 118}, {"groupId": "EG001", "numEvents": 1, "numAffected": 1, "numAtRisk": 111}, {"groupId": "EG002", "numEvents": 0, "numAffected": 0, "numAtRisk": 111}, {"groupId": "EG003", "numEvents": 0, "numAffected": 0, "numAtRisk": 112}]}, {"term": "Defect interventricular septum", "organSystem": "Congenital, familial and genetic disorders", "stats": [{"groupId": "EG000", "numEvents": 0, "numAffected": 0, "numAtRisk": 118}, {"groupId": "EG001", "numEvents": 1, "numAffected": 1, "numAtRisk": 111}, {"groupId": "EG002", "numEvents": 0, "numAffected": 0, "numAtRisk": 111}, {"groupId": "EG003", "numEvents": 1, "numAffected": 1, "numAtRisk": 112}]}, {"term": "Abdominal pain", "organSystem": "Gastrointestinal disorders", "stats": [{"groupId": "EG000", "numEvents": 0, "numAffected": 0, "numAtRisk": 118}, {"groupId": "EG001", "numEvents": 0, "numAffected": 0, "numAtRisk": 111}, {"groupId": "EG002", "numEvents": 1, "numAffected": 1, "numAtRisk": 111}, {"groupId": "EG003", "numEvents": 0, "numAffected": 0, "numAtRisk": 112}]}, {"term": "Constipation", "organSystem": "Gastrointestinal disorders", "stats": [{"groupId": "EG000", "numEvents": 0, "numAffected": 0, "numAtRisk": 118}, {"groupId": "EG001", "numEvents": 0, "numAffected": 0, "numAtRisk": 111}, {"groupId": "EG002", "numEvents": 0, "numAffected": 0, "numAtRisk": 111}, {"groupId": "EG003", "numEvents": 1, "numAffected": 1, "numAtRisk": 112}]}, {"term": "Diarrhoea", "organSystem": "Gastrointestinal disorders", "stats": [{"groupId": "EG000", "numEvents": 1, "numAffected": 1, "numAtRisk": 118}, {"groupId": "EG001", "numEvents": 0, "numAffected": 0, "numAtRisk": 111}, {"groupId": "EG002", "numEvents": 0, "numAffected": 0, "numAtRisk": 111}, {"groupId": "EG003", "numEvents": 0, "numAffected": 0, "numAtRisk": 112}]}, {"term": "GI bleed", "organSystem": "Gastrointestinal disorders", "stats": [{"groupId": "EG000", "numEvents": 1, "numAffected": 1, "numAtRisk": 118}, {"groupId": "EG001", "numEvents": 0, "numAffected": 0, "numAtRisk": 111}, {"groupId": "EG002", "numEvents": 1, "numAffected": 1, "numAtRisk": 111}, {"groupId": "EG003", "numEvents": 3, "numAffected": 3, "numAtRisk": 112}]}, {"term": "Retroperitoneal bleed", "organSystem": "Gastrointestinal disorders", "stats": [{"groupId": "EG000", "numEvents": 1, "numAffected": 1, "numAtRisk": 118}, {"groupId": "EG001", "numEvents": 1, "numAffected": 1, "numAtRisk": 111}, {"groupId": "EG002", "numEvents": 0, "numAffected": 0, "numAtRisk": 111}, {"groupId": "EG003", "numEvents": 1, "numAffected": 1, "numAtRisk": 112}]}, {"term": "Accidental death", "organSystem": "General disorders", "stats": [{"groupId": "EG000", "numEvents": 0, "numAffected": 0, "numAtRisk": 118}, {"groupId": "EG001", "numEvents": 0, "numAffected": 0, "numAtRisk": 111}, {"groupId": "EG002", "numEvents": 0, "numAffected": 0, "numAtRisk": 111}, {"groupId": "EG003", "numEvents": 1, "numAffected": 1, "numAtRisk": 112}]}, {"term": "Cardiac death", "organSystem": "General disorders", "stats": [{"groupId": "EG000", "numEvents": 5, "numAffected": 5, "numAtRisk": 118}, {"groupId": "EG001", "numEvents": 2, "numAffected": 2, "numAtRisk": 111}, {"groupId": "EG002", "numEvents": 2, "numAffected": 2, "numAtRisk": 111}, {"groupId": "EG003", "numEvents": 2, "numAffected": 2, "numAtRisk": 112}]}, {"term": "Chest pain", "organSystem": "General disorders", "stats": [{"groupId": "EG000", "numEvents": 2, "numAffected": 2, "numAtRisk": 118}, {"groupId": "EG001", "numEvents": 1, "numAffected": 1, "numAtRisk": 111}, {"groupId": "EG002", "numEvents": 2, "numAffected": 2, "numAtRisk": 111}, {"groupId": "EG003", "numEvents": 2, "numAffected": 2, "numAtRisk": 112}]}, {"term": "Chest pain (non-cardiac)", "organSystem": "General disorders", "stats": [{"groupId": "EG000", "numEvents": 0, "numAffected": 0, "numAtRisk": 118}, {"groupId": "EG001", "numEvents": 0, "numAffected": 0, "numAtRisk": 111}, {"groupId": "EG002", "numEvents": 2, "numAffected": 2, "numAtRisk": 111}, {"groupId": "EG003", "numEvents": 0, "numAffected": 0, "numAtRisk": 112}]}, {"term": "Impaired healing", "organSystem": "General disorders", "stats": [{"groupId": "EG000", "numEvents": 0, "numAffected": 0, "numAtRisk": 118}, {"groupId": "EG001", "numEvents": 1, "numAffected": 1, "numAtRisk": 111}, {"groupId": "EG002", "numEvents": 0, "numAffected": 0, "numAtRisk": 111}, {"groupId": "EG003", "numEvents": 0, "numAffected": 0, "numAtRisk": 112}]}, {"term": "Non-cardiac chest pain", "organSystem": "General disorders", "stats": [{"groupId": "EG000", "numEvents": 0, "numAffected": 0, "numAtRisk": 118}, {"groupId": "EG001", "numEvents": 0, "numAffected": 0, "numAtRisk": 111}, {"groupId": "EG002", "numEvents": 0, "numAffected": 0, "numAtRisk": 111}, {"groupId": "EG003", "numEvents": 2, "numAffected": 2, "numAtRisk": 112}]}, {"term": "Sudden cardiac death", "organSystem": "General disorders", "stats": [{"groupId": "EG000", "numEvents": 1, "numAffected": 1, "numAtRisk": 118}, {"groupId": "EG001", "numEvents": 0, "numAffected": 0, "numAtRisk": 111}, {"groupId": "EG002", "numEvents": 0, "numAffected": 0, "numAtRisk": 111}, {"groupId": "EG003", "numEvents": 0, "numAffected": 0, "numAtRisk": 112}]}, {"term": "Thoracic pain", "organSystem": "General disorders", "stats": [{"groupId": "EG000", "numEvents": 1, "numAffected": 1, "numAtRisk": 118}, {"groupId": "EG001", "numEvents": 0, "numAffected": 0, "numAtRisk": 111}, {"groupId": "EG002", "numEvents": 0, "numAffected": 0, "numAtRisk": 111}, {"groupId": "EG003", "numEvents": 0, "numAffected": 0, "numAtRisk": 112}]}, {"term": "Ulcer", "organSystem": "General disorders", "stats": [{"groupId": "EG000", "numEvents": 1, "numAffected": 1, "numAtRisk": 118}, {"groupId": "EG001", "numEvents": 0, "numAffected": 0, "numAtRisk": 111}, {"groupId": "EG002", "numEvents": 0, "numAffected": 0, "numAtRisk": 111}, {"groupId": "EG003", "numEvents": 0, "numAffected": 0, "numAtRisk": 112}]}, {"term": "Ischaemic hepatitis", "organSystem": "Hepatobiliary disorders", "stats": [{"groupId": "EG000", "numEvents": 0, "numAffected": 0, "numAtRisk": 118}, {"groupId": "EG001", "numEvents": 0, "numAffected": 0, "numAtRisk": 111}, {"groupId": "EG002", "numEvents": 0, "numAffected": 0, "numAtRisk": 111}, {"groupId": "EG003", "numEvents": 1, "numAffected": 1, "numAtRisk": 112}]}, {"term": "Gastroenteritis norovirus", "organSystem": "Infections and infestations", "stats": [{"groupId": "EG000", "numEvents": 0, "numAffected": 0, "numAtRisk": 118}, {"groupId": "EG001", "numEvents": 0, "numAffected": 0, "numAtRisk": 111}, {"groupId": "EG002", "numEvents": 0, "numAffected": 0, "numAtRisk": 111}, {"groupId": "EG003", "numEvents": 0, "numAffected": 0, "numAtRisk": 112}]}, {"term": "Infection systemic", "organSystem": "Infections and infestations", "stats": [{"groupId": "EG000", "numEvents": 0, "numAffected": 0, "numAtRisk": 118}, {"groupId": "EG001", "numEvents": 2, "numAffected": 2, "numAtRisk": 111}, {"groupId": "EG002", "numEvents": 1, "numAffected": 1, "numAtRisk": 111}, {"groupId": "EG003", "numEvents": 1, "numAffected": 1, "numAtRisk": 112}]}, {"term": "Localized infection", "organSystem": "Infections and infestations", "stats": [{"groupId": "EG000", "numEvents": 1, "numAffected": 1, "numAtRisk": 118}, {"groupId": "EG001", "numEvents": 1, "numAffected": 1, "numAtRisk": 111}, {"groupId": "EG002", "numEvents": 0, "numAffected": 0, "numAtRisk": 111}, {"groupId": "EG003", "numEvents": 1, "numAffected": 1, "numAtRisk": 112}]}, {"term": "Pneumonia", "organSystem": "Infections and infestations", "stats": [{"groupId": "EG000", "numEvents": 1, "numAffected": 1, "numAtRisk": 118}, {"groupId": "EG001", "numEvents": 1, "numAffected": 1, "numAtRisk": 111}, {"groupId": "EG002", "numEvents": 2, "numAffected": 2, "numAtRisk": 111}, {"groupId": "EG003", "numEvents": 2, "numAffected": 1, "numAtRisk": 112}]}, {"term": "Septic shock", "organSystem": "Infections and infestations", "stats": [{"groupId": "EG000", "numEvents": 0, "numAffected": 0, "numAtRisk": 118}, {"groupId": "EG001", "numEvents": 0, "numAffected": 0, "numAtRisk": 111}, {"groupId": "EG002", "numEvents": 0, "numAffected": 0, "numAtRisk": 111}, {"groupId": "EG003", "numEvents": 1, "numAffected": 1, "numAtRisk": 112}]}, {"term": "Urinary tract infection", "organSystem": "Infections and infestations", "stats": [{"groupId": "EG000", "numEvents": 0, "numAffected": 0, "numAtRisk": 118}, {"groupId": "EG001", "numEvents": 1, "numAffected": 1, "numAtRisk": 111}, {"groupId": "EG002", "numEvents": 0, "numAffected": 0, "numAtRisk": 111}, {"groupId": "EG003", "numEvents": 0, "numAffected": 0, "numAtRisk": 112}]}, {"term": "Subdural haemorrhage", "organSystem": "Injury, poisoning and procedural complications", "stats": [{"groupId": "EG000", "numEvents": 0, "numAffected": 0, "numAtRisk": 118}, {"groupId": "EG001", "numEvents": 0, "numAffected": 0, "numAtRisk": 111}, {"groupId": "EG002", "numEvents": 0, "numAffected": 0, "numAtRisk": 111}, {"groupId": "EG003", "numEvents": 1, "numAffected": 1, "numAtRisk": 112}]}, {"term": "Aortic stent-graft thrombosis", "organSystem": "Injury, poisoning and procedural complications", "stats": [{"groupId": "EG000", "numEvents": 0, "numAffected": 0, "numAtRisk": 118}, {"groupId": "EG001", "numEvents": 0, "numAffected": 0, "numAtRisk": 111}, {"groupId": "EG002", "numEvents": 0, "numAffected": 0, "numAtRisk": 111}, {"groupId": "EG003", "numEvents": 1, "numAffected": 1, "numAtRisk": 112}]}, {"term": "Hemoglobin decreased", "organSystem": "Investigations", "stats": [{"groupId": "EG000", "numEvents": 0, "numAffected": 0, "numAtRisk": 118}, {"groupId": "EG001", "numEvents": 2, "numAffected": 2, "numAtRisk": 111}, {"groupId": "EG002", "numEvents": 0, "numAffected": 0, "numAtRisk": 111}, {"groupId": "EG003", "numEvents": 0, "numAffected": 0, "numAtRisk": 112}]}, {"term": "Blood pressure decreased", "organSystem": "Investigations", "stats": [{"groupId": "EG000", "numEvents": 0, "numAffected": 0, "numAtRisk": 118}, {"groupId": "EG001", "numEvents": 0, "numAffected": 0, "numAtRisk": 111}, {"groupId": "EG002", "numEvents": 1, "numAffected": 1, "numAtRisk": 111}, {"groupId": "EG003", "numEvents": 0, "numAffected": 0, "numAtRisk": 112}]}, {"term": "Ejection fraction decreased", "organSystem": "Investigations", "stats": [{"groupId": "EG000", "numEvents": 0, "numAffected": 0, "numAtRisk": 118}, {"groupId": "EG001", "numEvents": 0, "numAffected": 0, "numAtRisk": 111}, {"groupId": "EG002", "numEvents": 1, "numAffected": 1, "numAtRisk": 111}, {"groupId": "EG003", "numEvents": 0, "numAffected": 0, "numAtRisk": 112}]}, {"term": "Oral intake reduced", "organSystem": "Metabolism and nutrition disorders", "stats": [{"groupId": "EG000", "numEvents": 0, "numAffected": 0, "numAtRisk": 118}, {"groupId": "EG001", "numEvents": 0, "numAffected": 0, "numAtRisk": 111}, {"groupId": "EG002", "numEvents": 1, "numAffected": 1, "numAtRisk": 111}, {"groupId": "EG003", "numEvents": 0, "numAffected": 0, "numAtRisk": 112}]}, {"term": "Mobility decreased", "organSystem": "Musculoskeletal and connective tissue disorders", "stats": [{"groupId": "EG000", "numEvents": 1, "numAffected": 1, "numAtRisk": 118}, {"groupId": "EG001", "numEvents": 0, "numAffected": 0, "numAtRisk": 111}, {"groupId": "EG002", "numEvents": 0, "numAffected": 0, "numAtRisk": 111}, {"groupId": "EG003", "numEvents": 0, "numAffected": 0, "numAtRisk": 112}]}, {"term": "Pain in extremity", "organSystem": "Musculoskeletal and connective tissue disorders", "stats": [{"groupId": "EG000", "numEvents": 0, "numAffected": 0, "numAtRisk": 118}, {"groupId": "EG001", "numEvents": 0, "numAffected": 0, "numAtRisk": 111}, {"groupId": "EG002", "numEvents": 0, "numAffected": 0, "numAtRisk": 111}, {"groupId": "EG003", "numEvents": 1, "numAffected": 1, "numAtRisk": 112}]}, {"term": "Thymoma", "organSystem": "Neoplasms benign, malignant and unspecified (incl cysts and polyps)", "stats": [{"groupId": "EG000", "numEvents": 0, "numAffected": 0, "numAtRisk": 118}, {"groupId": "EG001", "numEvents": 1, "numAffected": 1, "numAtRisk": 111}, {"groupId": "EG002", "numEvents": 0, "numAffected": 0, "numAtRisk": 111}, {"groupId": "EG003", "numEvents": 0, "numAffected": 0, "numAtRisk": 112}]}, {"term": "Adenocarcinoma", "organSystem": "Neoplasms benign, malignant and unspecified (incl cysts and polyps)", "stats": [{"groupId": "EG000", "numEvents": 1, "numAffected": 1, "numAtRisk": 118}, {"groupId": "EG001", "numEvents": 0, "numAffected": 0, "numAtRisk": 111}, {"groupId": "EG002", "numEvents": 0, "numAffected": 0, "numAtRisk": 111}, {"groupId": "EG003", "numEvents": 0, "numAffected": 0, "numAtRisk": 112}]}, {"term": "Colon cancer", "organSystem": "Neoplasms benign, malignant and unspecified (incl cysts and polyps)", "stats": [{"groupId": "EG000", "numEvents": 2, "numAffected": 1, "numAtRisk": 118}, {"groupId": "EG001", "numEvents": 0, "numAffected": 0, "numAtRisk": 111}, {"groupId": "EG002", "numEvents": 0, "numAffected": 0, "numAtRisk": 111}, {"groupId": "EG003", "numEvents": 1, "numAffected": 1, "numAtRisk": 112}]}, {"term": "Cerebrovascular accident", "organSystem": "Nervous system disorders", "stats": [{"groupId": "EG000", "numEvents": 0, "numAffected": 0, "numAtRisk": 118}, {"groupId": "EG001", "numEvents": 0, "numAffected": 0, "numAtRisk": 111}, {"groupId": "EG002", "numEvents": 1, "numAffected": 1, "numAtRisk": 111}, {"groupId": "EG003", "numEvents": 1, "numAffected": 1, "numAtRisk": 112}]}, {"term": "Intracranial hemorrhage", "organSystem": "Nervous system disorders", "stats": [{"groupId": "EG000", "numEvents": 0, "numAffected": 0, "numAtRisk": 118}, {"groupId": "EG001", "numEvents": 0, "numAffected": 0, "numAtRisk": 111}, {"groupId": "EG002", "numEvents": 1, "numAffected": 1, "numAtRisk": 111}, {"groupId": "EG003", "numEvents": 0, "numAffected": 0, "numAtRisk": 112}]}, {"term": "Syncope", "organSystem": "Nervous system disorders", "stats": [{"groupId": "EG000", "numEvents": 0, "numAffected": 0, "numAtRisk": 118}, {"groupId": "EG001", "numEvents": 0, "numAffected": 0, "numAtRisk": 111}, {"groupId": "EG002", "numEvents": 1, "numAffected": 1, "numAtRisk": 111}, {"groupId": "EG003", "numEvents": 0, "numAffected": 0, "numAtRisk": 112}]}, {"term": "Transient ischaemic attack", "organSystem": "Nervous system disorders", "stats": [{"groupId": "EG000", "numEvents": 0, "numAffected": 0, "numAtRisk": 118}, {"groupId": "EG001", "numEvents": 0, "numAffected": 0, "numAtRisk": 111}, {"groupId": "EG002", "numEvents": 1, "numAffected": 1, "numAtRisk": 111}, {"groupId": "EG003", "numEvents": 1, "numAffected": 1, "numAtRisk": 112}]}, {"term": "Panic attack", "organSystem": "Psychiatric disorders", "stats": [{"groupId": "EG000", "numEvents": 0, "numAffected": 0, "numAtRisk": 118}, {"groupId": "EG001", "numEvents": 0, "numAffected": 0, "numAtRisk": 111}, {"groupId": "EG002", "numEvents": 0, "numAffected": 0, "numAtRisk": 111}, {"groupId": "EG003", "numEvents": 2, "numAffected": 2, "numAtRisk": 112}]}, {"term": "Somatoform disorder cardiovascular", "organSystem": "Psychiatric disorders", "stats": [{"groupId": "EG000", "numEvents": 0, "numAffected": 0, "numAtRisk": 118}, {"groupId": "EG001", "numEvents": 1, "numAffected": 1, "numAtRisk": 111}, {"groupId": "EG002", "numEvents": 0, "numAffected": 0, "numAtRisk": 111}, {"groupId": "EG003", "numEvents": 0, "numAffected": 0, "numAtRisk": 112}]}, {"term": "Kidney dysfunction", "organSystem": "Renal and urinary disorders", "stats": [{"groupId": "EG000", "numEvents": 1, "numAffected": 1, "numAtRisk": 118}, {"groupId": "EG001", "numEvents": 0, "numAffected": 0, "numAtRisk": 111}, {"groupId": "EG002", "numEvents": 0, "numAffected": 0, "numAtRisk": 111}, {"groupId": "EG003", "numEvents": 0, "numAffected": 0, "numAtRisk": 112}]}, {"term": "Nephrolithiasis", "organSystem": "Renal and urinary disorders", "stats": [{"groupId": "EG000", "numEvents": 0, "numAffected": 0, "numAtRisk": 118}, {"groupId": "EG001", "numEvents": 0, "numAffected": 0, "numAtRisk": 111}, {"groupId": "EG002", "numEvents": 1, "numAffected": 1, "numAtRisk": 111}, {"groupId": "EG003", "numEvents": 0, "numAffected": 0, "numAtRisk": 112}]}, {"term": "Renal failure", "organSystem": "Renal and urinary disorders", "stats": [{"groupId": "EG000", "numEvents": 0, "numAffected": 0, "numAtRisk": 118}, {"groupId": "EG001", "numEvents": 0, "numAffected": 0, "numAtRisk": 111}, {"groupId": "EG002", "numEvents": 0, "numAffected": 0, "numAtRisk": 111}, {"groupId": "EG003", "numEvents": 1, "numAffected": 1, "numAtRisk": 112}]}, {"term": "Renal failure acute", "organSystem": "Renal and urinary disorders", "stats": [{"groupId": "EG000", "numEvents": 0, "numAffected": 0, "numAtRisk": 118}, {"groupId": "EG001", "numEvents": 1, "numAffected": 1, "numAtRisk": 111}, {"groupId": "EG002", "numEvents": 0, "numAffected": 0, "numAtRisk": 111}, {"groupId": "EG003", "numEvents": 0, "numAffected": 0, "numAtRisk": 112}]}, {"term": "Renal mass", "organSystem": "Renal and urinary disorders", "stats": [{"groupId": "EG000", "numEvents": 0, "numAffected": 0, "numAtRisk": 118}, {"groupId": "EG001", "numEvents": 0, "numAffected": 0, "numAtRisk": 111}, {"groupId": "EG002", "numEvents": 0, "numAffected": 0, "numAtRisk": 111}, {"groupId": "EG003", "numEvents": 1, "numAffected": 1, "numAtRisk": 112}]}, {"term": "Epistaxis", "organSystem": "Respiratory, thoracic and mediastinal disorders", "stats": [{"groupId": "EG000", "numEvents": 0, "numAffected": 0, "numAtRisk": 118}, {"groupId": "EG001", "numEvents": 0, "numAffected": 0, "numAtRisk": 111}, {"groupId": "EG002", "numEvents": 0, "numAffected": 0, "numAtRisk": 111}, {"groupId": "EG003", "numEvents": 1, "numAffected": 1, "numAtRisk": 112}]}, {"term": "Pulmonary congestion", "organSystem": "Respiratory, thoracic and mediastinal disorders", "stats": [{"groupId": "EG000", "numEvents": 0, "numAffected": 0, "numAtRisk": 118}, {"groupId": "EG001", "numEvents": 1, "numAffected": 1, "numAtRisk": 111}, {"groupId": "EG002", "numEvents": 0, "numAffected": 0, "numAtRisk": 111}, {"groupId": "EG003", "numEvents": 0, "numAffected": 0, "numAtRisk": 112}]}, {"term": "Pulmonary edema", "organSystem": "Respiratory, thoracic and mediastinal disorders", "stats": [{"groupId": "EG000", "numEvents": 2, "numAffected": 2, "numAtRisk": 118}, {"groupId": "EG001", "numEvents": 1, "numAffected": 1, "numAtRisk": 111}, {"groupId": "EG002", "numEvents": 2, "numAffected": 2, "numAtRisk": 111}, {"groupId": "EG003", "numEvents": 1, "numAffected": 1, "numAtRisk": 112}]}, {"term": "Respiratory failure", "organSystem": "Respiratory, thoracic and mediastinal disorders", "stats": [{"groupId": "EG000", "numEvents": 0, "numAffected": 0, "numAtRisk": 118}, {"groupId": "EG001", "numEvents": 1, "numAffected": 1, "numAtRisk": 111}, {"groupId": "EG002", "numEvents": 0, "numAffected": 0, "numAtRisk": 111}, {"groupId": "EG003", "numEvents": 0, "numAffected": 0, "numAtRisk": 112}]}, {"term": "Decubitus ulcer", "organSystem": "Skin and subcutaneous tissue disorders", "stats": [{"groupId": "EG000", "numEvents": 0, "numAffected": 0, "numAtRisk": 118}, {"groupId": "EG001", "numEvents": 0, "numAffected": 0, "numAtRisk": 111}, {"groupId": "EG002", "numEvents": 0, "numAffected": 0, "numAtRisk": 111}, {"groupId": "EG003", "numEvents": 1, "numAffected": 1, "numAtRisk": 112}]}, {"term": "Blood transfusion", "organSystem": "Surgical and medical procedures", "stats": [{"groupId": "EG000", "numEvents": 0, "numAffected": 0, "numAtRisk": 118}, {"groupId": "EG001", "numEvents": 0, "numAffected": 0, "numAtRisk": 111}, {"groupId": "EG002", "numEvents": 0, "numAffected": 0, "numAtRisk": 111}, {"groupId": "EG003", "numEvents": 2, "numAffected": 1, "numAtRisk": 112}]}, {"term": "Chemotherapy", "organSystem": "Surgical and medical procedures", "stats": [{"groupId": "EG000", "numEvents": 0, "numAffected": 0, "numAtRisk": 118}, {"groupId": "EG001", "numEvents": 0, "numAffected": 0, "numAtRisk": 111}, {"groupId": "EG002", "numEvents": 0, "numAffected": 0, "numAtRisk": 111}, {"groupId": "EG003", "numEvents": 2, "numAffected": 1, "numAtRisk": 112}]}, {"term": "Coronary angioplasty", "organSystem": "Surgical and medical procedures", "stats": [{"groupId": "EG000", "numEvents": 0, "numAffected": 0, "numAtRisk": 118}, {"groupId": "EG001", "numEvents": 0, "numAffected": 0, "numAtRisk": 111}, {"groupId": "EG002", "numEvents": 1, "numAffected": 1, "numAtRisk": 111}, {"groupId": "EG003", "numEvents": 0, "numAffected": 0, "numAtRisk": 112}]}, {"term": "Coronary artery bypass", "organSystem": "Surgical and medical procedures", "stats": [{"groupId": "EG000", "numEvents": 0, "numAffected": 0, "numAtRisk": 118}, {"groupId": "EG001", "numEvents": 1, "numAffected": 1, "numAtRisk": 111}, {"groupId": "EG002", "numEvents": 0, "numAffected": 0, "numAtRisk": 111}, {"groupId": "EG003", "numEvents": 0, "numAffected": 0, "numAtRisk": 112}]}, {"term": "Implantable cardioverter defibrillator insertion", "organSystem": "Surgical and medical procedures", "stats": [{"groupId": "EG000", "numEvents": 0, "numAffected": 0, "numAtRisk": 118}, {"groupId": "EG001", "numEvents": 0, "numAffected": 0, "numAtRisk": 111}, {"groupId": "EG002", "numEvents": 0, "numAffected": 0, "numAtRisk": 111}, {"groupId": "EG003", "numEvents": 1, "numAffected": 1, "numAtRisk": 112}]}, {"term": "Implantable defibrillator insertion", "organSystem": "Surgical and medical procedures", "stats": [{"groupId": "EG000", "numEvents": 0, "numAffected": 0, "numAtRisk": 118}, {"groupId": "EG001", "numEvents": 1, "numAffected": 1, "numAtRisk": 111}, {"groupId": "EG002", "numEvents": 0, "numAffected": 0, "numAtRisk": 111}, {"groupId": "EG003", "numEvents": 2, "numAffected": 2, "numAtRisk": 112}]}, {"term": "Percutaneous coronary intervention", "organSystem": "Surgical and medical procedures", "stats": [{"groupId": "EG000", "numEvents": 0, "numAffected": 0, "numAtRisk": 118}, {"groupId": "EG001", "numEvents": 1, "numAffected": 1, "numAtRisk": 111}, {"groupId": "EG002", "numEvents": 0, "numAffected": 0, "numAtRisk": 111}, {"groupId": "EG003", "numEvents": 0, "numAffected": 0, "numAtRisk": 112}]}, {"term": "Renal dialysis", "organSystem": "Surgical and medical procedures", "stats": [{"groupId": "EG000", "numEvents": 0, "numAffected": 0, "numAtRisk": 118}, {"groupId": "EG001", "numEvents": 0, "numAffected": 0, "numAtRisk": 111}, {"groupId": "EG002", "numEvents": 0, "numAffected": 0, "numAtRisk": 111}, {"groupId": "EG003", "numEvents": 1, "numAffected": 1, "numAtRisk": 112}]}, {"term": "Resuscitation", "organSystem": "Surgical and medical procedures", "stats": [{"groupId": "EG000", "numEvents": 0, "numAffected": 0, "numAtRisk": 118}, {"groupId": "EG001", "numEvents": 0, "numAffected": 0, "numAtRisk": 111}, {"groupId": "EG002", "numEvents": 0, "numAffected": 0, "numAtRisk": 111}, {"groupId": "EG003", "numEvents": 1, "numAffected": 1, "numAtRisk": 112}]}, {"term": "Sternotomy", "organSystem": "Surgical and medical procedures", "stats": [{"groupId": "EG000", "numEvents": 0, "numAffected": 0, "numAtRisk": 118}, {"groupId": "EG001", "numEvents": 1, "numAffected": 1, "numAtRisk": 111}, {"groupId": "EG002", "numEvents": 0, "numAffected": 0, "numAtRisk": 111}, {"groupId": "EG003", "numEvents": 0, "numAffected": 0, "numAtRisk": 112}]}, {"term": "Surgery", "organSystem": "Surgical and medical procedures", "stats": [{"groupId": "EG000", "numEvents": 0, "numAffected": 0, "numAtRisk": 118}, {"groupId": "EG001", "numEvents": 1, "numAffected": 1, "numAtRisk": 111}, {"groupId": "EG002", "numEvents": 0, "numAffected": 0, "numAtRisk": 111}, {"groupId": "EG003", "numEvents": 0, "numAffected": 0, "numAtRisk": 112}]}, {"term": "Aortic aneurysm", "organSystem": "Vascular disorders", "stats": [{"groupId": "EG000", "numEvents": 0, "numAffected": 0, "numAtRisk": 118}, {"groupId": "EG001", "numEvents": 0, "numAffected": 0, "numAtRisk": 111}, {"groupId": "EG002", "numEvents": 0, "numAffected": 0, "numAtRisk": 111}, {"groupId": "EG003", "numEvents": 1, "numAffected": 1, "numAtRisk": 112}]}, {"term": "Arterial rupture", "organSystem": "Vascular disorders", "stats": [{"groupId": "EG000", "numEvents": 1, "numAffected": 1, "numAtRisk": 118}, {"groupId": "EG001", "numEvents": 0, "numAffected": 0, "numAtRisk": 111}, {"groupId": "EG002", "numEvents": 0, "numAffected": 0, "numAtRisk": 111}, {"groupId": "EG003", "numEvents": 0, "numAffected": 0, "numAtRisk": 112}]}, {"term": "Arterial stenosis", "organSystem": "Vascular disorders", "stats": [{"groupId": "EG000", "numEvents": 0, "numAffected": 0, "numAtRisk": 118}, {"groupId": "EG001", "numEvents": 0, "numAffected": 0, "numAtRisk": 111}, {"groupId": "EG002", "numEvents": 1, "numAffected": 1, "numAtRisk": 111}, {"groupId": "EG003", "numEvents": 0, "numAffected": 0, "numAtRisk": 112}]}, {"term": "Deep vein thrombosis", "organSystem": "Vascular disorders", "stats": [{"groupId": "EG000", "numEvents": 0, "numAffected": 0, "numAtRisk": 118}, {"groupId": "EG001", "numEvents": 1, "numAffected": 1, "numAtRisk": 111}, {"groupId": "EG002", "numEvents": 0, "numAffected": 0, "numAtRisk": 111}, {"groupId": "EG003", "numEvents": 1, "numAffected": 1, "numAtRisk": 112}]}, {"term": "Hemorrhage", "organSystem": "Vascular disorders", "stats": [{"groupId": "EG000", "numEvents": 1, "numAffected": 1, "numAtRisk": 118}, {"groupId": "EG001", "numEvents": 0, "numAffected": 0, "numAtRisk": 111}, {"groupId": "EG002", "numEvents": 0, "numAffected": 0, "numAtRisk": 111}, {"groupId": "EG003", "numEvents": 0, "numAffected": 0, "numAtRisk": 112}]}, {"term": "Hypotension", "organSystem": "Vascular disorders", "stats": [{"groupId": "EG000", "numEvents": 1, "numAffected": 1, "numAtRisk": 118}, {"groupId": "EG001", "numEvents": 2, "numAffected": 2, "numAtRisk": 111}, {"groupId": "EG002", "numEvents": 2, "numAffected": 2, "numAtRisk": 111}, {"groupId": "EG003", "numEvents": 1, "numAffected": 1, "numAtRisk": 112}]}, {"term": "Peripheral ischemia", "organSystem": "Vascular disorders", "stats": [{"groupId": "EG000", "numEvents": 2, "numAffected": 1, "numAtRisk": 118}, {"groupId": "EG001", "numEvents": 0, "numAffected": 0, "numAtRisk": 111}, {"groupId": "EG002", "numEvents": 1, "numAffected": 1, "numAtRisk": 111}, {"groupId": "EG003", "numEvents": 1, "numAffected": 1, "numAtRisk": 112}]}, {"term": "Shock haemorrhagic", "organSystem": "Vascular disorders", "stats": [{"groupId": "EG000", "numEvents": 0, "numAffected": 0, "numAtRisk": 118}, {"groupId": "EG001", "numEvents": 1, "numAffected": 1, "numAtRisk": 111}, {"groupId": "EG002", "numEvents": 0, "numAffected": 0, "numAtRisk": 111}, {"groupId": "EG003", "numEvents": 0, "numAffected": 0, "numAtRisk": 112}]}]}, "moreInfoModule": {"certainAgreement": {"piSponsorEmployee": false, "restrictionType": "OTHER", "restrictiveAgreement": true, "otherDetails": "Any proposed manuscript or publication will be submitted to Sponsor and Lead PI for comment at least 60 days prior to release of that manuscript or publication. There will be no publicizing of any data or results without the Sponsor's prior written permission. The publishing party will make every reasonable attempt to incorporate comments received from the Sponsor during such 60-day period."}, "pointOfContact": {"title": "Leah Hollins, Director of Clinical Affairs", "organization": "Atrium Medical Corporation", "email": "lhollins@atriummed.com", "phone": "603-880-1433", "phoneExt": "5365"}}}, "derivedSection": {"miscInfoModule": {"versionHolder": "2024-07-01"}, "conditionBrowseModule": {"meshes": [{"id": "D000009203", "term": "Myocardial Infarction"}, {"id": "D000056988", "term": "Anterior Wall Myocardial Infarction"}, {"id": "D000007238", "term": "Infarction"}], "ancestors": [{"id": "D000007511", "term": "Ischemia"}, {"id": "D000010335", "term": "Pathologic Processes"}, {"id": "D000009336", "term": "Necrosis"}, {"id": "D000017202", "term": "Myocardial Ischemia"}, {"id": "D000006331", "term": "Heart Diseases"}, {"id": "D000002318", "term": "Cardiovascular Diseases"}, {"id": "D000014652", "term": "Vascular Diseases"}], "browseLeaves": [{"id": "M12155", "name": "Myocardial Infarction", "asFound": "Myocardial Infarction", "relevance": "HIGH"}, {"id": "M1072", "name": "ST Elevation Myocardial Infarction", "relevance": "LOW"}, {"id": "M28675", "name": "Anterior Wall Myocardial Infarction", "asFound": "Anterior Myocardial Infarction", "relevance": "HIGH"}, {"id": "M10282", "name": "Infarction", "asFound": "Infarction", "relevance": "HIGH"}, {"id": "M10543", "name": "Ischemia", "relevance": "LOW"}, {"id": "M12284", "name": "Necrosis", "relevance": "LOW"}, {"id": "M6546", "name": "Coronary Artery Disease", "relevance": "LOW"}, {"id": "M19506", "name": "Myocardial Ischemia", "relevance": "LOW"}, {"id": "M9419", "name": "Heart Diseases", "relevance": "LOW"}, {"id": "M17400", "name": "Vascular Diseases", "relevance": "LOW"}, {"id": "T170", "name": "Acute Graft Versus Host Disease", "relevance": "LOW"}], "browseBranches": [{"abbrev": "BC14", "name": "Heart and Blood Diseases"}, {"abbrev": "BC23", "name": "Symptoms and General Pathology"}, {"abbrev": "All", "name": "All Conditions"}, {"abbrev": "Rare", "name": "Rare Diseases"}]}, "interventionBrowseModule": {"meshes": [{"id": "D000077284", "term": "Abciximab"}], "ancestors": [{"id": "D000000925", "term": "Anticoagulants"}, {"id": "D000010975", "term": "Platelet Aggregation Inhibitors"}], "browseLeaves": [{"id": "M1738", "name": "Abciximab", "asFound": "Blood sugar", "relevance": "HIGH"}, {"id": "M4244", "name": "Anticoagulants", "relevance": "LOW"}, {"id": "M13865", "name": "Platelet Aggregation Inhibitors", "relevance": "LOW"}], "browseBranches": [{"abbrev": "AnCoag", "name": "Anticoagulants"}, {"abbrev": "PlAggInh", "name": "Platelet Aggregation Inhibitors"}, {"abbrev": "All", "name": "All Drugs and Chemicals"}]}}, "hasResults": true}