{"protocolSection": {"identificationModule": {"nctId": "NCT01281306", "orgStudyIdInfo": {"id": "CLCZ696A2223"}, "secondaryIdInfos": [{"id": "2010-022326-32"}], "organization": {"fullName": "Novartis", "class": "INDUSTRY"}, "briefTitle": "An 8-week Study to Evaluate the Dose Response of AHU377 in Combination With Valsartan 320 mg in Patients With Mild-to-moderate Systolic Hypertension", "officialTitle": "A Multi-center, Randomized, Double-blind, Placebo and Active Controlled, Parallel Group Study to Evaluate the Dose Response of AHU377 in Combination With Valsartan 320 mg After 8 Week Treatment in Patients With Mild-to-moderate Systolic Hypertension"}, "statusModule": {"statusVerifiedDate": "2015-12", "overallStatus": "COMPLETED", "expandedAccessInfo": {"hasExpandedAccess": false}, "startDateStruct": {"date": "2011-01"}, "primaryCompletionDateStruct": {"date": "2011-12", "type": "ACTUAL"}, "completionDateStruct": {"date": "2011-12", "type": "ACTUAL"}, "studyFirstSubmitDate": "2011-01-20", "studyFirstSubmitQcDate": "2011-01-20", "studyFirstPostDateStruct": {"date": "2011-01-21", "type": "ESTIMATED"}, "resultsFirstSubmitDate": "2015-07-21", "resultsFirstSubmitQcDate": "2015-07-21", "resultsFirstPostDateStruct": {"date": "2015-08-18", "type": "ESTIMATED"}, "dispFirstSubmitDate": "2013-01-02", "dispFirstSubmitQcDate": "2013-01-02", "dispFirstPostDateStruct": {"date": "2013-01-04", "type": "ESTIMATED"}, "lastUpdateSubmitDate": "2015-12-22", "lastUpdatePostDateStruct": {"date": "2016-01-29", "type": "ESTIMATED"}}, "sponsorCollaboratorsModule": {"responsibleParty": {"type": "SPONSOR"}, "leadSponsor": {"name": "Novartis Pharmaceuticals", "class": "INDUSTRY"}}, "descriptionModule": {"briefSummary": "The purpose of the study is to evaluate dose response of blood pressure lowering for 4 doses of AHU377, given once daily (50 mg, 100 mg, 200 mg and 400 mg) in combination with a fixed dose of valsartan (320 mg)."}, "conditionsModule": {"conditions": ["Systolic Hypertension"], "keywords": ["hypertension", "blood pressure", "LCZ696", "dual-acting", "neprilysin", "nep inhibitor", "vasopeptidase", "angiotensin receptor", "angiotensin receptor neprilysin inhibitor (ARNi)"]}, "designModule": {"studyType": "INTERVENTIONAL", "phases": ["PHASE2"], "designInfo": {"allocation": "RANDOMIZED", "interventionModel": "PARALLEL", "primaryPurpose": "TREATMENT", "maskingInfo": {"masking": "DOUBLE", "whoMasked": ["PARTICIPANT", "INVESTIGATOR"]}}, "enrollmentInfo": {"count": 910, "type": "ACTUAL"}}, "armsInterventionsModule": {"armGroups": [{"label": "VAL + AHU 400 mg", "type": "EXPERIMENTAL", "description": "Participants were started with AHU377 100 mg + valsartan 160 mg every day (qd) for 1 week, then were uptitrated to AHU377 200 mg + valsartan 320 mg qd for another week, and then were uptitrated to AHU377 400 mg + valsartan 320 mg for the remaining 6 weeks.", "interventionNames": ["Drug: Valsartan", "Drug: AHU377"]}, {"label": "VAL + AHU 200 mg", "type": "EXPERIMENTAL", "description": "Participants were started with AHU377 100 mg + valsartan 160 mg qd for 1 week and then were uptitrated to AHU377 200 mg + valsartan 320 mg qd for the remaining 7 weeks.", "interventionNames": ["Drug: Valsartan", "Drug: AHU377"]}, {"label": "VAL + AHU 100 mg", "type": "EXPERIMENTAL", "description": "Participants were started with AHU377 50 mg + valsartan 160 mg qd for 1 week and then were uptitrated to AHU377 100 mg + valsartan 320 mg for the remaining 7 weeks.", "interventionNames": ["Drug: Valsartan", "Drug: AHU377"]}, {"label": "VAL + AHU 50 mg", "type": "EXPERIMENTAL", "description": "Participants were started with AHU377 50 mg + valsartan 160 mg qd for 1 week and then were uptitrated to AHU377 50 mg + valartan 320 mg qd for the remaining 7 weeks.", "interventionNames": ["Drug: Valsartan", "Drug: AHU377"]}, {"label": "VAL 320 mg", "type": "EXPERIMENTAL", "description": "Participants were started with valsartan 160 mg qd for 1 week and then were uptitrated to valsartan 320 mg qd for the remaining 7 weeks.", "interventionNames": ["Drug: Valsartan"]}, {"label": "LCZ 400 mg", "type": "EXPERIMENTAL", "description": "Participants were started with LCZ696 200 mg qd for 1 week and then were uptitrated to LCZ696 400 mg qd for the remaining 7 weeks.", "interventionNames": ["Drug: LCZ696"]}, {"label": "Placebo", "type": "EXPERIMENTAL", "description": "Participants received matching placebo to LCZ696, AHU377 and valsartan for 8 weeks.", "interventionNames": ["Drug: Placebo"]}], "interventions": [{"type": "DRUG", "name": "LCZ696", "description": "LCZ696 was supplied as tablets in blister cards in 100 mg strengths.", "armGroupLabels": ["LCZ 400 mg"]}, {"type": "DRUG", "name": "Valsartan", "description": "Valsartan was supplied as tablets in blister cards in 160 mg and 320 mg strengths.", "armGroupLabels": ["VAL + AHU 100 mg", "VAL + AHU 200 mg", "VAL + AHU 400 mg", "VAL + AHU 50 mg", "VAL 320 mg"]}, {"type": "DRUG", "name": "AHU377", "description": "AHU377 was supplied in tablets in blister cards in 50 mg and 100 mg strengths.", "armGroupLabels": ["VAL + AHU 100 mg", "VAL + AHU 200 mg", "VAL + AHU 400 mg", "VAL + AHU 50 mg"]}, {"type": "DRUG", "name": "Placebo", "description": "Placebo was supplied as tablets in blister cards.", "armGroupLabels": ["Placebo"]}]}, "outcomesModule": {"primaryOutcomes": [{"measure": "Change From Baseline in Mean Sitting Systolic Blood Pressure (msSBP)", "description": "Sitting BP measurements were performed at trough (23-26 hours post-morning dose). A negative change from baseline indicates improvement.", "timeFrame": "Baseline, 8 weeks"}], "secondaryOutcomes": [{"measure": "Change From Baseline in Mean Diastolic Blood Pressure (msDBP)", "description": "Sitting BP measurements were performed at trough (23-26 hours post-morning dose). A negative change from baseline indicates improvement.", "timeFrame": "Baseline, 8 weeks"}, {"measure": "Change From Baseline in Mean 24 Hour Ambulatory SBP (maSBP) and Mean 24 Hour Ambulatory DBP (maDBP)", "description": "Twenty four hour ABPM was performed twice duirng the study at baseline and week 8. The second ABPM assessment was performed only in participants who had successfully completed the ABPM assessment at baseline. A negative change from baseline indicates improvement.", "timeFrame": "Baseline, 8 weeks"}, {"measure": "Change From Baseline in Daytime maSBP and maDBP", "description": "Twenty four hour ABPM was performed twice during the study at baseline and week 8. The second ABPM assessment was performed only in participants who had successfully completed the ABPM assessment at baseline. A negative change from baseline indicates improvement.", "timeFrame": "Baseline, 8 weeks"}, {"measure": "Change From Baseline in Nighttime maSBP and maDBP", "description": "Twenty four hour ABPM was performed twice duirng the study at baseline and week 8. The second ABPM assessment was performed only in participants who had successfully completed the ABPM assessment at baseline. A negative change from baseline indicates improvement.", "timeFrame": "Baseline and 8 weeks"}, {"measure": "Change From Baseline in Mean Sitting Pulse Pressure", "description": "Pulse rate measurements were performed. A negative change from baseline indicates improvement.", "timeFrame": "Baseline, 8 weeks"}, {"measure": "Change From Baseline in Mean Ambulatory Pulse Pressure", "description": "Pulse rate measurements were performed. A negative change from baseline indicates improvement.", "timeFrame": "Baseline, 8 weeks"}, {"measure": "Change From Baseline in maSBP and maDBP in Dippers", "description": "Twenty four hour ABPM was performed twice during the study at baseline and week 8. The second ABPM assessment was performed only in participants who had successfully completed the ABPM assessment at baseline. Dippers were defined as participants who showed a decrease of at least 10% in maSBP during the night (10pm-6am) compared with the daytime level. A negative change from baseline indicates improvement.", "timeFrame": "Baseline, 8 weeks"}, {"measure": "Change From Baseline in maSBP and maDBP in Non-dippers", "description": "Twenty four hour ABPM was performed twice duirng the study at baseline and week 8. The second ABPM assessment was performed only in participants who had successfully completed the ABPM assessment at baseline. Dippers were defined as participants who showed a decrease of at least 10% in maSBP during the night (10pm-6am) compared with the daytime level. A negative change from baseline indicates improvement.", "timeFrame": "Baseline, 8 weeks"}, {"measure": "Change From Baseline in msSBP and msDBP in Participants < 65 Years of Age", "description": "Sitting BP measurements were performed at trough (23-26 hours post-morning dose). A negative change from baseline indicates improvement.", "timeFrame": "Baseline, 8 weeks"}, {"measure": "Change From Baseline in msSBP and msDBP in Participants >= 65 Years of Age", "description": "Sitting BP measurements were performed at trough (23-26 hours post-morning dose). A negative change from baseline indicates improvement.", "timeFrame": "Baseline, 8 weeks"}, {"measure": "Change From Baseline in maSBP and maDBP in Participants < 65 Years of Age", "description": "Twenty four hour ABPM was performed twice duirng the study at baseline and week 8. The second ABPM assessment was performed only in participants who had successfully completed the ABPM assessment at baseline. A negative change from baseline indicates improvement.", "timeFrame": "Baseline, 8 weeks"}, {"measure": "Change From Baseline in maSBP and maDBP in Participants >= 65 Years of Age", "description": "Twenty four hour ABPM was performed twice duirng the study at baseline and week 8. The second ABPM assessment was performed only in participants who had successfully completed the ABPM assessment at baseline. A negative change from baseline indicates improvement.", "timeFrame": "Baseline, 8 weeks"}, {"measure": "Number of Participants Who Achieved Blood Pressure Control and Blood Pressure Response", "description": "Sitting BP measurements were performed at trough (23-26 hours post-morning dose). Blood pressure control was defined as msSBP/MSDBP \\< 140/90 mmHg. Blood pressure response in msSBP was defined as \\<140 mmHg or a reduction \\>= 20mmHg from baseline. Blood pressure response in msDBP was defined as \\< 90 mmHg or a reduction \\>= 10 mmHg from baseline.", "timeFrame": "8 weeks"}, {"measure": "Number of Participants With Adverse Events, Serious Adverse Events and Death", "description": "Adverse event monitoring was conducted throughout the study.", "timeFrame": "8 weeks"}]}, "eligibilityModule": {"eligibilityCriteria": "Inclusion Criteria:\n\n* Written informed consent must be obtained before any assessment is performed. Patients with mild-to-moderate systolic hypertension, untreated or currently taking antihypertensive therapy.\n* Ability to communicate and comply with all study requirements and demonstrate good medication compliance (\u2265 80% compliance rate) during the run-in period.\n\nExclusion Criteria:\n\n* Severe hypertension\n* History of angioedema, drug-related or otherwise, as reported by the patient.\n* Pregnant or nursing (lactating) women.\n* Women of child-bearing potential (WOCBP), UNLESS they are using adequate birth control methods.\n* History or evidence of a secondary form of hypertension.\n* Other protocol-defined inclusion/exclusion criteria may apply", "healthyVolunteers": false, "sex": "ALL", "minimumAge": "18 Years", "stdAges": ["ADULT", "OLDER_ADULT"]}, "contactsLocationsModule": {"overallOfficials": [{"name": "Novartis Pharmaceuticals", "affiliation": "Novartis Pharmaceuticals", "role": "STUDY_DIRECTOR"}], "locations": [{"facility": "Novartis Investigative Site", "city": "Clearwater", "state": "Florida", "zip": "33756", "country": "United States", "geoPoint": {"lat": 27.96585, "lon": -82.8001}}, {"facility": "Novartis Investigative Site", "city": "Chicago", "state": "Illinois", "zip": "60607", "country": "United States", "geoPoint": {"lat": 41.85003, "lon": -87.65005}}, {"facility": "Novartis Investigative Site", "city": "Chicago", "state": "Illinois", "zip": "60610", "country": "United States", "geoPoint": {"lat": 41.85003, "lon": -87.65005}}, {"facility": "Novartis Investigative Site", "city": "Metairie", "state": "Louisiana", "zip": "70006", "country": "United States", "geoPoint": {"lat": 29.98409, "lon": -90.15285}}, {"facility": "Novartis Investigative Site", "city": "Belzoni", "state": "Mississippi", "zip": "39038", "country": "United States", "geoPoint": {"lat": 33.18429, "lon": -90.48926}}, {"facility": "Novartis Investigative Site", "city": "Jackson", "state": "Mississippi", "zip": "39202", "country": "United States", "geoPoint": {"lat": 32.29876, "lon": -90.18481}}, {"facility": "Novartis Investigative Site", "city": "Jackson", "state": "Mississippi", "zip": "39209", "country": "United States", "geoPoint": {"lat": 32.29876, "lon": -90.18481}}, {"facility": "Novartis Investigative Site", "city": "St. Louis", "state": "Missouri", "zip": "63031", "country": "United States", "geoPoint": {"lat": 38.62727, "lon": -90.19789}}, {"facility": "Novartis Investigative Site", "city": "St. Louis", "state": "Missouri", "zip": "63141", "country": "United States", "geoPoint": {"lat": 38.62727, "lon": -90.19789}}, {"facility": "Novartis Investigative Site", "city": "Henderson", "state": "Nevada", "zip": "89014", "country": "United States", "geoPoint": {"lat": 36.0397, "lon": -114.98194}}, {"facility": "Novartis Investigative Site", "city": "Las Vegas", "state": "Nevada", "zip": "89119", "country": "United States", "geoPoint": {"lat": 36.17497, "lon": -115.13722}}, {"facility": "Novartis Investigative Site", "city": "Buffalo", "state": "New York", "zip": "14215", "country": "United States", "geoPoint": {"lat": 42.88645, "lon": -78.87837}}, {"facility": "Novartis Investigative Site", "city": "Charlotte", "state": "North Carolina", "zip": "28277", "country": "United States", "geoPoint": {"lat": 35.22709, "lon": -80.84313}}, {"facility": "Novartis Investigative Site", "city": "Greensboro", "state": "North Carolina", "zip": "27401", "country": "United States", "geoPoint": {"lat": 36.07264, "lon": -79.79198}}, {"facility": "Novartis Investigative Site", "city": "Greensboro", "state": "North Carolina", "zip": "27408", "country": "United States", "geoPoint": {"lat": 36.07264, "lon": -79.79198}}, {"facility": "Novartis Investigative Site", "city": "Shelby", "state": "North Carolina", "zip": "28152", "country": "United States", "geoPoint": {"lat": 35.29235, "lon": -81.53565}}, {"facility": "Novartis Investigative Site", "city": "Erie", "state": "Pennsylvania", "zip": "16509", "country": "United States", "geoPoint": {"lat": 42.12922, "lon": -80.08506}}, {"facility": "Novartis Investigative Site", "city": "Bryan", "state": "Texas", "zip": "77802", "country": "United States", "geoPoint": {"lat": 30.67436, "lon": -96.36996}}, {"facility": "Novartis Investigative Site", "city": "Houston", "state": "Texas", "zip": "77030", "country": "United States", "geoPoint": {"lat": 29.76328, "lon": -95.36327}}, {"facility": "Novartis Investigative Site", "city": "Caba", "state": "Buenos Aires", "zip": "C1440AAD", "country": "Argentina", "geoPoint": {"lat": -34.61315, "lon": -58.37723}}, {"facility": "Novartis Investigative Site", "city": "Lanus", "state": "Buenos Aires", "zip": "B8000XAV", "country": "Argentina", "geoPoint": {"lat": -34.70252, "lon": -58.3955}}, {"facility": "Novartis Investigative Site", "city": "Caba", "state": "Capital Federal", "zip": "C1179AAB", "country": "Argentina", "geoPoint": {"lat": -34.61315, "lon": -58.37723}}, {"facility": "Novartis Investigative Site", "city": "Rosario", "state": "Santa Fe", "zip": "S2000AII", "country": "Argentina", "geoPoint": {"lat": -32.94682, "lon": -60.63932}}, {"facility": "Novartis Investigative Site", "city": "Rosario", "state": "Santa Fe", "zip": "S200CXP", "country": "Argentina", "geoPoint": {"lat": -32.94682, "lon": -60.63932}}, {"facility": "Novartis Investigative Site", "city": "San Miguel de Tucuman", "state": "Tucuman", "zip": "T4000EBR", "country": "Argentina", "geoPoint": {"lat": -26.82414, "lon": -65.2226}}, {"facility": "Novartis Investigative Site", "city": "Buenos aires", "zip": "C1120AAC", "country": "Argentina", "geoPoint": {"lat": -34.61315, "lon": -58.37723}}, {"facility": "Novartis Investigative Site", "city": "Cordoba", "zip": "X5003DCP", "country": "Argentina", "geoPoint": {"lat": -31.4135, "lon": -64.18105}}, {"facility": "Novartis Investigative Site", "city": "Corrientes", "zip": "W3400", "country": "Argentina", "geoPoint": {"lat": -27.4806, "lon": -58.8341}}, {"facility": "Novartis Investigative Site", "city": "Mount Pearl", "state": "Newfoundland and Labrador", "zip": "A1N 1W7", "country": "Canada", "geoPoint": {"lat": 47.51659, "lon": -52.78135}}, {"facility": "Novartis Investigative Site", "city": "Mirabel", "state": "Quebec", "zip": "J7J 2K8", "country": "Canada", "geoPoint": {"lat": 45.65008, "lon": -74.08251}}, {"facility": "Novartis Investigative Site", "city": "Ste-Foy", "state": "Quebec", "zip": "G1V 4G2", "country": "Canada", "geoPoint": {"lat": 46.75615, "lon": -71.29543}}, {"facility": "Novartis Investigative Site", "city": "Budapest", "zip": "1045", "country": "Hungary", "geoPoint": {"lat": 47.49801, "lon": 19.03991}}, {"facility": "Novartis Investigative Site", "city": "Budapest", "zip": "1136", "country": "Hungary", "geoPoint": {"lat": 47.49801, "lon": 19.03991}}, {"facility": "Novartis Investigative Site", "city": "Csongrad", "zip": "6640", "country": "Hungary", "geoPoint": {"lat": 46.71332, "lon": 20.14241}}, {"facility": "Novartis Investigative Site", "city": "Erd", "zip": "H-2030", "country": "Hungary", "geoPoint": {"lat": 47.39489, "lon": 18.91361}}, {"facility": "Novartis Investigative Site", "city": "Miskolc", "zip": "3525", "country": "Hungary", "geoPoint": {"lat": 48.1, "lon": 20.78333}}, {"facility": "Novartis Investigative Site", "city": "Miskolc", "zip": "3530", "country": "Hungary", "geoPoint": {"lat": 48.1, "lon": 20.78333}}, {"facility": "Novartis Investigative Site", "city": "Nyiregyh\u00e1za", "zip": "4400", "country": "Hungary", "geoPoint": {"lat": 47.95539, "lon": 21.71671}}, {"facility": "Novartis Investigative Site", "city": "Szeged", "zip": "H-6720", "country": "Hungary", "geoPoint": {"lat": 46.253, "lon": 20.14824}}, {"facility": "Novartis Investigative Site", "city": "Torokbalint", "zip": "2045", "country": "Hungary", "geoPoint": {"lat": 47.42931, "lon": 18.91356}}, {"facility": "Novartis Investigative Site", "city": "Vishakhapatnam", "state": "Andhra Pradesh", "zip": "530002", "country": "India"}, {"facility": "Novartis Investigative Site", "city": "Ahmedabad", "state": "Gujarat", "zip": "380 051", "country": "India", "geoPoint": {"lat": 23.02579, "lon": 72.58727}}, {"facility": "Novartis Investigative Site", "city": "Nashik", "state": "Maharashtra", "zip": "422 005", "country": "India", "geoPoint": {"lat": 19.99727, "lon": 73.79096}}, {"facility": "Novartis Investigative Site", "city": "Nashik", "state": "Maharashtra", "zip": "422005", "country": "India", "geoPoint": {"lat": 19.99727, "lon": 73.79096}}, {"facility": "Novartis Investigative Site", "city": "Pune", "state": "Maharashtra", "zip": "411005", "country": "India", "geoPoint": {"lat": 18.51957, "lon": 73.85535}}, {"facility": "Novartis Investigative Site", "city": "Ludhiana", "state": "Punjab", "zip": "141002", "country": "India", "geoPoint": {"lat": 30.91204, "lon": 75.85379}}, {"facility": "Novartis Investigative Site", "city": "Jaipur", "state": "Rajasthan", "zip": "302016", "country": "India", "geoPoint": {"lat": 26.91962, "lon": 75.78781}}, {"facility": "Novartis Investigative Site", "city": "Lucknow", "state": "Uttar Pradesh", "zip": "226003", "country": "India", "geoPoint": {"lat": 26.83928, "lon": 80.92313}}, {"facility": "Novartis Investigative Site", "city": "Lucknow", "state": "Uttar Pradesh", "zip": "226005", "country": "India", "geoPoint": {"lat": 26.83928, "lon": 80.92313}}, {"facility": "Novartis Investigative Site", "city": "Bucheon", "state": "Gyeonggi-do", "zip": "424-717", "country": "Korea, Republic of", "geoPoint": {"lat": 37.49889, "lon": 126.78306}}, {"facility": "Novartis Investigative Site", "city": "Goyang", "state": "Gyeonggi-do", "zip": "411-706", "country": "Korea, Republic of", "geoPoint": {"lat": 37.65639, "lon": 126.835}}, {"facility": "Novartis Investigative Site", "city": "Uijeongbu-Si", "state": "Gyeonggi-do", "zip": "480-717", "country": "Korea, Republic of", "geoPoint": {"lat": 37.7415, "lon": 127.0474}}, {"facility": "Novartis Investigative Site", "city": "Seoul", "state": "Korea", "zip": "05505", "country": "Korea, Republic of", "geoPoint": {"lat": 37.566, "lon": 126.9784}}, {"facility": "Novartis Investigative Site", "city": "Seoul", "state": "Korea", "zip": "137-701", "country": "Korea, Republic of", "geoPoint": {"lat": 37.566, "lon": 126.9784}}, {"facility": "Novartis Investigative Site", "city": "Seoul", "state": "Korea", "zip": "152-703", "country": "Korea, Republic of", "geoPoint": {"lat": 37.566, "lon": 126.9784}}, {"facility": "Novartis Investigative Site", "city": "Koyang", "state": "Kyunggi", "zip": "410-719", "country": "Korea, Republic of"}, {"facility": "Novartis Investigative Site", "city": "Seoul", "zip": "140-743", "country": "Korea, Republic of", "geoPoint": {"lat": 37.566, "lon": 126.9784}}, {"facility": "Novartis Investigative Site", "city": "Seoul", "zip": "150-713", "country": "Korea, Republic of", "geoPoint": {"lat": 37.566, "lon": 126.9784}}, {"facility": "Novartis Investigative Site", "city": "Seoul", "zip": "150-950", "country": "Korea, Republic of", "geoPoint": {"lat": 37.566, "lon": 126.9784}}, {"facility": "Novartis Investigative Site", "city": "Bucharest", "state": "District 1", "zip": "011422", "country": "Romania", "geoPoint": {"lat": 44.43225, "lon": 26.10626}}, {"facility": "Novartis Investigative Site", "city": "Bucharest", "state": "District 1", "zip": "012064", "country": "Romania", "geoPoint": {"lat": 44.43225, "lon": 26.10626}}, {"facility": "Novartis Investigative Site", "city": "Bucharest", "state": "District 1", "country": "Romania", "geoPoint": {"lat": 44.43225, "lon": 26.10626}}, {"facility": "Novartis Investigative Site", "city": "Bucharest", "state": "District 2", "zip": "021705", "country": "Romania", "geoPoint": {"lat": 44.43225, "lon": 26.10626}}, {"facility": "Novartis Investigative Site", "city": "Oradea", "state": "Jud. Bihor", "zip": "410032", "country": "Romania", "geoPoint": {"lat": 47.0458, "lon": 21.91833}}, {"facility": "Novartis Investigative Site", "city": "Craiova", "state": "Jud. Dolj", "zip": "200147", "country": "Romania", "geoPoint": {"lat": 44.31667, "lon": 23.8}}, {"facility": "Novartis Investigative Site", "city": "Bucharest", "zip": "060011", "country": "Romania", "geoPoint": {"lat": 44.43225, "lon": 26.10626}}, {"facility": "Novartis Investigative Site", "city": "Nitra", "state": "Slovak Republic", "zip": "949 01", "country": "Slovakia", "geoPoint": {"lat": 48.30763, "lon": 18.08453}}, {"facility": "Novartis Investigative Site", "city": "Presov", "state": "Slovak Republic", "zip": "08001", "country": "Slovakia", "geoPoint": {"lat": 48.99839, "lon": 21.23393}}, {"facility": "Novartis Investigative Site", "city": "Bratislava", "zip": "831 06", "country": "Slovakia", "geoPoint": {"lat": 48.14816, "lon": 17.10674}}, {"facility": "Novartis Investigative Site", "city": "Liptovsky Mikulas", "zip": "031 01", "country": "Slovakia", "geoPoint": {"lat": 49.08061, "lon": 19.62218}}, {"facility": "Novartis Investigative Site", "city": "Nitra", "zip": "949 01", "country": "Slovakia", "geoPoint": {"lat": 48.30763, "lon": 18.08453}}, {"facility": "Novartis Investigative Site", "city": "Nitra", "zip": "94901", "country": "Slovakia", "geoPoint": {"lat": 48.30763, "lon": 18.08453}}, {"facility": "Novartis Investigative Site", "city": "Nove Zamky", "zip": "940 01", "country": "Slovakia", "geoPoint": {"lat": 47.98544, "lon": 18.16195}}, {"facility": "Novartis Investigative Site", "city": "Partizanske", "zip": "958 01", "country": "Slovakia", "geoPoint": {"lat": 48.62861, "lon": 18.38455}}, {"facility": "Novartis Investigative Site", "city": "Presov", "zip": "080 01", "country": "Slovakia", "geoPoint": {"lat": 48.99839, "lon": 21.23393}}, {"facility": "Novartis Investigative Site", "city": "Presov", "zip": "081 01", "country": "Slovakia", "geoPoint": {"lat": 48.99839, "lon": 21.23393}}, {"facility": "Novartis Investigative Site", "city": "Ruzomberok", "zip": "034 26", "country": "Slovakia", "geoPoint": {"lat": 49.0748, "lon": 19.30751}}, {"facility": "Novartis Investigative Site", "city": "Sala", "zip": "927 03", "country": "Slovakia", "geoPoint": {"lat": 48.15127, "lon": 17.88062}}, {"facility": "Novartis Investigative Site", "city": "Sered", "zip": "926 00", "country": "Slovakia", "geoPoint": {"lat": 48.29117, "lon": 17.73331}}, {"facility": "Novartis Investigative Site", "city": "Zvolen", "zip": "960 01", "country": "Slovakia", "geoPoint": {"lat": 48.57442, "lon": 19.15324}}, {"facility": "Novartis Investigative Site", "city": "Granada", "state": "Andalucia", "zip": "18012", "country": "Spain", "geoPoint": {"lat": 37.18817, "lon": -3.60667}}, {"facility": "Novartis Investigative Site", "city": "Sevilla", "state": "Andalucia", "zip": "41009", "country": "Spain", "geoPoint": {"lat": 37.38283, "lon": -5.97317}}, {"facility": "Novartis Investigative Site", "city": "Badalona", "state": "Catalu\u00f1a", "zip": "08914", "country": "Spain", "geoPoint": {"lat": 41.45004, "lon": 2.24741}}, {"facility": "Novartis Investigative Site", "city": "Centelles", "state": "Catalu\u00f1a", "zip": "08540", "country": "Spain", "geoPoint": {"lat": 41.79746, "lon": 2.21902}}, {"facility": "Novartis Investigative Site", "city": "Tarragona", "state": "Catalu\u00f1a", "zip": "43350", "country": "Spain", "geoPoint": {"lat": 41.11667, "lon": 1.25}}, {"facility": "Novartis Investigative Site", "city": "Alicante", "state": "Comunidad Valenciana", "zip": "03004", "country": "Spain", "geoPoint": {"lat": 38.34517, "lon": -0.48149}}, {"facility": "Novartis Investigative Site", "city": "Alzira", "state": "Comunidad Valenciana", "zip": "46600", "country": "Spain", "geoPoint": {"lat": 39.15, "lon": -0.43333}}, {"facility": "Novartis Investigative Site", "city": "Santiago de Compostela", "state": "Galicia", "zip": "15706", "country": "Spain", "geoPoint": {"lat": 42.88052, "lon": -8.54569}}, {"facility": "Novartis Investigative Site", "city": "Barcelona", "country": "Spain", "geoPoint": {"lat": 41.38879, "lon": 2.15899}}, {"facility": "Novartis Investigative Site", "city": "Madrid", "zip": "28046", "country": "Spain", "geoPoint": {"lat": 40.4165, "lon": -3.70256}}]}}, "resultsSection": {"participantFlowModule": {"preAssignmentDetails": "In the double blind period, participants were randomized in a 2:2:2:2:2:2:1 ratio to AHU377 400 mg + valsartan 320 mg, AHU377 200 mg + valsartan 320 mg, AHU377 100 mg + valsartan 320 mg, AHU377 50 mg + valsartan 320 mg,valsartan 320 mg, LCZ696 400 mg and placebo, respectively.", "recruitmentDetails": "This study consisted of a single-blind run-in period and a double-blind (DB) period. During the 3 to 4 week run-in, participants were assessed for randomization eligibility into the DB period. 910 participants randomized. 3 participants were mis-randomized and did not receive study treatment. Therefore, the participant flow shows 907 participants.", "groups": [{"id": "FG000", "title": "VAL + AHU 400 mg", "description": "Participants were started with AHU377 100 mg + valsartan 160 mg every day (qd) for 1 week, then were uptitrated to AHU377 200 mg + valsartan 320 mg qd for another week, and then were uptitrated to AHU377 400 mg + valsartan 320 mg for the remaining 6 weeks."}, {"id": "FG001", "title": "VAL + AHU 200 mg", "description": "Participants were started with AHU377 100 mg + valsartan 160 mg qd for 1 week and then were uptitrated to AHU377 200 mg + valsartan 320 mg qd for the remaining 7 weeks."}, {"id": "FG002", "title": "VAL + AHU 100 mg", "description": "Participants were started with AHU377 50 mg + valsartan 160 mg qd for 1 week and then were uptitrated to AHU377 100 mg + valsartan 320 mg for the remaining 7 weeks."}, {"id": "FG003", "title": "VAL + AHU 50 mg", "description": "Participants were started with AHU377 50 mg + valsartan 160 mg qd for 1 week and then were uptitrated to AHU377 50 mg + valartan 320 mg qd for the remaining 7 weeks."}, {"id": "FG004", "title": "VAL 320 mg", "description": "Participants were started with valsartan 160 mg qd for 1 week and then were uptitrated to valsartan 320 mg qd for the remaining 7 weeks."}, {"id": "FG005", "title": "LCZ 400 mg", "description": "Participants were started with LCZ696 200 mg qd for 1 week and then were uptitrated to LCZ696 400 mg qd for the remaining 7 weeks."}, {"id": "FG006", "title": "Placebo", "description": "Participants received matching placebo to LCZ696, AHU377 and valsartan for 8 weeks."}], "periods": [{"title": "Overall Study", "milestones": [{"type": "STARTED", "achievements": [{"groupId": "FG000", "numSubjects": "144"}, {"groupId": "FG001", "numSubjects": "145"}, {"groupId": "FG002", "numSubjects": "141"}, {"groupId": "FG003", "numSubjects": "134"}, {"groupId": "FG004", "numSubjects": "143"}, {"groupId": "FG005", "numSubjects": "142"}, {"groupId": "FG006", "numSubjects": "58"}]}, {"type": "Full Analysis Set", "achievements": [{"groupId": "FG000", "numSubjects": "143"}, {"groupId": "FG001", "numSubjects": "145"}, {"groupId": "FG002", "numSubjects": "141"}, {"groupId": "FG003", "numSubjects": "133"}, {"groupId": "FG004", "numSubjects": "143"}, {"groupId": "FG005", "numSubjects": "142"}, {"groupId": "FG006", "numSubjects": "58"}]}, {"type": "Safety Set", "achievements": [{"groupId": "FG000", "numSubjects": "143"}, {"groupId": "FG001", "numSubjects": "145"}, {"groupId": "FG002", "numSubjects": "141"}, {"groupId": "FG003", "numSubjects": "133"}, {"groupId": "FG004", "numSubjects": "143"}, {"groupId": "FG005", "numSubjects": "142"}, {"groupId": "FG006", "numSubjects": "58"}]}, {"type": "Ambulatory Blood Pressure Monitoring Set", "achievements": [{"groupId": "FG000", "numSubjects": "95"}, {"groupId": "FG001", "numSubjects": "99"}, {"groupId": "FG002", "numSubjects": "92"}, {"groupId": "FG003", "numSubjects": "95"}, {"groupId": "FG004", "numSubjects": "93"}, {"groupId": "FG005", "numSubjects": "91"}, {"groupId": "FG006", "numSubjects": "35"}]}, {"type": "COMPLETED", "achievements": [{"groupId": "FG000", "numSubjects": "136"}, {"groupId": "FG001", "numSubjects": "141"}, {"groupId": "FG002", "numSubjects": "133"}, {"groupId": "FG003", "numSubjects": "123"}, {"groupId": "FG004", "numSubjects": "134"}, {"groupId": "FG005", "numSubjects": "135"}, {"groupId": "FG006", "numSubjects": "51"}]}, {"type": "NOT COMPLETED", "achievements": [{"groupId": "FG000", "numSubjects": "8"}, {"groupId": "FG001", "numSubjects": "4"}, {"groupId": "FG002", "numSubjects": "8"}, {"groupId": "FG003", "numSubjects": "11"}, {"groupId": "FG004", "numSubjects": "9"}, {"groupId": "FG005", "numSubjects": "7"}, {"groupId": "FG006", "numSubjects": "7"}]}], "dropWithdraws": [{"type": "Lack of Efficacy", "reasons": [{"groupId": "FG000", "numSubjects": "0"}, {"groupId": "FG001", "numSubjects": "1"}, {"groupId": "FG002", "numSubjects": "3"}, {"groupId": "FG003", "numSubjects": "0"}, {"groupId": "FG004", "numSubjects": "2"}, {"groupId": "FG005", "numSubjects": "0"}, {"groupId": "FG006", "numSubjects": "1"}]}, {"type": "Withdrawal by Subject", "reasons": [{"groupId": "FG000", "numSubjects": "1"}, {"groupId": "FG001", "numSubjects": "0"}, {"groupId": "FG002", "numSubjects": "2"}, {"groupId": "FG003", "numSubjects": "4"}, {"groupId": "FG004", "numSubjects": "1"}, {"groupId": "FG005", "numSubjects": "3"}, {"groupId": "FG006", "numSubjects": "1"}]}, {"type": "Protocol deviation", "reasons": [{"groupId": "FG000", "numSubjects": "0"}, {"groupId": "FG001", "numSubjects": "1"}, {"groupId": "FG002", "numSubjects": "1"}, {"groupId": "FG003", "numSubjects": "1"}, {"groupId": "FG004", "numSubjects": "1"}, {"groupId": "FG005", "numSubjects": "0"}, {"groupId": "FG006", "numSubjects": "0"}]}, {"type": "Condition no longer requires study drug", "reasons": [{"groupId": "FG000", "numSubjects": "1"}, {"groupId": "FG001", "numSubjects": "0"}, {"groupId": "FG002", "numSubjects": "0"}, {"groupId": "FG003", "numSubjects": "0"}, {"groupId": "FG004", "numSubjects": "0"}, {"groupId": "FG005", "numSubjects": "1"}, {"groupId": "FG006", "numSubjects": "1"}]}, {"type": "Lost to Follow-up", "reasons": [{"groupId": "FG000", "numSubjects": "1"}, {"groupId": "FG001", "numSubjects": "0"}, {"groupId": "FG002", "numSubjects": "0"}, {"groupId": "FG003", "numSubjects": "2"}, {"groupId": "FG004", "numSubjects": "0"}, {"groupId": "FG005", "numSubjects": "0"}, {"groupId": "FG006", "numSubjects": "1"}]}, {"type": "Death", "reasons": [{"groupId": "FG000", "numSubjects": "1"}, {"groupId": "FG001", "numSubjects": "0"}, {"groupId": "FG002", "numSubjects": "0"}, {"groupId": "FG003", "numSubjects": "0"}, {"groupId": "FG004", "numSubjects": "0"}, {"groupId": "FG005", "numSubjects": "0"}, {"groupId": "FG006", "numSubjects": "0"}]}, {"type": "Adverse Event", "reasons": [{"groupId": "FG000", "numSubjects": "3"}, {"groupId": "FG001", "numSubjects": "2"}, {"groupId": "FG002", "numSubjects": "2"}, {"groupId": "FG003", "numSubjects": "3"}, {"groupId": "FG004", "numSubjects": "5"}, {"groupId": "FG005", "numSubjects": "3"}, {"groupId": "FG006", "numSubjects": "3"}]}, {"type": "Randomized in error", "reasons": [{"groupId": "FG000", "numSubjects": "1"}, {"groupId": "FG001", "numSubjects": "0"}, {"groupId": "FG002", "numSubjects": "0"}, {"groupId": "FG003", "numSubjects": "1"}, {"groupId": "FG004", "numSubjects": "0"}, {"groupId": "FG005", "numSubjects": "0"}, {"groupId": "FG006", "numSubjects": "0"}]}]}]}, "baselineCharacteristicsModule": {"groups": [{"id": "BG000", "title": "VAL + AHU 400 mg", "description": "Participants were started with AHU377 100 mg + valsartan 160 mg every day (qd) for 1 week, then were uptitrated to AHU377 200 mg + valsartan 320 mg qd for another week, and then were uptitrated to AHU377 400 mg + valsartan 320 mg for the remaining 6 weeks."}, {"id": "BG001", "title": "VAL + AHU 200 mg", "description": "Participants were started with AHU377 100 mg + valsartan 160 mg qd for 1 week and then were uptitrated to AHU377 200 mg + valsartan 320 mg qd for the remaining 7 weeks."}, {"id": "BG002", "title": "VAL + AHU 100 mg", "description": "Participants were started with AHU377 50 mg + valsartan 160 mg qd for 1 week and then were uptitrated to AHU377 100 mg + valsartan 320 mg for the remaining 7 weeks."}, {"id": "BG003", "title": "VAL + AHU 50 mg", "description": "Participants were started with AHU377 50 mg + valsartan 160 mg qd for 1 week and then were uptitrated to AHU377 50 mg + valartan 320 mg qd for the remaining 7 weeks."}, {"id": "BG004", "title": "VAL 320 mg", "description": "Participants were started with valsartan 160 mg qd for 1 week and then were uptitrated to valsartan 320 mg qd for the remaining 7 weeks."}, {"id": "BG005", "title": "LCZ 400 mg", "description": "Participants were started with LCZ696 200 mg qd for 1 week and then were uptitrated to LCZ696 400 mg qd for the remaining 7 weeks."}, {"id": "BG006", "title": "Placebo", "description": "Participants received matching placebo to LCZ696, AHU377 and valsartan for 8 weeks."}, {"id": "BG007", "title": "Total", "description": "Total of all reporting groups"}], "denoms": [{"units": "Participants", "counts": [{"groupId": "BG000", "value": "144"}, {"groupId": "BG001", "value": "145"}, {"groupId": "BG002", "value": "141"}, {"groupId": "BG003", "value": "134"}, {"groupId": "BG004", "value": "143"}, {"groupId": "BG005", "value": "142"}, {"groupId": "BG006", "value": "58"}, {"groupId": "BG007", "value": "907"}]}], "measures": [{"title": "Age, Continuous", "paramType": "MEAN", "dispersionType": "STANDARD_DEVIATION", "unitOfMeasure": "Years", "classes": [{"categories": [{"measurements": [{"groupId": "BG000", "value": "61.7", "spread": "11.36"}, {"groupId": "BG001", "value": "61.7", "spread": "11.44"}, {"groupId": "BG002", "value": "61.0", "spread": "11.03"}, {"groupId": "BG003", "value": "62.0", "spread": "10.73"}, {"groupId": "BG004", "value": "62.0", "spread": "11.45"}, {"groupId": "BG005", "value": "61.2", "spread": "10.60"}, {"groupId": "BG006", "value": "60.8", "spread": "11.81"}, {"groupId": "BG007", "value": "61.5", "spread": "11.13"}]}]}]}, {"title": "Sex: Female, Male", "paramType": "COUNT_OF_PARTICIPANTS", "unitOfMeasure": "Participants", "classes": [{"categories": [{"title": "Female", "measurements": [{"groupId": "BG000", "value": "78"}, {"groupId": "BG001", "value": "60"}, {"groupId": "BG002", "value": "53"}, {"groupId": "BG003", "value": "61"}, {"groupId": "BG004", "value": "60"}, {"groupId": "BG005", "value": "71"}, {"groupId": "BG006", "value": "29"}, {"groupId": "BG007", "value": "412"}]}, {"title": "Male", "measurements": [{"groupId": "BG000", "value": "66"}, {"groupId": "BG001", "value": "85"}, {"groupId": "BG002", "value": "88"}, {"groupId": "BG003", "value": "73"}, {"groupId": "BG004", "value": "83"}, {"groupId": "BG005", "value": "71"}, {"groupId": "BG006", "value": "29"}, {"groupId": "BG007", "value": "495"}]}]}]}]}, "outcomeMeasuresModule": {"outcomeMeasures": [{"type": "PRIMARY", "title": "Change From Baseline in Mean Sitting Systolic Blood Pressure (msSBP)", "description": "Sitting BP measurements were performed at trough (23-26 hours post-morning dose). A negative change from baseline indicates improvement.", "populationDescription": "Only participants of the full analysuis set (FAS), who had measurements at both baseline and week 8, were included in the analysis. The FAS included all randomized participants who received at least one dose of double-blind study medication.", "reportingStatus": "POSTED", "paramType": "LEAST_SQUARES_MEAN", "dispersionType": "Standard Error", "unitOfMeasure": "mmHg", "timeFrame": "Baseline, 8 weeks", "groups": [{"id": "OG000", "title": "VAL + AHU 400 mg", "description": "Participants were started with AHU377 100 mg + valsartan 160 mg every day (qd) for 1 week, then were uptitrated to AHU377 200 mg + valsartan 320 mg qd for another week, and then were uptitrated to AHU377 400 mg + valsartan 320 mg for the remaining 6 weeks."}, {"id": "OG001", "title": "VAL + AHU 200 mg", "description": "Participants were started with AHU377 100 mg + valsartan 160 mg qd for 1 week and then were uptitrated to AHU377 200 mg + valsartan 320 mg qd for the remaining 7 weeks."}, {"id": "OG002", "title": "VAL + AHU 100 mg", "description": "Participants were started with AHU377 50 mg + valsartan 160 mg qd for 1 week and then were uptitrated to AHU377 100 mg + valsartan 320 mg for the remaining 7 weeks."}, {"id": "OG003", "title": "VAL + AHU 50 mg", "description": "Participants were started with AHU377 50 mg + valsartan 160 mg qd for 1 week and then were uptitrated to AHU377 50 mg + valartan 320 mg qd for the remaining 7 weeks."}, {"id": "OG004", "title": "VAL 320 mg", "description": "Participants were started with valsartan 160 mg qd for 1 week and then were uptitrated to valsartan 320 mg qd for the remaining 7 weeks."}, {"id": "OG005", "title": "LCZ 400 mg", "description": "Participants were started with LCZ696 200 mg qd for 1 week and then were uptitrated to LCZ696 400 mg qd for the remaining 7 weeks."}, {"id": "OG006", "title": "Placebo", "description": "Participants received matching placebo to LCZ696, AHU377 and valsartan for 8 weeks."}], "denoms": [{"units": "Participants", "counts": [{"groupId": "OG000", "value": "143"}, {"groupId": "OG001", "value": "144"}, {"groupId": "OG002", "value": "141"}, {"groupId": "OG003", "value": "132"}, {"groupId": "OG004", "value": "143"}, {"groupId": "OG005", "value": "142"}, {"groupId": "OG006", "value": "57"}]}], "classes": [{"categories": [{"measurements": [{"groupId": "OG000", "value": "-20.89", "spread": "1.22"}, {"groupId": "OG001", "value": "-23.55", "spread": "1.21"}, {"groupId": "OG002", "value": "-21.26", "spread": "1.23"}, {"groupId": "OG003", "value": "-19.31", "spread": "1.27"}, {"groupId": "OG004", "value": "-16.13", "spread": "1.22"}, {"groupId": "OG005", "value": "-21.78", "spread": "1.22"}, {"groupId": "OG006", "value": "-6.99", "spread": "1.92"}]}]}]}, {"type": "SECONDARY", "title": "Change From Baseline in Mean Diastolic Blood Pressure (msDBP)", "description": "Sitting BP measurements were performed at trough (23-26 hours post-morning dose). A negative change from baseline indicates improvement.", "populationDescription": "Only participants of the full analysuis set (FAS), who had measurements at both baseline and week 8, were included in the analysis. The FAS included all randomized participants who received at least one dose of double-blind study medication.", "reportingStatus": "POSTED", "paramType": "LEAST_SQUARES_MEAN", "dispersionType": "Standard Error", "unitOfMeasure": "mmHg", "timeFrame": "Baseline, 8 weeks", "groups": [{"id": "OG000", "title": "VAL + AHU 400 mg", "description": "Participants were started with AHU377 100 mg + valsartan 160 mg every day (qd) for 1 week, then were uptitrated to AHU377 200 mg + valsartan 320 mg qd for another week, and then were uptitrated to AHU377 400 mg + valsartan 320 mg for the remaining 6 weeks."}, {"id": "OG001", "title": "VAL + AHU 200 mg", "description": "Participants were started with AHU377 100 mg + valsartan 160 mg qd for 1 week and then were uptitrated to AHU377 200 mg + valsartan 320 mg qd for the remaining 7 weeks."}, {"id": "OG002", "title": "VAL + AHU 100 mg", "description": "Participants were started with AHU377 50 mg + valsartan 160 mg qd for 1 week and then were uptitrated to AHU377 100 mg + valsartan 320 mg for the remaining 7 weeks."}, {"id": "OG003", "title": "VAL + AHU 50 mg", "description": "Participants were started with AHU377 50 mg + valsartan 160 mg qd for 1 week and then were uptitrated to AHU377 50 mg + valartan 320 mg qd for the remaining 7 weeks."}, {"id": "OG004", "title": "VAL 320 mg", "description": "Participants were started with valsartan 160 mg qd for 1 week and then were uptitrated to valsartan 320 mg qd for the remaining 7 weeks."}, {"id": "OG005", "title": "LCZ 400 mg", "description": "Participants were started with LCZ696 200 mg qd for 1 week and then were uptitrated to LCZ696 400 mg qd for the remaining 7 weeks."}, {"id": "OG006", "title": "Placebo", "description": "Participants received matching placebo to LCZ696, AHU377 and valsartan for 8 weeks."}], "denoms": [{"units": "Participants", "counts": [{"groupId": "OG000", "value": "143"}, {"groupId": "OG001", "value": "144"}, {"groupId": "OG002", "value": "141"}, {"groupId": "OG003", "value": "132"}, {"groupId": "OG004", "value": "143"}, {"groupId": "OG005", "value": "142"}, {"groupId": "OG006", "value": "57"}]}], "classes": [{"categories": [{"measurements": [{"groupId": "OG000", "value": "-8.47", "spread": "0.76"}, {"groupId": "OG001", "value": "-9.76", "spread": "0.75"}, {"groupId": "OG002", "value": "-8.04", "spread": "0.76"}, {"groupId": "OG003", "value": "-7.15", "spread": "0.79"}, {"groupId": "OG004", "value": "-7.28", "spread": "0.76"}, {"groupId": "OG005", "value": "-9.61", "spread": "0.75"}, {"groupId": "OG006", "value": "-3.38", "spread": "1.19"}]}]}]}, {"type": "SECONDARY", "title": "Change From Baseline in Mean 24 Hour Ambulatory SBP (maSBP) and Mean 24 Hour Ambulatory DBP (maDBP)", "description": "Twenty four hour ABPM was performed twice duirng the study at baseline and week 8. The second ABPM assessment was performed only in participants who had successfully completed the ABPM assessment at baseline. A negative change from baseline indicates improvement.", "populationDescription": "A subset of randomized participants, who had ABPM measurements at both baseline and week 8, were included in the analysis.", "reportingStatus": "POSTED", "paramType": "LEAST_SQUARES_MEAN", "dispersionType": "Standard Error", "unitOfMeasure": "mmHg", "timeFrame": "Baseline, 8 weeks", "groups": [{"id": "OG000", "title": "VAL + AHU 400 mg", "description": "Participants were started with AHU377 100 mg + valsartan 160 mg every day (qd) for 1 week, then were uptitrated to AHU377 200 mg + valsartan 320 mg qd for another week, and then were uptitrated to AHU377 400 mg + valsartan 320 mg for the remaining 6 weeks."}, {"id": "OG001", "title": "VAL + AHU 200 mg", "description": "Participants were started with AHU377 100 mg + valsartan 160 mg qd for 1 week and then were uptitrated to AHU377 200 mg + valsartan 320 mg qd for the remaining 7 weeks."}, {"id": "OG002", "title": "VAL + AHU 100 mg", "description": "Participants were started with AHU377 50 mg + valsartan 160 mg qd for 1 week and then were uptitrated to AHU377 100 mg + valsartan 320 mg for the remaining 7 weeks."}, {"id": "OG003", "title": "VAL + AHU 50 mg", "description": "Participants were started with AHU377 50 mg + valsartan 160 mg qd for 1 week and then were uptitrated to AHU377 50 mg + valartan 320 mg qd for the remaining 7 weeks."}, {"id": "OG004", "title": "VAL 320 mg", "description": "Participants were started with valsartan 160 mg qd for 1 week and then were uptitrated to valsartan 320 mg qd for the remaining 7 weeks."}, {"id": "OG005", "title": "LCZ 400 mg", "description": "Participants were started with LCZ696 200 mg qd for 1 week and then were uptitrated to LCZ696 400 mg qd for the remaining 7 weeks."}, {"id": "OG006", "title": "Placebo", "description": "Participants received matching placebo to LCZ696, AHU377 and valsartan for 8 weeks."}], "denoms": [{"units": "Participants", "counts": [{"groupId": "OG000", "value": "94"}, {"groupId": "OG001", "value": "98"}, {"groupId": "OG002", "value": "92"}, {"groupId": "OG003", "value": "95"}, {"groupId": "OG004", "value": "93"}, {"groupId": "OG005", "value": "90"}, {"groupId": "OG006", "value": "35"}]}], "classes": [{"title": "maSBP", "categories": [{"measurements": [{"groupId": "OG000", "value": "-12.14", "spread": "0.71"}, {"groupId": "OG001", "value": "-15.66", "spread": "0.69"}, {"groupId": "OG002", "value": "-14.33", "spread": "0.72"}, {"groupId": "OG003", "value": "-11.36", "spread": "0.70"}, {"groupId": "OG004", "value": "-9.59", "spread": "0.71"}, {"groupId": "OG005", "value": "-12.98", "spread": "0.71"}, {"groupId": "OG006", "value": "-2.12", "spread": "1.15"}]}]}, {"title": "maDBP", "categories": [{"measurements": [{"groupId": "OG000", "value": "-5.81", "spread": "0.44"}, {"groupId": "OG001", "value": "-7.03", "spread": "0.42"}, {"groupId": "OG002", "value": "-6.46", "spread": "0.44"}, {"groupId": "OG003", "value": "-5.36", "spread": "0.43"}, {"groupId": "OG004", "value": "-5.23", "spread": "0.44"}, {"groupId": "OG005", "value": "-6.20", "spread": "0.44"}, {"groupId": "OG006", "value": "-0.79", "spread": "0.71"}]}]}]}, {"type": "SECONDARY", "title": "Change From Baseline in Daytime maSBP and maDBP", "description": "Twenty four hour ABPM was performed twice during the study at baseline and week 8. The second ABPM assessment was performed only in participants who had successfully completed the ABPM assessment at baseline. A negative change from baseline indicates improvement.", "populationDescription": "A subset of randomized participants, who had ABPM measurements at both baseline and week 8, were included in the analysis.", "reportingStatus": "POSTED", "paramType": "LEAST_SQUARES_MEAN", "dispersionType": "Standard Error", "unitOfMeasure": "mmHg", "timeFrame": "Baseline, 8 weeks", "groups": [{"id": "OG000", "title": "VAL + AHU 400 mg", "description": "Participants were started with AHU377 100 mg + valsartan 160 mg every day (qd) for 1 week, then were uptitrated to AHU377 200 mg + valsartan 320 mg qd for another week, and then were uptitrated to AHU377 400 mg + valsartan 320 mg for the remaining 6 weeks."}, {"id": "OG001", "title": "VAL + AHU 200 mg", "description": "Participants were started with AHU377 100 mg + valsartan 160 mg qd for 1 week and then were uptitrated to AHU377 200 mg + valsartan 320 mg qd for the remaining 7 weeks."}, {"id": "OG002", "title": "VAL + AHU 100 mg", "description": "Participants were started with AHU377 50 mg + valsartan 160 mg qd for 1 week and then were uptitrated to AHU377 100 mg + valsartan 320 mg for the remaining 7 weeks."}, {"id": "OG003", "title": "VAL + AHU 50 mg", "description": "Participants were started with AHU377 50 mg + valsartan 160 mg qd for 1 week and then were uptitrated to AHU377 50 mg + valartan 320 mg qd for the remaining 7 weeks."}, {"id": "OG004", "title": "VAL 320 mg", "description": "Participants were started with valsartan 160 mg qd for 1 week and then were uptitrated to valsartan 320 mg qd for the remaining 7 weeks."}, {"id": "OG005", "title": "LCZ 400 mg", "description": "Participants were started with LCZ696 200 mg qd for 1 week and then were uptitrated to LCZ696 400 mg qd for the remaining 7 weeks."}, {"id": "OG006", "title": "Placebo", "description": "Participants received matching placebo to LCZ696, AHU377 and valsartan for 8 weeks."}], "denoms": [{"units": "Participants", "counts": [{"groupId": "OG000", "value": "94"}, {"groupId": "OG001", "value": "98"}, {"groupId": "OG002", "value": "92"}, {"groupId": "OG003", "value": "95"}, {"groupId": "OG004", "value": "93"}, {"groupId": "OG005", "value": "90"}, {"groupId": "OG006", "value": "35"}]}], "classes": [{"title": "maSBP", "categories": [{"measurements": [{"groupId": "OG000", "value": "-12.62", "spread": "1.21"}, {"groupId": "OG001", "value": "-15.85", "spread": "1.19"}, {"groupId": "OG002", "value": "-14.43", "spread": "1.23"}, {"groupId": "OG003", "value": "-11.50", "spread": "1.21"}, {"groupId": "OG004", "value": "-9.60", "spread": "1.22"}, {"groupId": "OG005", "value": "-13.32", "spread": "1.23"}, {"groupId": "OG006", "value": "-2.39", "spread": "1.98"}]}]}, {"title": "maDBP", "categories": [{"measurements": [{"groupId": "OG000", "value": "-5.93", "spread": "0.77"}, {"groupId": "OG001", "value": "-7.13", "spread": "0.75"}, {"groupId": "OG002", "value": "-6.57", "spread": "0.78"}, {"groupId": "OG003", "value": "-5.39", "spread": "0.77"}, {"groupId": "OG004", "value": "-5.40", "spread": "0.77"}, {"groupId": "OG005", "value": "-6.16", "spread": "0.78"}, {"groupId": "OG006", "value": "-0.98", "spread": "1.26"}]}]}]}, {"type": "SECONDARY", "title": "Change From Baseline in Nighttime maSBP and maDBP", "description": "Twenty four hour ABPM was performed twice duirng the study at baseline and week 8. The second ABPM assessment was performed only in participants who had successfully completed the ABPM assessment at baseline. A negative change from baseline indicates improvement.", "populationDescription": "A subset of randomized participants, who had ABPM measurements at both baseline and week 8, were included in the analysis.", "reportingStatus": "POSTED", "paramType": "LEAST_SQUARES_MEAN", "dispersionType": "Standard Error", "unitOfMeasure": "mmHg", "timeFrame": "Baseline and 8 weeks", "groups": [{"id": "OG000", "title": "VAL + AHU 400 mg", "description": "Participants were started with AHU377 100 mg + valsartan 160 mg every day (qd) for 1 week, then were uptitrated to AHU377 200 mg + valsartan 320 mg qd for another week, and then were uptitrated to AHU377 400 mg + valsartan 320 mg for the remaining 6 weeks."}, {"id": "OG001", "title": "VAL + AHU 200 mg", "description": "Participants were started with AHU377 100 mg + valsartan 160 mg qd for 1 week and then were uptitrated to AHU377 200 mg + valsartan 320 mg qd for the remaining 7 weeks."}, {"id": "OG002", "title": "VAL + AHU 100 mg", "description": "Participants were started with AHU377 50 mg + valsartan 160 mg qd for 1 week and then were uptitrated to AHU377 100 mg + valsartan 320 mg for the remaining 7 weeks."}, {"id": "OG003", "title": "VAL + AHU 50 mg", "description": "Participants were started with AHU377 50 mg + valsartan 160 mg qd for 1 week and then were uptitrated to AHU377 50 mg + valartan 320 mg qd for the remaining 7 weeks."}, {"id": "OG004", "title": "VAL 320 mg", "description": "Participants were started with valsartan 160 mg qd for 1 week and then were uptitrated to valsartan 320 mg qd for the remaining 7 weeks."}, {"id": "OG005", "title": "LCZ 400 mg", "description": "Participants were started with LCZ696 200 mg qd for 1 week and then were uptitrated to LCZ696 400 mg qd for the remaining 7 weeks."}, {"id": "OG006", "title": "Placebo", "description": "Participants received matching placebo to LCZ696, AHU377 and valsartan for 8 weeks."}], "denoms": [{"units": "Participants", "counts": [{"groupId": "OG000", "value": "91"}, {"groupId": "OG001", "value": "98"}, {"groupId": "OG002", "value": "90"}, {"groupId": "OG003", "value": "95"}, {"groupId": "OG004", "value": "92"}, {"groupId": "OG005", "value": "90"}, {"groupId": "OG006", "value": "35"}]}], "classes": [{"title": "maSBP", "categories": [{"measurements": [{"groupId": "OG000", "value": "-11.57", "spread": "1.23"}, {"groupId": "OG001", "value": "-15.27", "spread": "1.19"}, {"groupId": "OG002", "value": "-14.74", "spread": "1.23"}, {"groupId": "OG003", "value": "-10.80", "spread": "1.21"}, {"groupId": "OG004", "value": "-8.88", "spread": "1.22"}, {"groupId": "OG005", "value": "-12.34", "spread": "1.23"}, {"groupId": "OG006", "value": "-1.36", "spread": "1.98"}]}]}, {"title": "maDBP", "categories": [{"measurements": [{"groupId": "OG000", "value": "-5.27", "spread": "0.78"}, {"groupId": "OG001", "value": "-6.79", "spread": "0.75"}, {"groupId": "OG002", "value": "-6.45", "spread": "0.78"}, {"groupId": "OG003", "value": "-5.27", "spread": "0.77"}, {"groupId": "OG004", "value": "-4.49", "spread": "0.77"}, {"groupId": "OG005", "value": "-6.36", "spread": "0.78"}, {"groupId": "OG006", "value": "-0.22", "spread": "1.26"}]}]}]}, {"type": "SECONDARY", "title": "Change From Baseline in Mean Sitting Pulse Pressure", "description": "Pulse rate measurements were performed. A negative change from baseline indicates improvement.", "populationDescription": "Only participants of the full analysis set (FAS), who had measurements at both baseline and week 8, were included in the analysis. The FAS included all randomized participants who received at least one dose of double-blind study medication.", "reportingStatus": "POSTED", "paramType": "LEAST_SQUARES_MEAN", "dispersionType": "Standard Error", "unitOfMeasure": "mmHg", "timeFrame": "Baseline, 8 weeks", "groups": [{"id": "OG000", "title": "VAL + AHU 400 mg", "description": "Participants were started with AHU377 100 mg + valsartan 160 mg every day (qd) for 1 week, then were uptitrated to AHU377 200 mg + valsartan 320 mg qd for another week, and then were uptitrated to AHU377 400 mg + valsartan 320 mg for the remaining 6 weeks."}, {"id": "OG001", "title": "VAL + AHU 200 mg", "description": "Participants were started with AHU377 100 mg + valsartan 160 mg qd for 1 week and then were uptitrated to AHU377 200 mg + valsartan 320 mg qd for the remaining 7 weeks."}, {"id": "OG002", "title": "VAL + AHU 100 mg", "description": "Participants were started with AHU377 50 mg + valsartan 160 mg qd for 1 week and then were uptitrated to AHU377 100 mg + valsartan 320 mg for the remaining 7 weeks."}, {"id": "OG003", "title": "VAL + AHU 50 mg", "description": "Participants were started with AHU377 50 mg + valsartan 160 mg qd for 1 week and then were uptitrated to AHU377 50 mg + valartan 320 mg qd for the remaining 7 weeks."}, {"id": "OG004", "title": "VAL 320 mg", "description": "Participants were started with valsartan 160 mg qd for 1 week and then were uptitrated to valsartan 320 mg qd for the remaining 7 weeks."}, {"id": "OG005", "title": "LCZ 400 mg", "description": "Participants were started with LCZ696 200 mg qd for 1 week and then were uptitrated to LCZ696 400 mg qd for the remaining 7 weeks."}, {"id": "OG006", "title": "Placebo", "description": "Participants received matching placebo to LCZ696, AHU377 and valsartan for 8 weeks."}], "denoms": [{"units": "Participants", "counts": [{"groupId": "OG000", "value": "143"}, {"groupId": "OG001", "value": "144"}, {"groupId": "OG002", "value": "141"}, {"groupId": "OG003", "value": "132"}, {"groupId": "OG004", "value": "143"}, {"groupId": "OG005", "value": "142"}, {"groupId": "OG006", "value": "57"}]}], "classes": [{"categories": [{"measurements": [{"groupId": "OG000", "value": "-12.39", "spread": "0.91"}, {"groupId": "OG001", "value": "-13.91", "spread": "0.90"}, {"groupId": "OG002", "value": "-13.18", "spread": "0.91"}, {"groupId": "OG003", "value": "-12.01", "spread": "0.95"}, {"groupId": "OG004", "value": "-8.80", "spread": "0.91"}, {"groupId": "OG005", "value": "-12.18", "spread": "0.91"}, {"groupId": "OG006", "value": "-3.74", "spread": "1.43"}]}]}]}, {"type": "SECONDARY", "title": "Change From Baseline in Mean Ambulatory Pulse Pressure", "description": "Pulse rate measurements were performed. A negative change from baseline indicates improvement.", "populationDescription": "A subset of randomized participants, who had ABPM measurements at both baseline and week 8, were included in the analysis.", "reportingStatus": "POSTED", "paramType": "LEAST_SQUARES_MEAN", "dispersionType": "Standard Error", "unitOfMeasure": "mmHg", "timeFrame": "Baseline, 8 weeks", "groups": [{"id": "OG000", "title": "VAL + AHU 400 mg", "description": "Participants were started with AHU377 100 mg + valsartan 160 mg every day (qd) for 1 week, then were uptitrated to AHU377 200 mg + valsartan 320 mg qd for another week, and then were uptitrated to AHU377 400 mg + valsartan 320 mg for the remaining 6 weeks."}, {"id": "OG001", "title": "VAL + AHU 200 mg", "description": "Participants were started with AHU377 100 mg + valsartan 160 mg qd for 1 week and then were uptitrated to AHU377 200 mg + valsartan 320 mg qd for the remaining 7 weeks."}, {"id": "OG002", "title": "VAL + AHU 100 mg", "description": "Participants were started with AHU377 50 mg + valsartan 160 mg qd for 1 week and then were uptitrated to AHU377 100 mg + valsartan 320 mg for the remaining 7 weeks."}, {"id": "OG003", "title": "VAL + AHU 50 mg", "description": "Participants were started with AHU377 50 mg + valsartan 160 mg qd for 1 week and then were uptitrated to AHU377 50 mg + valartan 320 mg qd for the remaining 7 weeks."}, {"id": "OG004", "title": "VAL 320 mg", "description": "Participants were started with valsartan 160 mg qd for 1 week and then were uptitrated to valsartan 320 mg qd for the remaining 7 weeks."}, {"id": "OG005", "title": "LCZ 400 mg", "description": "Participants were started with LCZ696 200 mg qd for 1 week and then were uptitrated to LCZ696 400 mg qd for the remaining 7 weeks."}, {"id": "OG006", "title": "Placebo", "description": "Participants received matching placebo to LCZ696, AHU377 and valsartan for 8 weeks."}], "denoms": [{"units": "Participants", "counts": [{"groupId": "OG000", "value": "94"}, {"groupId": "OG001", "value": "98"}, {"groupId": "OG002", "value": "92"}, {"groupId": "OG003", "value": "95"}, {"groupId": "OG004", "value": "93"}, {"groupId": "OG005", "value": "90"}, {"groupId": "OG006", "value": "35"}]}], "classes": [{"categories": [{"measurements": [{"groupId": "OG000", "value": "-6.23", "spread": "0.39"}, {"groupId": "OG001", "value": "-8.51", "spread": "0.38"}, {"groupId": "OG002", "value": "-7.71", "spread": "0.40"}, {"groupId": "OG003", "value": "-6.00", "spread": "0.39"}, {"groupId": "OG004", "value": "-4.40", "spread": "0.39"}, {"groupId": "OG005", "value": "-6.84", "spread": "0.39"}, {"groupId": "OG006", "value": "-1.09", "spread": "0.63"}]}]}]}, {"type": "SECONDARY", "title": "Change From Baseline in maSBP and maDBP in Dippers", "description": "Twenty four hour ABPM was performed twice during the study at baseline and week 8. The second ABPM assessment was performed only in participants who had successfully completed the ABPM assessment at baseline. Dippers were defined as participants who showed a decrease of at least 10% in maSBP during the night (10pm-6am) compared with the daytime level. A negative change from baseline indicates improvement.", "populationDescription": "A subset of randomized participants, who had ABPM measurements at both baseline and week 8, were included in the analysis.", "reportingStatus": "POSTED", "paramType": "LEAST_SQUARES_MEAN", "dispersionType": "Standard Error", "unitOfMeasure": "mmHg", "timeFrame": "Baseline, 8 weeks", "groups": [{"id": "OG000", "title": "VAL + AHU 400 mg", "description": "Participants were started with AHU377 100 mg + valsartan 160 mg every day (qd) for 1 week, then were uptitrated to AHU377 200 mg + valsartan 320 mg qd for another week, and then were uptitrated to AHU377 400 mg + valsartan 320 mg for the remaining 6 weeks."}, {"id": "OG001", "title": "VAL + AHU 200 mg", "description": "Participants were started with AHU377 100 mg + valsartan 160 mg qd for 1 week and then were uptitrated to AHU377 200 mg + valsartan 320 mg qd for the remaining 7 weeks."}, {"id": "OG002", "title": "VAL + AHU 100 mg", "description": "Participants were started with AHU377 50 mg + valsartan 160 mg qd for 1 week and then were uptitrated to AHU377 100 mg + valsartan 320 mg for the remaining 7 weeks."}, {"id": "OG003", "title": "VAL + AHU 50 mg", "description": "Participants were started with AHU377 50 mg + valsartan 160 mg qd for 1 week and then were uptitrated to AHU377 50 mg + valartan 320 mg qd for the remaining 7 weeks."}, {"id": "OG004", "title": "VAL 320 mg", "description": "Participants were started with valsartan 160 mg qd for 1 week and then were uptitrated to valsartan 320 mg qd for the remaining 7 weeks."}, {"id": "OG005", "title": "LCZ 400 mg", "description": "Participants were started with LCZ696 200 mg qd for 1 week and then were uptitrated to LCZ696 400 mg qd for the remaining 7 weeks."}, {"id": "OG006", "title": "Placebo", "description": "Participants received matching placebo to LCZ696, AHU377 and valsartan for 8 weeks."}], "denoms": [{"units": "Participants", "counts": [{"groupId": "OG000", "value": "32"}, {"groupId": "OG001", "value": "42"}, {"groupId": "OG002", "value": "38"}, {"groupId": "OG003", "value": "42"}, {"groupId": "OG004", "value": "38"}, {"groupId": "OG005", "value": "37"}, {"groupId": "OG006", "value": "19"}]}], "classes": [{"title": "maSBP", "categories": [{"measurements": [{"groupId": "OG000", "value": "-11.43", "spread": "1.12"}, {"groupId": "OG001", "value": "-15.59", "spread": "1.00"}, {"groupId": "OG002", "value": "-12.04", "spread": "1.05"}, {"groupId": "OG003", "value": "10.60", "spread": "1.01"}, {"groupId": "OG004", "value": "-9.85", "spread": "1.03"}, {"groupId": "OG005", "value": "-13.09", "spread": "1.05"}, {"groupId": "OG006", "value": "-2.39", "spread": "1.45"}]}]}, {"title": "maDBP", "categories": [{"measurements": [{"groupId": "OG000", "value": "-4.62", "spread": "0.70"}, {"groupId": "OG001", "value": "-7.33", "spread": "0.62"}, {"groupId": "OG002", "value": "-5.49", "spread": "0.65"}, {"groupId": "OG003", "value": "-5.07", "spread": "0.63"}, {"groupId": "OG004", "value": "-5.53", "spread": "0.64"}, {"groupId": "OG005", "value": "-6.03", "spread": "0.65"}, {"groupId": "OG006", "value": "-0.98", "spread": "0.90"}]}]}]}, {"type": "SECONDARY", "title": "Change From Baseline in maSBP and maDBP in Non-dippers", "description": "Twenty four hour ABPM was performed twice duirng the study at baseline and week 8. The second ABPM assessment was performed only in participants who had successfully completed the ABPM assessment at baseline. Dippers were defined as participants who showed a decrease of at least 10% in maSBP during the night (10pm-6am) compared with the daytime level. A negative change from baseline indicates improvement.", "populationDescription": "A subset of randomized participants, who had ABPM measurements at both baseline and week 8, were included in the analysis.", "reportingStatus": "POSTED", "paramType": "LEAST_SQUARES_MEAN", "dispersionType": "Standard Error", "unitOfMeasure": "mmHg", "timeFrame": "Baseline, 8 weeks", "groups": [{"id": "OG000", "title": "VAL + AHU 400 mg", "description": "Participants were started with AHU377 100 mg + valsartan 160 mg every day (qd) for 1 week, then were uptitrated to AHU377 200 mg + valsartan 320 mg qd for another week, and then were uptitrated to AHU377 400 mg + valsartan 320 mg for the remaining 6 weeks."}, {"id": "OG001", "title": "VAL + AHU 200 mg", "description": "Participants were started with AHU377 100 mg + valsartan 160 mg qd for 1 week and then were uptitrated to AHU377 200 mg + valsartan 320 mg qd for the remaining 7 weeks."}, {"id": "OG002", "title": "VAL + AHU 100 mg", "description": "Participants were started with AHU377 50 mg + valsartan 160 mg qd for 1 week and then were uptitrated to AHU377 100 mg + valsartan 320 mg for the remaining 7 weeks."}, {"id": "OG003", "title": "VAL + AHU 50 mg", "description": "Participants were started with AHU377 50 mg + valsartan 160 mg qd for 1 week and then were uptitrated to AHU377 50 mg + valartan 320 mg qd for the remaining 7 weeks."}, {"id": "OG004", "title": "VAL 320 mg", "description": "Participants were started with valsartan 160 mg qd for 1 week and then were uptitrated to valsartan 320 mg qd for the remaining 7 weeks."}, {"id": "OG005", "title": "LCZ 400 mg", "description": "Participants were started with LCZ696 200 mg qd for 1 week and then were uptitrated to LCZ696 400 mg qd for the remaining 7 weeks."}, {"id": "OG006", "title": "Placebo", "description": "Participants received matching placebo to LCZ696, AHU377 and valsartan for 8 weeks."}], "denoms": [{"units": "Participants", "counts": [{"groupId": "OG000", "value": "59"}, {"groupId": "OG001", "value": "56"}, {"groupId": "OG002", "value": "53"}, {"groupId": "OG003", "value": "53"}, {"groupId": "OG004", "value": "54"}, {"groupId": "OG005", "value": "53"}, {"groupId": "OG006", "value": "16"}]}], "classes": [{"title": "maSBP", "categories": [{"measurements": [{"groupId": "OG000", "value": "-12.81", "spread": "0.91"}, {"groupId": "OG001", "value": "-16.08", "spread": "0.94"}, {"groupId": "OG002", "value": "-16.37", "spread": "0.97"}, {"groupId": "OG003", "value": "-12.17", "spread": "0.99"}, {"groupId": "OG004", "value": "-9.73", "spread": "0.96"}, {"groupId": "OG005", "value": "-13.12", "spread": "0.96"}, {"groupId": "OG006", "value": "-1.46", "spread": "1.75"}]}]}, {"title": "maDBP", "categories": [{"measurements": [{"groupId": "OG000", "value": "-6.65", "spread": "0.56"}, {"groupId": "OG001", "value": "-6.91", "spread": "0.58"}, {"groupId": "OG002", "value": "-7.31", "spread": "0.60"}, {"groupId": "OG003", "value": "-5.79", "spread": "0.61"}, {"groupId": "OG004", "value": "-5.10", "spread": "0.59"}, {"groupId": "OG005", "value": "-6.34", "spread": "0.59"}, {"groupId": "OG006", "value": "-0.49", "spread": "1.08"}]}]}]}, {"type": "SECONDARY", "title": "Change From Baseline in msSBP and msDBP in Participants < 65 Years of Age", "description": "Sitting BP measurements were performed at trough (23-26 hours post-morning dose). A negative change from baseline indicates improvement.", "populationDescription": "Only participants of the full analysuis set (FAS), who were \\< 65 years of age and had measurements at both baseline and week 8, were included in the analysis. The FAS included all randomized participants who received at least one dose of double-blind study medication.", "reportingStatus": "POSTED", "paramType": "LEAST_SQUARES_MEAN", "dispersionType": "Standard Error", "unitOfMeasure": "mmHg", "timeFrame": "Baseline, 8 weeks", "groups": [{"id": "OG000", "title": "VAL + AHU 400 mg", "description": "Participants were started with AHU377 100 mg + valsartan 160 mg every day (qd) for 1 week, then were uptitrated to AHU377 200 mg + valsartan 320 mg qd for another week, and then were uptitrated to AHU377 400 mg + valsartan 320 mg for the remaining 6 weeks."}, {"id": "OG001", "title": "VAL + AHU 200 mg", "description": "Participants were started with AHU377 100 mg + valsartan 160 mg qd for 1 week and then were uptitrated to AHU377 200 mg + valsartan 320 mg qd for the remaining 7 weeks."}, {"id": "OG002", "title": "VAL + AHU 100 mg", "description": "Participants were started with AHU377 50 mg + valsartan 160 mg qd for 1 week and then were uptitrated to AHU377 100 mg + valsartan 320 mg for the remaining 7 weeks."}, {"id": "OG003", "title": "VAL + AHU 50 mg", "description": "Participants were started with AHU377 50 mg + valsartan 160 mg qd for 1 week and then were uptitrated to AHU377 50 mg + valartan 320 mg qd for the remaining 7 weeks."}, {"id": "OG004", "title": "VAL 320 mg", "description": "Participants were started with valsartan 160 mg qd for 1 week and then were uptitrated to valsartan 320 mg qd for the remaining 7 weeks."}, {"id": "OG005", "title": "LCZ 400 mg", "description": "Participants were started with LCZ696 200 mg qd for 1 week and then were uptitrated to LCZ696 400 mg qd for the remaining 7 weeks."}, {"id": "OG006", "title": "Placebo", "description": "Participants received matching placebo to LCZ696, AHU377 and valsartan for 8 weeks."}], "denoms": [{"units": "Participants", "counts": [{"groupId": "OG000", "value": "75"}, {"groupId": "OG001", "value": "75"}, {"groupId": "OG002", "value": "78"}, {"groupId": "OG003", "value": "66"}, {"groupId": "OG004", "value": "73"}, {"groupId": "OG005", "value": "79"}, {"groupId": "OG006", "value": "28"}]}], "classes": [{"title": "msSBP", "categories": [{"measurements": [{"groupId": "OG000", "value": "-20.95", "spread": "1.68"}, {"groupId": "OG001", "value": "-24.45", "spread": "1.67"}, {"groupId": "OG002", "value": "-20.94", "spread": "1.63"}, {"groupId": "OG003", "value": "-18.09", "spread": "1.79"}, {"groupId": "OG004", "value": "-16.96", "spread": "1.71"}, {"groupId": "OG005", "value": "-21.06", "spread": "1.63"}, {"groupId": "OG006", "value": "-8.94", "spread": "2.73"}]}]}, {"title": "msDBP", "categories": [{"measurements": [{"groupId": "OG000", "value": "-8.97", "spread": "1.11"}, {"groupId": "OG001", "value": "-10.94", "spread": "1.11"}, {"groupId": "OG002", "value": "-8.83", "spread": "1.09"}, {"groupId": "OG003", "value": "-8.07", "spread": "1.19"}, {"groupId": "OG004", "value": "-6.93", "spread": "1.13"}, {"groupId": "OG005", "value": "-10.25", "spread": "1.08"}, {"groupId": "OG006", "value": "-5.19", "spread": "1.82"}]}]}]}, {"type": "SECONDARY", "title": "Change From Baseline in msSBP and msDBP in Participants >= 65 Years of Age", "description": "Sitting BP measurements were performed at trough (23-26 hours post-morning dose). A negative change from baseline indicates improvement.", "populationDescription": "Only participants of the full analysuis set (FAS), who were \\>= 65 years of age and had measurements at both baseline and week 8, were included in the analysis. The FAS included all randomized participants who received at least one dose of double-blind study medication.", "reportingStatus": "POSTED", "paramType": "LEAST_SQUARES_MEAN", "dispersionType": "Standard Error", "unitOfMeasure": "mmHg", "timeFrame": "Baseline, 8 weeks", "groups": [{"id": "OG000", "title": "VAL + AHU 400 mg", "description": "Participants were started with AHU377 100 mg + valsartan 160 mg every day (qd) for 1 week, then were uptitrated to AHU377 200 mg + valsartan 320 mg qd for another week, and then were uptitrated to AHU377 400 mg + valsartan 320 mg for the remaining 6 weeks."}, {"id": "OG001", "title": "VAL + AHU 200 mg", "description": "Participants were started with AHU377 100 mg + valsartan 160 mg qd for 1 week and then were uptitrated to AHU377 200 mg + valsartan 320 mg qd for the remaining 7 weeks."}, {"id": "OG002", "title": "VAL + AHU 100 mg", "description": "Participants were started with AHU377 50 mg + valsartan 160 mg qd for 1 week and then were uptitrated to AHU377 100 mg + valsartan 320 mg for the remaining 7 weeks."}, {"id": "OG003", "title": "VAL + AHU 50 mg", "description": "Participants were started with AHU377 50 mg + valsartan 160 mg qd for 1 week and then were uptitrated to AHU377 50 mg + valartan 320 mg qd for the remaining 7 weeks."}, {"id": "OG004", "title": "VAL 320 mg", "description": "Participants were started with valsartan 160 mg qd for 1 week and then were uptitrated to valsartan 320 mg qd for the remaining 7 weeks."}, {"id": "OG005", "title": "LCZ 400 mg", "description": "Participants were started with LCZ696 200 mg qd for 1 week and then were uptitrated to LCZ696 400 mg qd for the remaining 7 weeks."}, {"id": "OG006", "title": "Placebo", "description": "Participants received matching placebo to LCZ696, AHU377 and valsartan for 8 weeks."}], "denoms": [{"units": "Participants", "counts": [{"groupId": "OG000", "value": "68"}, {"groupId": "OG001", "value": "69"}, {"groupId": "OG002", "value": "63"}, {"groupId": "OG003", "value": "66"}, {"groupId": "OG004", "value": "70"}, {"groupId": "OG005", "value": "63"}, {"groupId": "OG006", "value": "29"}]}], "classes": [{"title": "msSBP", "categories": [{"measurements": [{"groupId": "OG000", "value": "-20.93", "spread": "1.79"}, {"groupId": "OG001", "value": "-22.66", "spread": "1.76"}, {"groupId": "OG002", "value": "-21.72", "spread": "1.85"}, {"groupId": "OG003", "value": "-20.64", "spread": "1.81"}, {"groupId": "OG004", "value": "-15.48", "spread": "1.75"}, {"groupId": "OG005", "value": "-22.83", "spread": "1.84"}, {"groupId": "OG006", "value": "-5.10", "spread": "2.71"}]}]}, {"title": "msDBP", "categories": [{"measurements": [{"groupId": "OG000", "value": "-7.89", "spread": "1.02"}, {"groupId": "OG001", "value": "-8.44", "spread": "1.00"}, {"groupId": "OG002", "value": "-7.06", "spread": "1.05"}, {"groupId": "OG003", "value": "-6.17", "spread": "1.03"}, {"groupId": "OG004", "value": "-7.62", "spread": "0.99"}, {"groupId": "OG005", "value": "-8.89", "spread": "1.04"}, {"groupId": "OG006", "value": "-1.46", "spread": "1.54"}]}]}]}, {"type": "SECONDARY", "title": "Change From Baseline in maSBP and maDBP in Participants < 65 Years of Age", "description": "Twenty four hour ABPM was performed twice duirng the study at baseline and week 8. The second ABPM assessment was performed only in participants who had successfully completed the ABPM assessment at baseline. A negative change from baseline indicates improvement.", "populationDescription": "A subset of randomized participants, who were leass than 65 years of age and had ABPM measurements at both baseline and week 8, were included in the analysis.", "reportingStatus": "POSTED", "paramType": "LEAST_SQUARES_MEAN", "dispersionType": "Standard Error", "unitOfMeasure": "mmHg", "timeFrame": "Baseline, 8 weeks", "groups": [{"id": "OG000", "title": "VAL + AHU 400 mg", "description": "Participants were started with AHU377 100 mg + valsartan 160 mg every day (qd) for 1 week, then were uptitrated to AHU377 200 mg + valsartan 320 mg qd for another week, and then were uptitrated to AHU377 400 mg + valsartan 320 mg for the remaining 6 weeks."}, {"id": "OG001", "title": "VAL + AHU 200 mg", "description": "Participants were started with AHU377 100 mg + valsartan 160 mg qd for 1 week and then were uptitrated to AHU377 200 mg + valsartan 320 mg qd for the remaining 7 weeks."}, {"id": "OG002", "title": "VAL + AHU 100 mg", "description": "Participants were started with AHU377 50 mg + valsartan 160 mg qd for 1 week and then were uptitrated to AHU377 100 mg + valsartan 320 mg for the remaining 7 weeks."}, {"id": "OG003", "title": "VAL + AHU 50 mg", "description": "Participants were started with AHU377 50 mg + valsartan 160 mg qd for 1 week and then were uptitrated to AHU377 50 mg + valartan 320 mg qd for the remaining 7 weeks."}, {"id": "OG004", "title": "VAL 320 mg", "description": "Participants were started with valsartan 160 mg qd for 1 week and then were uptitrated to valsartan 320 mg qd for the remaining 7 weeks."}, {"id": "OG005", "title": "LCZ 400 mg", "description": "Participants were started with LCZ696 200 mg qd for 1 week and then were uptitrated to LCZ696 400 mg qd for the remaining 7 weeks."}, {"id": "OG006", "title": "Placebo", "description": "Participants received matching placebo to LCZ696, AHU377 and valsartan for 8 weeks."}], "denoms": [{"units": "Participants", "counts": [{"groupId": "OG000", "value": "44"}, {"groupId": "OG001", "value": "50"}, {"groupId": "OG002", "value": "46"}, {"groupId": "OG003", "value": "47"}, {"groupId": "OG004", "value": "44"}, {"groupId": "OG005", "value": "48"}, {"groupId": "OG006", "value": "15"}]}], "classes": [{"title": "maSBP", "categories": [{"measurements": [{"groupId": "OG000", "value": "-12.16", "spread": "0.98"}, {"groupId": "OG001", "value": "-15.06", "spread": "0.91"}, {"groupId": "OG002", "value": "-14.42", "spread": "0.95"}, {"groupId": "OG003", "value": "-10.39", "spread": "0.95"}, {"groupId": "OG004", "value": "-9.55", "spread": "0.99"}, {"groupId": "OG005", "value": "-13.98", "spread": "0.93"}, {"groupId": "OG006", "value": "-2.24", "spread": "1.67"}]}]}, {"title": "maDBP", "categories": [{"measurements": [{"groupId": "OG000", "value": "-6.74", "spread": "0.67"}, {"groupId": "OG001", "value": "-7.81", "spread": "0.62"}, {"groupId": "OG002", "value": "-7.93", "spread": "0.65"}, {"groupId": "OG003", "value": "-5.69", "spread": "0.65"}, {"groupId": "OG004", "value": "-5.94", "spread": "0.67"}, {"groupId": "OG005", "value": "-7.32", "spread": "0.63"}, {"groupId": "OG006", "value": "-1.53", "spread": "1.14"}]}]}]}, {"type": "SECONDARY", "title": "Change From Baseline in maSBP and maDBP in Participants >= 65 Years of Age", "description": "Twenty four hour ABPM was performed twice duirng the study at baseline and week 8. The second ABPM assessment was performed only in participants who had successfully completed the ABPM assessment at baseline. A negative change from baseline indicates improvement.", "populationDescription": "A subset of randomized participants, who were \\>= 65 years of age and had ABPM measurements at both baseline and week 8, were included in the analysis.", "reportingStatus": "POSTED", "paramType": "LEAST_SQUARES_MEAN", "dispersionType": "Standard Error", "unitOfMeasure": "mmHg", "timeFrame": "Baseline, 8 weeks", "groups": [{"id": "OG000", "title": "VAL + AHU 400 mg", "description": "Participants were started with AHU377 100 mg + valsartan 160 mg every day (qd) for 1 week, then were uptitrated to AHU377 200 mg + valsartan 320 mg qd for another week, and then were uptitrated to AHU377 400 mg + valsartan 320 mg for the remaining 6 weeks."}, {"id": "OG001", "title": "VAL + AHU 200 mg", "description": "Participants were started with AHU377 100 mg + valsartan 160 mg qd for 1 week and then were uptitrated to AHU377 200 mg + valsartan 320 mg qd for the remaining 7 weeks."}, {"id": "OG002", "title": "VAL + AHU 100 mg", "description": "Participants were started with AHU377 50 mg + valsartan 160 mg qd for 1 week and then were uptitrated to AHU377 100 mg + valsartan 320 mg for the remaining 7 weeks."}, {"id": "OG003", "title": "VAL + AHU 50 mg", "description": "Participants were started with AHU377 50 mg + valsartan 160 mg qd for 1 week and then were uptitrated to AHU377 50 mg + valartan 320 mg qd for the remaining 7 weeks."}, {"id": "OG004", "title": "VAL 320 mg", "description": "Participants were started with valsartan 160 mg qd for 1 week and then were uptitrated to valsartan 320 mg qd for the remaining 7 weeks."}, {"id": "OG005", "title": "LCZ 400 mg", "description": "Participants were started with LCZ696 200 mg qd for 1 week and then were uptitrated to LCZ696 400 mg qd for the remaining 7 weeks."}, {"id": "OG006", "title": "Placebo", "description": "Participants received matching placebo to LCZ696, AHU377 and valsartan for 8 weeks."}], "denoms": [{"units": "Participants", "counts": [{"groupId": "OG000", "value": "50"}, {"groupId": "OG001", "value": "48"}, {"groupId": "OG002", "value": "46"}, {"groupId": "OG003", "value": "48"}, {"groupId": "OG004", "value": "49"}, {"groupId": "OG005", "value": "42"}, {"groupId": "OG006", "value": "20"}]}], "classes": [{"title": "maSBP", "categories": [{"measurements": [{"groupId": "OG000", "value": "-12.10", "spread": "1.04"}, {"groupId": "OG001", "value": "-16.08", "spread": "1.03"}, {"groupId": "OG002", "value": "-14.20", "spread": "1.08"}, {"groupId": "OG003", "value": "-12.25", "spread": "1.04"}, {"groupId": "OG004", "value": "-9.73", "spread": "1.02"}, {"groupId": "OG005", "value": "-11.88", "spread": "1.10"}, {"groupId": "OG006", "value": "-1.95", "spread": "1.59"}]}]}, {"title": "maDBP", "categories": [{"measurements": [{"groupId": "OG000", "value": "-4.94", "spread": "0.58"}, {"groupId": "OG001", "value": "-6.00", "spread": "0.57"}, {"groupId": "OG002", "value": "-4.86", "spread": "0.60"}, {"groupId": "OG003", "value": "-4.93", "spread": "0.58"}, {"groupId": "OG004", "value": "-4.58", "spread": "0.56"}, {"groupId": "OG005", "value": "-5.04", "spread": "0.61"}, {"groupId": "OG006", "value": "-0.01", "spread": "0.88"}]}]}]}, {"type": "SECONDARY", "title": "Number of Participants Who Achieved Blood Pressure Control and Blood Pressure Response", "description": "Sitting BP measurements were performed at trough (23-26 hours post-morning dose). Blood pressure control was defined as msSBP/MSDBP \\< 140/90 mmHg. Blood pressure response in msSBP was defined as \\<140 mmHg or a reduction \\>= 20mmHg from baseline. Blood pressure response in msDBP was defined as \\< 90 mmHg or a reduction \\>= 10 mmHg from baseline.", "populationDescription": "Only participants of the full analysuis set (FAS), who had week 8 measurements, were included in the analysis. The FAS included all randomized participants who received at least one dose of double-blind study medication.", "reportingStatus": "POSTED", "paramType": "NUMBER", "unitOfMeasure": "Number of participants", "timeFrame": "8 weeks", "groups": [{"id": "OG000", "title": "VAL + AHU 400 mg", "description": "Participants were started with AHU377 100 mg + valsartan 160 mg every day (qd) for 1 week, then were uptitrated to AHU377 200 mg + valsartan 320 mg qd for another week, and then were uptitrated to AHU377 400 mg + valsartan 320 mg for the remaining 6 weeks."}, {"id": "OG001", "title": "VAL + AHU 200 mg", "description": "Participants were started with AHU377 100 mg + valsartan 160 mg qd for 1 week and then were uptitrated to AHU377 200 mg + valsartan 320 mg qd for the remaining 7 weeks."}, {"id": "OG002", "title": "VAL + AHU 100 mg", "description": "Participants were started with AHU377 50 mg + valsartan 160 mg qd for 1 week and then were uptitrated to AHU377 100 mg + valsartan 320 mg for the remaining 7 weeks."}, {"id": "OG003", "title": "VAL + AHU 50 mg", "description": "Participants were started with AHU377 50 mg + valsartan 160 mg qd for 1 week and then were uptitrated to AHU377 50 mg + valartan 320 mg qd for the remaining 7 weeks."}, {"id": "OG004", "title": "VAL 320 mg", "description": "Participants were started with valsartan 160 mg qd for 1 week and then were uptitrated to valsartan 320 mg qd for the remaining 7 weeks."}, {"id": "OG005", "title": "LCZ 400 mg", "description": "Participants were started with LCZ696 200 mg qd for 1 week and then were uptitrated to LCZ696 400 mg qd for the remaining 7 weeks."}, {"id": "OG006", "title": "Placebo", "description": "Participants received matching placebo to LCZ696, AHU377 and valsartan for 8 weeks."}], "denoms": [{"units": "Participants", "counts": [{"groupId": "OG000", "value": "143"}, {"groupId": "OG001", "value": "144"}, {"groupId": "OG002", "value": "141"}, {"groupId": "OG003", "value": "132"}, {"groupId": "OG004", "value": "143"}, {"groupId": "OG005", "value": "142"}, {"groupId": "OG006", "value": "57"}]}], "classes": [{"title": "Blood pressure control", "categories": [{"measurements": [{"groupId": "OG000", "value": "72"}, {"groupId": "OG001", "value": "86"}, {"groupId": "OG002", "value": "71"}, {"groupId": "OG003", "value": "58"}, {"groupId": "OG004", "value": "57"}, {"groupId": "OG005", "value": "76"}, {"groupId": "OG006", "value": "8"}]}]}, {"title": "msSBP response", "categories": [{"measurements": [{"groupId": "OG000", "value": "88"}, {"groupId": "OG001", "value": "101"}, {"groupId": "OG002", "value": "93"}, {"groupId": "OG003", "value": "81"}, {"groupId": "OG004", "value": "72"}, {"groupId": "OG005", "value": "94"}, {"groupId": "OG006", "value": "11"}]}]}, {"title": "msDBP response", "categories": [{"measurements": [{"groupId": "OG000", "value": "112"}, {"groupId": "OG001", "value": "126"}, {"groupId": "OG002", "value": "114"}, {"groupId": "OG003", "value": "101"}, {"groupId": "OG004", "value": "111"}, {"groupId": "OG005", "value": "118"}, {"groupId": "OG006", "value": "39"}]}]}]}, {"type": "SECONDARY", "title": "Number of Participants With Adverse Events, Serious Adverse Events and Death", "description": "Adverse event monitoring was conducted throughout the study.", "populationDescription": "Safety Analysis Set: The safety analysis set included all randomized participants who received at least one dose of study medication.", "reportingStatus": "POSTED", "paramType": "NUMBER", "unitOfMeasure": "Number of participants", "timeFrame": "8 weeks", "groups": [{"id": "OG000", "title": "VAL + AHU 400 mg", "description": "Participants were started with AHU377 100 mg + valsartan 160 mg every day (qd) for 1 week, then were uptitrated to AHU377 200 mg + valsartan 320 mg qd for another week, and then were uptitrated to AHU377 400 mg + valsartan 320 mg for the remaining 6 weeks."}, {"id": "OG001", "title": "VAL + AHU 200 mg", "description": "Participants were started with AHU377 100 mg + valsartan 160 mg qd for 1 week and then were uptitrated to AHU377 200 mg + valsartan 320 mg qd for the remaining 7 weeks."}, {"id": "OG002", "title": "VAL + AHU 100 mg", "description": "Participants were started with AHU377 50 mg + valsartan 160 mg qd for 1 week and then were uptitrated to AHU377 100 mg + valsartan 320 mg for the remaining 7 weeks."}, {"id": "OG003", "title": "VAL + AHU 50 mg", "description": "Participants were started with AHU377 50 mg + valsartan 160 mg qd for 1 week and then were uptitrated to AHU377 50 mg + valartan 320 mg qd for the remaining 7 weeks."}, {"id": "OG004", "title": "VAL 320 mg", "description": "Participants were started with valsartan 160 mg qd for 1 week and then were uptitrated to valsartan 320 mg qd for the remaining 7 weeks."}, {"id": "OG005", "title": "LCZ 400 mg", "description": "Participants were started with LCZ696 200 mg qd for 1 week and then were uptitrated to LCZ696 400 mg qd for the remaining 7 weeks."}, {"id": "OG006", "title": "Placebo", "description": "Participants received matching placebo to LCZ696, AHU377 and valsartan for 8 weeks."}], "denoms": [{"units": "Participants", "counts": [{"groupId": "OG000", "value": "143"}, {"groupId": "OG001", "value": "145"}, {"groupId": "OG002", "value": "141"}, {"groupId": "OG003", "value": "133"}, {"groupId": "OG004", "value": "143"}, {"groupId": "OG005", "value": "142"}, {"groupId": "OG006", "value": "58"}]}], "classes": [{"title": "Adverse events (non-serious and serious)", "categories": [{"measurements": [{"groupId": "OG000", "value": "40"}, {"groupId": "OG001", "value": "31"}, {"groupId": "OG002", "value": "29"}, {"groupId": "OG003", "value": "25"}, {"groupId": "OG004", "value": "38"}, {"groupId": "OG005", "value": "42"}, {"groupId": "OG006", "value": "20"}]}]}, {"title": "Serious adverse events", "categories": [{"measurements": [{"groupId": "OG000", "value": "3"}, {"groupId": "OG001", "value": "1"}, {"groupId": "OG002", "value": "1"}, {"groupId": "OG003", "value": "0"}, {"groupId": "OG004", "value": "1"}, {"groupId": "OG005", "value": "1"}, {"groupId": "OG006", "value": "1"}]}]}, {"title": "Deaths", "categories": [{"measurements": [{"groupId": "OG000", "value": "1"}, {"groupId": "OG001", "value": "0"}, {"groupId": "OG002", "value": "0"}, {"groupId": "OG003", "value": "0"}, {"groupId": "OG004", "value": "0"}, {"groupId": "OG005", "value": "0"}, {"groupId": "OG006", "value": "0"}]}]}]}]}, "adverseEventsModule": {"frequencyThreshold": "5", "eventGroups": [{"id": "EG000", "title": "VAL + AHU 400 mg", "description": "Participants were started with AHU377 100 mg + valsartan 160 mg every day (qd) for 1 week, then were uptitrated to AHU377 200 mg + valsartan 320 mg qd for another week, and then were uptitrated to AHU377 400 mg + valsartan 320 mg for the remaining 6 weeks.", "seriousNumAffected": 3, "seriousNumAtRisk": 143, "otherNumAffected": 1, "otherNumAtRisk": 143}, {"id": "EG001", "title": "VAL + AHU 200 mg", "description": "Participants were started with AHU377 100 mg + valsartan 160 mg qd for 1 week and then were uptitrated to AHU377 200 mg + valsartan 320 mg qd for the remaining 7 weeks.", "seriousNumAffected": 1, "seriousNumAtRisk": 145, "otherNumAffected": 2, "otherNumAtRisk": 145}, {"id": "EG002", "title": "VAL + AHU 100 mg", "description": "Participants were started with AHU377 50 mg + valsartan 160 mg qd for 1 week and then were uptitrated to AHU377 100 mg + valsartan 320 mg for the remaining 7 weeks.", "seriousNumAffected": 1, "seriousNumAtRisk": 141, "otherNumAffected": 1, "otherNumAtRisk": 141}, {"id": "EG003", "title": "VAL + AHU 50 mg", "description": "Participants were started with AHU377 50 mg + valsartan 160 mg qd for 1 week and then were uptitrated to AHU377 50 mg + valartan 320 mg qd for the remaining 7 weeks.", "seriousNumAffected": 0, "seriousNumAtRisk": 133, "otherNumAffected": 2, "otherNumAtRisk": 133}, {"id": "EG004", "title": "VAL 320 mg", "description": "Participants were started with valsartan 160 mg qd for 1 week and then were uptitrated to valsartan 320 mg qd for the remaining 7 weeks.", "seriousNumAffected": 1, "seriousNumAtRisk": 143, "otherNumAffected": 4, "otherNumAtRisk": 143}, {"id": "EG005", "title": "LCZ 400 mg", "description": "Participants were started with LCZ696 200 mg qd for 1 week and then were uptitrated to LCZ696 400 mg qd for the remaining 7 weeks.", "seriousNumAffected": 1, "seriousNumAtRisk": 142, "otherNumAffected": 1, "otherNumAtRisk": 142}, {"id": "EG006", "title": "Placebo", "description": "Participants received matching placebo to LCZ696, AHU377 and valsartan for 8 weeks.", "seriousNumAffected": 1, "seriousNumAtRisk": 58, "otherNumAffected": 3, "otherNumAtRisk": 58}], "seriousEvents": [{"term": "Sudden death", "organSystem": "General disorders", "sourceVocabulary": "MedDRA", "assessmentType": "SYSTEMATIC_ASSESSMENT", "stats": [{"groupId": "EG000", "numAffected": 1, "numAtRisk": 143}, {"groupId": "EG001", "numAffected": 0, "numAtRisk": 145}, {"groupId": "EG002", "numAffected": 0, "numAtRisk": 141}, {"groupId": "EG003", "numAffected": 0, "numAtRisk": 133}, {"groupId": "EG004", "numAffected": 0, "numAtRisk": 143}, {"groupId": "EG005", "numAffected": 0, "numAtRisk": 142}, {"groupId": "EG006", "numAffected": 0, "numAtRisk": 58}]}, {"term": "Cholelithiasis", "organSystem": "Hepatobiliary disorders", "sourceVocabulary": "MedDRA", "assessmentType": "SYSTEMATIC_ASSESSMENT", "stats": [{"groupId": "EG000", "numAffected": 1, "numAtRisk": 143}, {"groupId": "EG001", "numAffected": 0, "numAtRisk": 145}, {"groupId": "EG002", "numAffected": 0, "numAtRisk": 141}, {"groupId": "EG003", "numAffected": 0, "numAtRisk": 133}, {"groupId": "EG004", "numAffected": 0, "numAtRisk": 143}, {"groupId": "EG005", "numAffected": 0, "numAtRisk": 142}, {"groupId": "EG006", "numAffected": 0, "numAtRisk": 58}]}, {"term": "Postoperative wound infection", "organSystem": "Infections and infestations", "sourceVocabulary": "MedDRA", "assessmentType": "SYSTEMATIC_ASSESSMENT", "stats": [{"groupId": "EG000", "numAffected": 0, "numAtRisk": 143}, {"groupId": "EG001", "numAffected": 0, "numAtRisk": 145}, {"groupId": "EG002", "numAffected": 1, "numAtRisk": 141}, {"groupId": "EG003", "numAffected": 0, "numAtRisk": 133}, {"groupId": "EG004", "numAffected": 0, "numAtRisk": 143}, {"groupId": "EG005", "numAffected": 0, "numAtRisk": 142}, {"groupId": "EG006", "numAffected": 0, "numAtRisk": 58}]}, {"term": "Thoracic vertebral fracture", "organSystem": "Injury, poisoning and procedural complications", "sourceVocabulary": "MedDRA", "assessmentType": "SYSTEMATIC_ASSESSMENT", "stats": [{"groupId": "EG000", "numAffected": 0, "numAtRisk": 143}, {"groupId": "EG001", "numAffected": 0, "numAtRisk": 145}, {"groupId": "EG002", "numAffected": 0, "numAtRisk": 141}, {"groupId": "EG003", "numAffected": 0, "numAtRisk": 133}, {"groupId": "EG004", "numAffected": 1, "numAtRisk": 143}, {"groupId": "EG005", "numAffected": 0, "numAtRisk": 142}, {"groupId": "EG006", "numAffected": 0, "numAtRisk": 58}]}, {"term": "Colon cancer", "organSystem": "Neoplasms benign, malignant and unspecified (incl cysts and polyps)", "sourceVocabulary": "MedDRA", "assessmentType": "SYSTEMATIC_ASSESSMENT", "stats": [{"groupId": "EG000", "numAffected": 0, "numAtRisk": 143}, {"groupId": "EG001", "numAffected": 0, "numAtRisk": 145}, {"groupId": "EG002", "numAffected": 0, "numAtRisk": 141}, {"groupId": "EG003", "numAffected": 0, "numAtRisk": 133}, {"groupId": "EG004", "numAffected": 0, "numAtRisk": 143}, {"groupId": "EG005", "numAffected": 1, "numAtRisk": 142}, {"groupId": "EG006", "numAffected": 0, "numAtRisk": 58}]}, {"term": "Schizophrenia", "organSystem": "Psychiatric disorders", "sourceVocabulary": "MedDRA", "assessmentType": "SYSTEMATIC_ASSESSMENT", "stats": [{"groupId": "EG000", "numAffected": 0, "numAtRisk": 143}, {"groupId": "EG001", "numAffected": 1, "numAtRisk": 145}, {"groupId": "EG002", "numAffected": 0, "numAtRisk": 141}, {"groupId": "EG003", "numAffected": 0, "numAtRisk": 133}, {"groupId": "EG004", "numAffected": 0, "numAtRisk": 143}, {"groupId": "EG005", "numAffected": 0, "numAtRisk": 142}, {"groupId": "EG006", "numAffected": 0, "numAtRisk": 58}]}, {"term": "Calculus urinary", "organSystem": "Renal and urinary disorders", "sourceVocabulary": "MedDRA", "assessmentType": "SYSTEMATIC_ASSESSMENT", "stats": [{"groupId": "EG000", "numAffected": 0, "numAtRisk": 143}, {"groupId": "EG001", "numAffected": 0, "numAtRisk": 145}, {"groupId": "EG002", "numAffected": 0, "numAtRisk": 141}, {"groupId": "EG003", "numAffected": 0, "numAtRisk": 133}, {"groupId": "EG004", "numAffected": 0, "numAtRisk": 143}, {"groupId": "EG005", "numAffected": 0, "numAtRisk": 142}, {"groupId": "EG006", "numAffected": 1, "numAtRisk": 58}]}, {"term": "Angioedema", "organSystem": "Skin and subcutaneous tissue disorders", "sourceVocabulary": "MedDRA", "assessmentType": "SYSTEMATIC_ASSESSMENT", "stats": [{"groupId": "EG000", "numAffected": 1, "numAtRisk": 143}, {"groupId": "EG001", "numAffected": 0, "numAtRisk": 145}, {"groupId": "EG002", "numAffected": 0, "numAtRisk": 141}, {"groupId": "EG003", "numAffected": 0, "numAtRisk": 133}, {"groupId": "EG004", "numAffected": 0, "numAtRisk": 143}, {"groupId": "EG005", "numAffected": 0, "numAtRisk": 142}, {"groupId": "EG006", "numAffected": 0, "numAtRisk": 58}]}], "otherEvents": [{"term": "Dyspepsia", "organSystem": "Gastrointestinal disorders", "sourceVocabulary": "MedDRA", "assessmentType": "SYSTEMATIC_ASSESSMENT", "stats": [{"groupId": "EG000", "numAffected": 1, "numAtRisk": 143}, {"groupId": "EG001", "numAffected": 2, "numAtRisk": 145}, {"groupId": "EG002", "numAffected": 1, "numAtRisk": 141}, {"groupId": "EG003", "numAffected": 2, "numAtRisk": 133}, {"groupId": "EG004", "numAffected": 4, "numAtRisk": 143}, {"groupId": "EG005", "numAffected": 1, "numAtRisk": 142}, {"groupId": "EG006", "numAffected": 3, "numAtRisk": 58}]}]}, "moreInfoModule": {"certainAgreement": {"piSponsorEmployee": false, "restrictionType": "OTHER", "restrictiveAgreement": true, "otherDetails": "The terms and conditions of Novartis' agreements with its investigators may vary. However, Novartis does not prohibit any investigator from publishing. Any publications from a single-site are postponed until the publication of the pooled data (i.e., data from all sites) in the clinical trial or disclosure of trial results in their entirety."}, "pointOfContact": {"title": "Study Director", "organization": "Novartis", "phone": "862-778-8300"}}}, "derivedSection": {"miscInfoModule": {"versionHolder": "2024-07-01", "removedCountries": ["Poland"]}, "conditionBrowseModule": {"meshes": [{"id": "D000006973", "term": "Hypertension"}, {"id": "D000092244", "term": "Isolated Systolic Hypertension"}, {"id": "D000054160", "term": "Systolic Murmurs"}], "ancestors": [{"id": "D000014652", "term": "Vascular Diseases"}, {"id": "D000002318", "term": "Cardiovascular Diseases"}, {"id": "D000006337", "term": "Heart Murmurs"}, {"id": "D000075222", "term": "Essential Hypertension"}], "browseLeaves": [{"id": "M10024", "name": "Hypertension", "asFound": "Hypertension", "relevance": "HIGH"}, {"id": "M27583", "name": "Systolic Murmurs", "asFound": "Systolic", "relevance": "HIGH"}, {"id": "M2913", "name": "Isolated Systolic Hypertension", "asFound": "Systolic Hypertension", "relevance": "HIGH"}, {"id": "M9425", "name": "Heart Murmurs", "relevance": "LOW"}, {"id": "M17400", "name": "Vascular Diseases", "relevance": "LOW"}, {"id": "M1470", "name": "Essential Hypertension", "relevance": "LOW"}], "browseBranches": [{"abbrev": "BC14", "name": "Heart and Blood Diseases"}, {"abbrev": "All", "name": "All Conditions"}, {"abbrev": "BC23", "name": "Symptoms and General Pathology"}]}, "interventionBrowseModule": {"meshes": [{"id": "D000068756", "term": "Valsartan"}, {"id": "C000549068", "term": "Sacubitril and valsartan sodium hydrate drug combination"}], "ancestors": [{"id": "D000000959", "term": "Antihypertensive Agents"}, {"id": "D000047228", "term": "Angiotensin II Type 1 Receptor Blockers"}, {"id": "D000057911", "term": "Angiotensin Receptor Antagonists"}, {"id": "D000045504", "term": "Molecular Mechanisms of Pharmacological Action"}], "browseLeaves": [{"id": "M301", "name": "Valsartan", "asFound": "Extended", "relevance": "HIGH"}, {"id": "M350410", "name": "Sacubitril and valsartan sodium hydrate drug combination", "asFound": "Pea", "relevance": "HIGH"}, {"id": "M4277", "name": "Antihypertensive Agents", "relevance": "LOW"}, {"id": "M4132", "name": "Angiotensin II", "relevance": "LOW"}, {"id": "M289354", "name": "Giapreza", "relevance": "LOW"}, {"id": "M4135", "name": "Angiotensinogen", "relevance": "LOW"}, {"id": "M25789", "name": "Angiotensin II Type 1 Receptor Blockers", "relevance": "LOW"}, {"id": "M28916", "name": "Angiotensin Receptor Antagonists", "relevance": "LOW"}], "browseBranches": [{"abbrev": "AnAg", "name": "Antihypertensive Agents"}, {"abbrev": "All", "name": "All Drugs and Chemicals"}, {"abbrev": "VaCoAg", "name": "Vasoconstrictor Agents"}]}}, "hasResults": true}