{"protocolSection": {"identificationModule": {"nctId": "NCT01157351", "orgStudyIdInfo": {"id": "CR015625"}, "secondaryIdInfos": [{"id": "R092670SCH3006", "type": "OTHER", "domain": "Janssen Scientific Affairs, LLC"}], "organization": {"fullName": "Janssen Scientific Affairs, LLC", "class": "INDUSTRY"}, "briefTitle": "15 Month Study for Adults Who Have Been Diagnosed With Schizophrenia and Incarcerated", "officialTitle": "A Fifteen-month, Prospective, Randomized, Active-controlled, Open-label, Flexible Dose Study of Paliperidone Palmitate Compared With Oral Antipsychotic Treatment in Delaying Time to Treatment Failure in Adults With Schizophrenia Who Have Been Incarcerated"}, "statusModule": {"statusVerifiedDate": "2015-04", "overallStatus": "COMPLETED", "expandedAccessInfo": {"hasExpandedAccess": false}, "startDateStruct": {"date": "2010-05"}, "primaryCompletionDateStruct": {"date": "2013-12", "type": "ACTUAL"}, "completionDateStruct": {"date": "2013-12", "type": "ACTUAL"}, "studyFirstSubmitDate": "2010-05-03", "studyFirstSubmitQcDate": "2010-07-01", "studyFirstPostDateStruct": {"date": "2010-07-07", "type": "ESTIMATED"}, "resultsFirstSubmitDate": "2014-11-28", "resultsFirstSubmitQcDate": "2014-11-28", "resultsFirstPostDateStruct": {"date": "2014-12-04", "type": "ESTIMATED"}, "lastUpdateSubmitDate": "2015-04-07", "lastUpdatePostDateStruct": {"date": "2015-04-24", "type": "ESTIMATED"}}, "sponsorCollaboratorsModule": {"responsibleParty": {"type": "SPONSOR"}, "leadSponsor": {"name": "Janssen Scientific Affairs, LLC", "class": "INDUSTRY"}}, "oversightModule": {"oversightHasDmc": false}, "descriptionModule": {"briefSummary": "The study will assess the use of paliperidone palmitate compared with oral antipsychotic treatment in delaying time to a protocol-defined treatment failure over 15 months, in patients diagnosed with schizophrenia who have been incarcerated.", "detailedDescription": "The primary objective of this study is to compare the efficacy of paliperidone palmitate with oral antipsychotic treatment in delaying time to a protocol-defined treatment failure over 15 months, in patients diagnosed with schizophrenia who have been incarcerated. Protocol-defined treatment failure is defined as arrest, psychiatric hospitalization, increase in psychiatric services to prevent imminent hospitalization, discontinuation of antipsychotic treatment due to inadequate efficacy, treatment supplementation with another antipsychotic due to inadequate efficacy, discontinuation of antipsychotic treatment due to safety or tolerability or completed suicide. Protocol was amended on March 15, 2011 to reflect changes in the inclusion/exclusion criteria as well as the study objectives. Patients will receive either paliperidone palmitate 78, 117, 156, or 234 mg monthly by injection for fifteen months OR oral aripiprazole, haloperidol, olanzapine, paliperidone, perphenazine, quetiapine, and risperidone at doses selected by the study doctor."}, "conditionsModule": {"conditions": ["Schizophrenia"], "keywords": ["Schizophrenia", "Risperidone", "Risperdal", "Paliperidone palmitate", "Aripiprazole", "Haloperidol", "Olanzapine", "Paliperidone", "Perphenazine", "Quetiapine"]}, "designModule": {"studyType": "INTERVENTIONAL", "phases": ["PHASE4"], "designInfo": {"allocation": "RANDOMIZED", "interventionModel": "PARALLEL", "primaryPurpose": "PREVENTION", "maskingInfo": {"masking": "NONE"}}, "enrollmentInfo": {"count": 450, "type": "ACTUAL"}}, "armsInterventionsModule": {"armGroups": [{"label": "001", "type": "EXPERIMENTAL", "description": "paliperidone palmitate 78 117 156 or 234 mg monthly injection for 15 months", "interventionNames": ["Drug: paliperidone palmitate"]}, {"label": "002", "type": "ACTIVE_COMPARATOR", "description": "aripiprazole flexible dosing as prescribed by the study doctor for 15 months", "interventionNames": ["Drug: aripiprazole"]}, {"label": "003", "type": "ACTIVE_COMPARATOR", "description": "haloperidole flexible dosing as prescribed by the study doctor for 15 months", "interventionNames": ["Drug: haloperidole"]}, {"label": "004", "type": "ACTIVE_COMPARATOR", "description": "olanzapine flexible dosing as prescribed by the study doctor for 15 months", "interventionNames": ["Drug: olanzapine"]}, {"label": "005", "type": "ACTIVE_COMPARATOR", "description": "paliperidone flexible dosing as prescribed by the study doctor for 15 months", "interventionNames": ["Drug: paliperidone"]}, {"label": "006", "type": "ACTIVE_COMPARATOR", "description": "perphenazine flexible dosing as prescribed by the study doctor for 15 months", "interventionNames": ["Drug: perphenazine"]}, {"label": "007", "type": "ACTIVE_COMPARATOR", "description": "quetiapine flexible dosing as prescribed by the study doctor for 15 months", "interventionNames": ["Drug: quetiapine"]}, {"label": "008", "type": "ACTIVE_COMPARATOR", "description": "risperidone flexible dosing as prescribed by the study doctor for 15 months", "interventionNames": ["Drug: risperidone"]}], "interventions": [{"type": "DRUG", "name": "paliperidone", "description": "flexible dosing as prescribed by the study doctor for 15 months", "armGroupLabels": ["005"]}, {"type": "DRUG", "name": "risperidone", "description": "flexible dosing as prescribed by the study doctor for 15 months", "armGroupLabels": ["008"]}, {"type": "DRUG", "name": "haloperidole", "description": "flexible dosing as prescribed by the study doctor for 15 months", "armGroupLabels": ["003"]}, {"type": "DRUG", "name": "perphenazine", "description": "flexible dosing as prescribed by the study doctor for 15 months", "armGroupLabels": ["006"]}, {"type": "DRUG", "name": "aripiprazole", "description": "flexible dosing as prescribed by the study doctor for 15 months", "armGroupLabels": ["002"]}, {"type": "DRUG", "name": "quetiapine", "description": "flexible dosing as prescribed by the study doctor for 15 months", "armGroupLabels": ["007"]}, {"type": "DRUG", "name": "paliperidone palmitate", "description": "78, 117, 156, or 234 mg monthly injection for 15 months", "armGroupLabels": ["001"]}, {"type": "DRUG", "name": "olanzapine", "description": "flexible dosing as prescribed by the study doctor for 15 months", "armGroupLabels": ["004"]}]}, "outcomesModule": {"primaryOutcomes": [{"measure": "Time to First Treatment Failure", "description": "Time to first treatment failure was the time from participant randomization to the first treatment failure, which was a composite endpoint consisting of any of the following events: arrest/incarceration, psychiatric hospitalization, discontinuation of antipsychotic treatment due to safety or tolerability, treatment supplementation with another antipsychotic due to inadequate efficacy, discontinuation of antipsychotic treatment due to inadequate efficacy, increase in level of psychiatric services to prevent imminent psychiatric hospitalization, suicide. A Treatment Failure Event Monitoring Board (EMB), blinded to individual participant treatment assignment, determined the occurrence and date of the first treatment failure event.", "timeFrame": "From date of randomization up to Month 15"}, {"measure": "Percentage of Participants in Each Event Category of First Treatment Failure", "description": "First treatment failure was a composite endpoint consisting of any of the following events: arrest/incarceration, psychiatric hospitalization, discontinuation (D/C) of antipsychotic treatment due to safety or tolerability, treatment supplementation with another antipsychotic due to inadequate efficacy, discontinuation of antipsychotic treatment due to inadequate efficacy, increase in level of psychiatric services to prevent imminent psychiatric hospitalization, suicide. A Treatment Failure Event Monitoring Board (EMB), blinded to individual participant treatment assignment, determined the occurrence and date of the first treatment failure event. Percentage of participants who experienced treatment failure due to any event and for each specific category of event were assessed.", "timeFrame": "From date of randomization up to Month 15"}], "secondaryOutcomes": [{"measure": "Time to First Psychiatric Hospitalization or Arrest/Incarceration", "description": "A time to parameter looking only at 2 component events of treatment failure: arrest or incarceration, and psychiatric hospitalization. An arrest was defined as the taking of a participant into custody by legal authority, for any reason. Incarceration was defined as involuntary confinement by an officer of the law. Psychiatric hospitalization was an inpatient psychiatric hospitalization that occurred due to the participant's clinically significant worsening of symptoms of schizophrenia.", "timeFrame": "From date of randomization up to Month 15"}, {"measure": "Change From Baseline in Personal and Social Performance (PSP) Total Score During Overall Treatment Duration", "description": "The PSP score assesses the degree of difficulty a participant exhibit over a 1 month period within 4 domains of behavior: a) socially useful activities, b) personal and social relationships, c) self-care, and d) disturbing and aggressive behavior. The investigators rate participants' degree of difficulty in each of the 4 domains using a 6-point Likert scale (from 0=absent to 5=very severe). The domain ratings were then transformed to PSP total score ranging from 1 to 100. Higher PSP total scores denote better functioning. A score between 71 and 100 represents normal to mild degree of dysfunction; a score between 31 and 70 represents varying degree of difficulty; and a score \\<=30 represents poor function that requires intensive supervision.", "timeFrame": "Baseline up to Month 15"}, {"measure": "Time to First Psychiatric Hospitalization", "description": "A time-to parameter looking only at 1 component event of treatment failure: psychiatric hospitalization. Time to first psychiatric hospitalization was admission date of the psychiatric hospitalization recorded in the \"Assessment of Treatment Failure - Psychiatric Hospitalization.\"", "timeFrame": "From date of randomization up to Month 15"}, {"measure": "Change From Baseline in Clinical Global Impression - Severity (CGI-S) Score During Overall Treatment Duration", "description": "The CGI-S rating scale was a 7-point global assessment of symptom severity with scores determined by clinician as follows: 1=Not ill, 2=Very Mild, 3= Mild, 4= Moderate, 5= Marked, 6= Severe, and 7= Extremely Severe. The higher the score the worse the illness.", "timeFrame": "Baseline up to Month 15"}]}, "eligibilityModule": {"eligibilityCriteria": "Inclusion Criteria:\n\n* Must be able to understand and sign the informed consent form approved by the Institutional Review Board (IRB)\n* Must successfully answer all the questions on the Informed Consent quiz indicating that they understand the purpose of and procedures required for the study and are willing to participate in the study\n* Have a current diagnosis of schizophrenia\n* Taking no more than 1 oral antipsychotic on the day before randomization\n* Have been placed into custody at least twice with one of them leading to incarceration within the 24 months previous to study start, with the last release occurring within the 90 days before the first day of screening\n* in the opinion of the investigator, may benefit from a change in their prior antipsychotic treatment\n* Have available a designated individual (eg, family member, case manager, significant other, probation/parole officer) who has knowledge of the patient and is generally aware of the patient's daily activities, and who agrees to let the study site personnel know of changes in the patients circumstances when the patient is not able to provide this information, ie, arrests, protocol-defined hospitalizations, emergency room visits, becoming homeless, etc.\n* Have either an address or phone number where they can be reached, or be accessible to the designated individual\n* Must agree to receive regular injections for 15 months if randomly assigned to the paliperidone palmitate treatment group, or continue with oral study medication treatment for 15 months if randomly assigned to the oral antipsychotic treatment group\n* Women must be postmenopausal (for at least 2 years), surgically sterile (hysterectomy or bilateral oophorectomy, tubal ligation, or otherwise be incapable of pregnancy), abstinent, or if sexually active, be practicing a highly effective method of birth control\n\nExclusion Criteria:\n\n* Allergies, hypersensitivity (anaphylaxis-type reaction), or intolerance to risperidone or paliperidone\n* Actively abusing intravenous drugs within the past 3 months or have an opiate dependence disorder\n* Have a positive urine drug screen test for barbiturates, cocaine, amphetamines, or opiates at screening\n* Women who are pregnant or breast-feeding, or planning to become pregnant\n* Have received injectable antipsychotic treatment within 2 injection cycles prior to screening\n* Received treatment with clozapine within 3 months of screening\n* Are at a high risk of violence in the next 15 months, in the opinion of the investigator\n* who have a history of sex offenses including felony sex offenses, child molestation", "healthyVolunteers": false, "sex": "ALL", "minimumAge": "18 Years", "maximumAge": "65 Years", "stdAges": ["ADULT", "OLDER_ADULT"]}, "contactsLocationsModule": {"overallOfficials": [{"name": "Janssen Scientific Affairs, LLC Clinical Trial", "affiliation": "Janssen Scientific Affairs, LLC", "role": "STUDY_DIRECTOR"}], "locations": [{"city": "Bullhead City", "state": "Arizona", "country": "United States", "geoPoint": {"lat": 35.14778, "lon": -114.5683}}, {"city": "Tuscon", "state": "Arizona", "country": "United States", "geoPoint": {"lat": 32.22174, "lon": -110.92648}}, {"city": "Little Rock", "state": "Arkansas", "country": "United States", "geoPoint": {"lat": 34.74648, "lon": -92.28959}}, {"city": "Anaheim", "state": "California", "country": "United States", "geoPoint": {"lat": 33.83529, "lon": -117.9145}}, {"city": "Escondido", "state": "California", "country": "United States", "geoPoint": {"lat": 33.11921, "lon": -117.08642}}, {"city": "Glendale", "state": "California", "country": "United States", "geoPoint": {"lat": 34.14251, "lon": -118.25508}}, {"city": "Imperial", "state": "California", "country": "United States", "geoPoint": {"lat": 32.84755, "lon": -115.56944}}, {"city": "Long Beach", "state": "California", "country": "United States", "geoPoint": {"lat": 33.76696, "lon": -118.18923}}, {"city": "National City", "state": "California", "country": "United States", "geoPoint": {"lat": 32.67811, "lon": -117.0992}}, {"city": "Oakland", "state": "California", "country": "United States", "geoPoint": {"lat": 37.80437, "lon": -122.2708}}, {"city": "Oceanside", "state": "California", "country": "United States", "geoPoint": {"lat": 33.19587, "lon": -117.37948}}, {"city": "Pico Rivera", "state": "California", "country": "United States", "geoPoint": {"lat": 33.98307, "lon": -118.09673}}, {"city": "Riverside", "state": "California", "country": "United States", "geoPoint": {"lat": 33.95335, "lon": -117.39616}}, {"city": "San Bernadino", "state": "California", "country": "United States", "geoPoint": {"lat": 34.10834, "lon": -117.28977}}, {"city": "San Diego", "state": "California", "country": "United States", "geoPoint": {"lat": 32.71533, "lon": -117.15726}}, {"city": "San Fran Cisco", "state": "California", "country": "United States", "geoPoint": {"lat": 37.77493, "lon": -122.41942}}, {"city": "New Britain", "state": "Connecticut", "country": "United States", "geoPoint": {"lat": 41.66121, "lon": -72.77954}}, {"city": "New London", "state": "Connecticut", "country": "United States", "geoPoint": {"lat": 41.35565, "lon": -72.09952}}, {"city": "Leesburg", "state": "Florida", "country": "United States", "geoPoint": {"lat": 28.81082, "lon": -81.87786}}, {"city": "Miami Gardens", "state": "Florida", "country": "United States", "geoPoint": {"lat": 25.94298, "lon": -80.24452}}, {"city": "Miami", "state": "Florida", "country": "United States", "geoPoint": {"lat": 25.77427, "lon": -80.19366}}, {"city": "Pensacola", "state": "Florida", "country": "United States", "geoPoint": {"lat": 30.42131, "lon": -87.21691}}, {"city": "Tamarac", "state": "Florida", "country": "United States", "geoPoint": {"lat": 26.21286, "lon": -80.24977}}, {"city": "Tampa", "state": "Florida", "country": "United States", "geoPoint": {"lat": 27.94752, "lon": -82.45843}}, {"city": "Honolulu", "state": "Hawaii", "country": "United States", "geoPoint": {"lat": 21.30694, "lon": -157.85833}}, {"city": "Chicago", "state": "Illinois", "country": "United States", "geoPoint": {"lat": 41.85003, "lon": -87.65005}}, {"city": "Hoffman Estates", "state": "Illinois", "country": "United States", "geoPoint": {"lat": 42.04281, "lon": -88.0798}}, {"city": "Naperville", "state": "Illinois", "country": "United States", "geoPoint": {"lat": 41.78586, "lon": -88.14729}}, {"city": "Springfield", "state": "Illinois", "country": "United States", "geoPoint": {"lat": 39.80172, "lon": -89.64371}}, {"city": "Wichita", "state": "Kansas", "country": "United States", "geoPoint": {"lat": 37.69224, "lon": -97.33754}}, {"city": "Witchita", "state": "Kansas", "country": "United States", "geoPoint": {"lat": 37.69224, "lon": -97.33754}}, {"city": "New Orleans", "state": "Louisiana", "country": "United States", "geoPoint": {"lat": 29.95465, "lon": -90.07507}}, {"city": "Shreveport", "state": "Louisiana", "country": "United States", "geoPoint": {"lat": 32.52515, "lon": -93.75018}}, {"city": "Flowood", "state": "Mississippi", "country": "United States", "geoPoint": {"lat": 32.30959, "lon": -90.13898}}, {"city": "Kansas City", "state": "Missouri", "country": "United States", "geoPoint": {"lat": 39.09973, "lon": -94.57857}}, {"city": "Omaha", "state": "Nebraska", "country": "United States", "geoPoint": {"lat": 41.25626, "lon": -95.94043}}, {"city": "Las Vegas", "state": "Nevada", "country": "United States", "geoPoint": {"lat": 36.17497, "lon": -115.13722}}, {"city": "Paramus", "state": "New Jersey", "country": "United States", "geoPoint": {"lat": 40.94454, "lon": -74.07542}}, {"city": "Willingboro", "state": "New Jersey", "country": "United States", "geoPoint": {"lat": 40.02789, "lon": -74.86905}}, {"city": "Buffalo", "state": "New York", "country": "United States", "geoPoint": {"lat": 42.88645, "lon": -78.87837}}, {"city": "New York", "state": "New York", "country": "United States", "geoPoint": {"lat": 40.71427, "lon": -74.00597}}, {"city": "Cleveland", "state": "Ohio", "country": "United States", "geoPoint": {"lat": 41.4995, "lon": -81.69541}}, {"city": "Middleburg Heights", "state": "Ohio", "country": "United States", "geoPoint": {"lat": 41.36144, "lon": -81.81291}}, {"city": "Willoughby", "state": "Ohio", "country": "United States", "geoPoint": {"lat": 41.63977, "lon": -81.4065}}, {"city": "Oklahoma City", "state": "Oklahoma", "country": "United States", "geoPoint": {"lat": 35.46756, "lon": -97.51643}}, {"city": "Allentown", "state": "Pennsylvania", "country": "United States", "geoPoint": {"lat": 40.60843, "lon": -75.49018}}, {"city": "Philadelphia", "state": "Pennsylvania", "country": "United States", "geoPoint": {"lat": 39.95233, "lon": -75.16379}}, {"city": "Charleston", "state": "South Carolina", "country": "United States", "geoPoint": {"lat": 32.77657, "lon": -79.93092}}, {"city": "Nashville", "state": "Tennessee", "country": "United States", "geoPoint": {"lat": 36.16589, "lon": -86.78444}}, {"city": "Desoto", "state": "Texas", "country": "United States", "geoPoint": {"lat": 32.58986, "lon": -96.85695}}, {"city": "Irving", "state": "Texas", "country": "United States", "geoPoint": {"lat": 32.81402, "lon": -96.94889}}, {"city": "San Antonio", "state": "Texas", "country": "United States", "geoPoint": {"lat": 29.42412, "lon": -98.49363}}, {"city": "Wharton", "state": "Texas", "country": "United States", "geoPoint": {"lat": 29.31164, "lon": -96.10274}}, {"city": "Bothell", "state": "Washington", "country": "United States", "geoPoint": {"lat": 47.76232, "lon": -122.2054}}, {"city": "Spokane", "state": "Washington", "country": "United States", "geoPoint": {"lat": 47.65966, "lon": -117.42908}}, {"city": "Rio Piedras", "country": "Puerto Rico", "geoPoint": {"lat": 18.39745, "lon": -66.04989}}]}, "referencesModule": {"references": [{"pmid": "33988924", "type": "DERIVED", "citation": "Bell Lynum KS, Henderson DC, Wright HJ, Gogate JP, Kim E. Treatment Effect With Paliperidone Palmitate Compared With Oral Antipsychotics in Black/African American Patients With Schizophrenia and a History of Criminal Justice System Involvement: A Post Hoc Analysis of the PRIDE Study. J Clin Psychiatry. 2021 Feb 23;82(2):20m13356. doi: 10.4088/JCP.20m13356."}, {"pmid": "26742509", "type": "DERIVED", "citation": "Alphs L, Mao L, Lynn Starr H, Benson C. A pragmatic analysis comparing once-monthly paliperidone palmitate versus daily oral antipsychotic treatment in patients with schizophrenia. Schizophr Res. 2016 Feb;170(2-3):259-64. doi: 10.1016/j.schres.2015.12.012. Epub 2015 Dec 29."}, {"pmid": "26403322", "type": "DERIVED", "citation": "Alphs L, Bossie C, Mao L, Lee E, Starr HL. Treatment effect with paliperidone palmitate compared with oral antipsychotics in patients with recent-onset versus more chronic schizophrenia and a history of criminal justice system involvement. Early Interv Psychiatry. 2018 Feb;12(1):55-65. doi: 10.1111/eip.12271. Epub 2015 Sep 25."}, {"pmid": "25938474", "type": "DERIVED", "citation": "Alphs L, Benson C, Cheshire-Kinney K, Lindenmayer JP, Mao L, Rodriguez SC, Starr HL. Real-world outcomes of paliperidone palmitate compared to daily oral antipsychotic therapy in schizophrenia: a randomized, open-label, review board-blinded 15-month study. J Clin Psychiatry. 2015 May;76(5):554-61. doi: 10.4088/JCP.14m09584."}, {"pmid": "25375367", "type": "DERIVED", "citation": "Alphs L, Mao L, Rodriguez SC, Hulihan J, Starr HL. Design and rationale of the Paliperidone Palmitate Research in Demonstrating Effectiveness (PRIDE) study: a novel comparative trial of once-monthly paliperidone palmitate versus daily oral antipsychotic treatment for delaying time to treatment failure in persons with schizophrenia. J Clin Psychiatry. 2014 Dec;75(12):1388-93. doi: 10.4088/JCP.13m08965."}]}}, "resultsSection": {"participantFlowModule": {"groups": [{"id": "FG000", "title": "Paliperidone Palmitate", "description": "Intramuscular injection, 234 milligram (mg) on Day 1, 156 mg on Day 8, followed by flexible monthly maintenance dosing as per investigator's discretion starting on Day 38 up to 15 months."}, {"id": "FG001", "title": "Oral Antipsychotics", "description": "One of 7 oral antipsychotics (aripiprazole, haloperidol, olanzapine, paliperidone, perphenazine, quetiapine, and risperidone) that the investigator specified as appropriate for the participant was administered as per clinical practice for up to 15 months."}], "periods": [{"title": "Overall Study", "milestones": [{"type": "STARTED", "achievements": [{"groupId": "FG000", "numSubjects": "230"}, {"groupId": "FG001", "numSubjects": "220"}]}, {"type": "Treated", "achievements": [{"groupId": "FG000", "numSubjects": "226"}, {"groupId": "FG001", "numSubjects": "218"}]}, {"type": "COMPLETED", "achievements": [{"groupId": "FG000", "numSubjects": "93"}, {"groupId": "FG001", "numSubjects": "88"}]}, {"type": "NOT COMPLETED", "achievements": [{"groupId": "FG000", "numSubjects": "137"}, {"groupId": "FG001", "numSubjects": "132"}]}], "dropWithdraws": [{"type": "Adverse Event", "reasons": [{"groupId": "FG000", "numSubjects": "5"}, {"groupId": "FG001", "numSubjects": "4"}]}, {"type": "Death", "reasons": [{"groupId": "FG000", "numSubjects": "1"}, {"groupId": "FG001", "numSubjects": "0"}]}, {"type": "Lost to Follow-up", "reasons": [{"groupId": "FG000", "numSubjects": "53"}, {"groupId": "FG001", "numSubjects": "55"}]}, {"type": "Withdrawal by Subject", "reasons": [{"groupId": "FG000", "numSubjects": "37"}, {"groupId": "FG001", "numSubjects": "27"}]}, {"type": "Physician Decision", "reasons": [{"groupId": "FG000", "numSubjects": "5"}, {"groupId": "FG001", "numSubjects": "4"}]}, {"type": "Protocol Violation", "reasons": [{"groupId": "FG000", "numSubjects": "0"}, {"groupId": "FG001", "numSubjects": "1"}]}, {"type": "Other", "reasons": [{"groupId": "FG000", "numSubjects": "32"}, {"groupId": "FG001", "numSubjects": "36"}]}, {"type": "Noncompliance with Study Drug", "reasons": [{"groupId": "FG000", "numSubjects": "0"}, {"groupId": "FG001", "numSubjects": "3"}]}, {"type": "Randomized but not Treated", "reasons": [{"groupId": "FG000", "numSubjects": "4"}, {"groupId": "FG001", "numSubjects": "2"}]}]}]}, "baselineCharacteristicsModule": {"populationDescription": "Intent to Treat (ITT) population included all participants who were randomly assigned to treatment and who received at least 1 dose of their randomly assigned study treatment.", "groups": [{"id": "BG000", "title": "Paliperidone Palmitate", "description": "Intramuscular injection, 234 milligram (mg) on Day 1, 156 mg on Day 8, followed by flexible monthly maintenance dosing as per investigator's discretion starting on Day 38 up to 15 months."}, {"id": "BG001", "title": "Oral Antipsychotics", "description": "One of 7 oral antipsychotics (aripiprazole, haloperidol, olanzapine, paliperidone, perphenazine, quetiapine, and risperidone) that the investigator specified as appropriate for the participant was administered as per clinical practice for up to 15 months."}, {"id": "BG002", "title": "Total", "description": "Total of all reporting groups"}], "denoms": [{"units": "Participants", "counts": [{"groupId": "BG000", "value": "226"}, {"groupId": "BG001", "value": "218"}, {"groupId": "BG002", "value": "444"}]}], "measures": [{"title": "Age, Continuous", "paramType": "MEAN", "dispersionType": "STANDARD_DEVIATION", "unitOfMeasure": "years", "classes": [{"categories": [{"measurements": [{"groupId": "BG000", "value": "37.7", "spread": "10.57"}, {"groupId": "BG001", "value": "38.6", "spread": "10.36"}, {"groupId": "BG002", "value": "38.1", "spread": "10.47"}]}]}]}, {"title": "Sex: Female, Male", "paramType": "COUNT_OF_PARTICIPANTS", "unitOfMeasure": "Participants", "classes": [{"categories": [{"title": "Female", "measurements": [{"groupId": "BG000", "value": "33"}, {"groupId": "BG001", "value": "28"}, {"groupId": "BG002", "value": "61"}]}, {"title": "Male", "measurements": [{"groupId": "BG000", "value": "193"}, {"groupId": "BG001", "value": "190"}, {"groupId": "BG002", "value": "383"}]}]}]}, {"title": "Baseline Personal and Social Performance (PSP) Total Score", "description": "The PSP score assesses degree of difficulty within 4 domains of behavior using 6-point Likert scale(0=absent to 5=very severe).The domain ratings were then transformed to PSP total score ranging from 1 to 100. Higher PSP total scores=better functioning.", "paramType": "MEAN", "dispersionType": "STANDARD_DEVIATION", "unitOfMeasure": "Units on a scale", "classes": [{"categories": [{"measurements": [{"groupId": "BG000", "value": "54.8", "spread": "12.83"}, {"groupId": "BG001", "value": "55.0", "spread": "12.73"}, {"groupId": "BG002", "value": "54.9", "spread": "12.76"}]}]}]}, {"title": "Baseline Clinical Global Impression - Severity (CGI-S) Total Score", "description": "The CGI-S rating scale was a 7-point global assessment of symptom severity with scores determined by clinician as follows: 1=Not ill, 2=Very Mild, 3= Mild, 4= Moderate, 5= Marked, 6= Severe, and 7= Extremely Severe. The higher the score the worse the illness.", "paramType": "MEAN", "dispersionType": "STANDARD_DEVIATION", "unitOfMeasure": "Units on a scale", "classes": [{"categories": [{"measurements": [{"groupId": "BG000", "value": "3.8", "spread": "0.80"}, {"groupId": "BG001", "value": "3.9", "spread": "0.70"}, {"groupId": "BG002", "value": "3.8", "spread": "0.75"}]}]}]}]}, "outcomeMeasuresModule": {"outcomeMeasures": [{"type": "PRIMARY", "title": "Time to First Treatment Failure", "description": "Time to first treatment failure was the time from participant randomization to the first treatment failure, which was a composite endpoint consisting of any of the following events: arrest/incarceration, psychiatric hospitalization, discontinuation of antipsychotic treatment due to safety or tolerability, treatment supplementation with another antipsychotic due to inadequate efficacy, discontinuation of antipsychotic treatment due to inadequate efficacy, increase in level of psychiatric services to prevent imminent psychiatric hospitalization, suicide. A Treatment Failure Event Monitoring Board (EMB), blinded to individual participant treatment assignment, determined the occurrence and date of the first treatment failure event.", "populationDescription": "Explanatory Intent-to-Treat (eITT) population included all ITT participants who had their study assessments for time period between randomization date and eITT end point. The eITT end point for paliperidone palmitate was the last injection date+28 days and for oral antipsychotics was the last prescription date + the number of days' supply + 1 day.", "reportingStatus": "POSTED", "paramType": "MEDIAN", "dispersionType": "95% Confidence Interval", "unitOfMeasure": "Days", "timeFrame": "From date of randomization up to Month 15", "groups": [{"id": "OG000", "title": "Paliperidone Palmitate", "description": "Intramuscular injection, 234 milligram (mg) on Day 1, 156 mg on Day 8, followed by flexible monthly maintenance dosing as per investigator's discretion starting on Day 38 up to 15 months."}, {"id": "OG001", "title": "Oral Antipsychotics", "description": "One of 7 oral antipsychotics (aripiprazole, haloperidol, olanzapine, paliperidone, perphenazine, quetiapine, and risperidone) that the investigator specified as appropriate for the participant was administered as per clinical practice for up to 15 months."}], "denoms": [{"units": "Participants", "counts": [{"groupId": "OG000", "value": "226"}, {"groupId": "OG001", "value": "218"}]}], "classes": [{"categories": [{"measurements": [{"groupId": "OG000", "value": "416", "lowerLimit": "285", "upperLimit": "NA", "comment": "Upper limit of 95 percent (%) confidence interval was not estimable due to insufficient number of participants with event."}, {"groupId": "OG001", "value": "226", "lowerLimit": "147", "upperLimit": "304"}]}]}]}, {"type": "SECONDARY", "title": "Time to First Psychiatric Hospitalization or Arrest/Incarceration", "description": "A time to parameter looking only at 2 component events of treatment failure: arrest or incarceration, and psychiatric hospitalization. An arrest was defined as the taking of a participant into custody by legal authority, for any reason. Incarceration was defined as involuntary confinement by an officer of the law. Psychiatric hospitalization was an inpatient psychiatric hospitalization that occurred due to the participant's clinically significant worsening of symptoms of schizophrenia.", "populationDescription": "eITT population included all ITT participants who had their study assessments for time period between randomization date and eITT end point. The eITT end point for paliperidone palmitate was the last injection date+28 days and for oral antipsychotics was the last prescription date + the number of days' supply + 1 day.", "reportingStatus": "POSTED", "paramType": "MEDIAN", "dispersionType": "95% Confidence Interval", "unitOfMeasure": "Days", "timeFrame": "From date of randomization up to Month 15", "groups": [{"id": "OG000", "title": "Paliperidone Palmitate", "description": "Intramuscular injection, 234 milligram (mg) on Day 1, 156 mg on Day 8, followed by flexible monthly maintenance dosing as per investigator's discretion starting on Day 38 up to 15 months."}, {"id": "OG001", "title": "Oral Antipsychotics", "description": "One of 7 oral antipsychotics (aripiprazole, haloperidol, olanzapine, paliperidone, perphenazine, quetiapine, and risperidone) that the investigator specified as appropriate for the participant was administered as per clinical practice for up to 15 months."}], "denoms": [{"units": "Participants", "counts": [{"groupId": "OG000", "value": "226"}, {"groupId": "OG001", "value": "218"}]}], "classes": [{"categories": [{"measurements": [{"groupId": "OG000", "value": "NA", "lowerLimit": "NA", "upperLimit": "NA", "comment": "Median and 95% confidence interval was not estimable due to insufficient number of participants with event."}, {"groupId": "OG001", "value": "274", "lowerLimit": "202", "upperLimit": "407"}]}]}]}, {"type": "SECONDARY", "title": "Change From Baseline in Personal and Social Performance (PSP) Total Score During Overall Treatment Duration", "description": "The PSP score assesses the degree of difficulty a participant exhibit over a 1 month period within 4 domains of behavior: a) socially useful activities, b) personal and social relationships, c) self-care, and d) disturbing and aggressive behavior. The investigators rate participants' degree of difficulty in each of the 4 domains using a 6-point Likert scale (from 0=absent to 5=very severe). The domain ratings were then transformed to PSP total score ranging from 1 to 100. Higher PSP total scores denote better functioning. A score between 71 and 100 represents normal to mild degree of dysfunction; a score between 31 and 70 represents varying degree of difficulty; and a score \\<=30 represents poor function that requires intensive supervision.", "populationDescription": "eITT population. 'N' (number of participants analyzed) signifies participants who were evaluable for this outcome measure.", "reportingStatus": "POSTED", "paramType": "LEAST_SQUARES_MEAN", "dispersionType": "Standard Error", "unitOfMeasure": "Units on a scale", "timeFrame": "Baseline up to Month 15", "groups": [{"id": "OG000", "title": "Paliperidone Palmitate", "description": "Intramuscular injection, 234 milligram (mg) on Day 1, 156 mg on Day 8, followed by flexible monthly maintenance dosing as per investigator's discretion starting on Day 38 up to 15 months."}, {"id": "OG001", "title": "Oral Antipsychotics", "description": "One of 7 oral antipsychotics (aripiprazole, haloperidol, olanzapine, paliperidone, perphenazine, quetiapine, and risperidone) that the investigator specified as appropriate for the participant was administered as per clinical practice for up to 15 months."}], "denoms": [{"units": "Participants", "counts": [{"groupId": "OG000", "value": "203"}, {"groupId": "OG001", "value": "185"}]}], "classes": [{"categories": [{"measurements": [{"groupId": "OG000", "value": "5.75", "spread": "0.690"}, {"groupId": "OG001", "value": "5.36", "spread": "0.690"}]}]}]}, {"type": "SECONDARY", "title": "Time to First Psychiatric Hospitalization", "description": "A time-to parameter looking only at 1 component event of treatment failure: psychiatric hospitalization. Time to first psychiatric hospitalization was admission date of the psychiatric hospitalization recorded in the \"Assessment of Treatment Failure - Psychiatric Hospitalization.\"", "populationDescription": "eITT population included all ITT participants who had their study assessments for time period between randomization date and eITT end point. The eITT end point for paliperidone palmitate was the last injection date+28 days and for oral antipsychotics was the last prescription date + the number of days' supply + 1 day.", "reportingStatus": "POSTED", "paramType": "MEDIAN", "dispersionType": "95% Confidence Interval", "unitOfMeasure": "Days", "timeFrame": "From date of randomization up to Month 15", "groups": [{"id": "OG000", "title": "Paliperidone Palmitate", "description": "Intramuscular injection, 234 milligram (mg) on Day 1, 156 mg on Day 8, followed by flexible monthly maintenance dosing as per investigator's discretion starting on Day 38 up to 15 months."}, {"id": "OG001", "title": "Oral Antipsychotics", "description": "One of 7 oral antipsychotics (aripiprazole, haloperidol, olanzapine, paliperidone, perphenazine, quetiapine, and risperidone) that the investigator specified as appropriate for the participant was administered as per clinical practice for up to 15 months."}], "denoms": [{"units": "Participants", "counts": [{"groupId": "OG000", "value": "226"}, {"groupId": "OG001", "value": "218"}]}], "classes": [{"categories": [{"measurements": [{"groupId": "OG000", "value": "NA", "lowerLimit": "NA", "upperLimit": "NA", "comment": "Median and 95% confidence interval was not estimable due to insufficient number of participants with event."}, {"groupId": "OG001", "value": "NA", "lowerLimit": "NA", "upperLimit": "NA", "comment": "Median and 95% confidence interval was not estimable due to insufficient number of participants with event."}]}]}]}, {"type": "SECONDARY", "title": "Change From Baseline in Clinical Global Impression - Severity (CGI-S) Score During Overall Treatment Duration", "description": "The CGI-S rating scale was a 7-point global assessment of symptom severity with scores determined by clinician as follows: 1=Not ill, 2=Very Mild, 3= Mild, 4= Moderate, 5= Marked, 6= Severe, and 7= Extremely Severe. The higher the score the worse the illness.", "populationDescription": "eITT population. 'N' (number of participants analyzed) signifies participants who were evaluable for this outcome measure.", "reportingStatus": "POSTED", "paramType": "LEAST_SQUARES_MEAN", "dispersionType": "Standard Error", "unitOfMeasure": "Units on a scale", "timeFrame": "Baseline up to Month 15", "groups": [{"id": "OG000", "title": "Paliperidone Palmitate", "description": "Intramuscular injection, 234 milligram (mg) on Day 1, 156 mg on Day 8, followed by flexible monthly maintenance dosing as per investigator's discretion starting on Day 38 up to 15 months."}, {"id": "OG001", "title": "Oral Antipsychotics", "description": "One of 7 oral antipsychotics (aripiprazole, haloperidol, olanzapine, paliperidone, perphenazine, quetiapine, and risperidone) that the investigator specified as appropriate for the participant was administered as per clinical practice for up to 15 months."}], "denoms": [{"units": "Participants", "counts": [{"groupId": "OG000", "value": "219"}, {"groupId": "OG001", "value": "205"}]}], "classes": [{"categories": [{"measurements": [{"groupId": "OG000", "value": "-0.48", "spread": "0.038"}, {"groupId": "OG001", "value": "-0.43", "spread": "0.037"}]}]}]}, {"type": "PRIMARY", "title": "Percentage of Participants in Each Event Category of First Treatment Failure", "description": "First treatment failure was a composite endpoint consisting of any of the following events: arrest/incarceration, psychiatric hospitalization, discontinuation (D/C) of antipsychotic treatment due to safety or tolerability, treatment supplementation with another antipsychotic due to inadequate efficacy, discontinuation of antipsychotic treatment due to inadequate efficacy, increase in level of psychiatric services to prevent imminent psychiatric hospitalization, suicide. A Treatment Failure Event Monitoring Board (EMB), blinded to individual participant treatment assignment, determined the occurrence and date of the first treatment failure event. Percentage of participants who experienced treatment failure due to any event and for each specific category of event were assessed.", "populationDescription": "eITT population included all ITT participants who had their study assessments for time period between randomization date and eITT end point. The eITT end point for paliperidone palmitate was the last injection date+28 days and for oral antipsychotics was the last prescription date + the number of days' supply + 1 day.", "reportingStatus": "POSTED", "paramType": "NUMBER", "unitOfMeasure": "percentage of participants", "timeFrame": "From date of randomization up to Month 15", "groups": [{"id": "OG000", "title": "Paliperidone Palmitate", "description": "Intramuscular injection, 234 milligram (mg) on Day 1, 156 mg on Day 8, followed by flexible monthly maintenance dosing as per investigator's discretion starting on Day 38 up to 15 months."}, {"id": "OG001", "title": "Oral Antipsychotics", "description": "One of 7 oral antipsychotics (aripiprazole, haloperidol, olanzapine, paliperidone, perphenazine, quetiapine, and risperidone) that the investigator specified as appropriate for the participant was administered as per clinical practice for up to 15 months."}], "denoms": [{"units": "Participants", "counts": [{"groupId": "OG000", "value": "226"}, {"groupId": "OG001", "value": "218"}]}], "classes": [{"title": "Treatment Failure Due to Any Event", "categories": [{"measurements": [{"groupId": "OG000", "value": "39.8"}, {"groupId": "OG001", "value": "53.7"}]}]}, {"title": "Arrest/incarceration", "categories": [{"measurements": [{"groupId": "OG000", "value": "21.2"}, {"groupId": "OG001", "value": "29.4"}]}]}, {"title": "Psychiatric hospitalization", "categories": [{"measurements": [{"groupId": "OG000", "value": "8.0"}, {"groupId": "OG001", "value": "11.9"}]}]}, {"title": "D/C due to safety/tolerability", "categories": [{"measurements": [{"groupId": "OG000", "value": "6.6"}, {"groupId": "OG001", "value": "3.7"}]}]}, {"title": "Treatment supplementation", "categories": [{"measurements": [{"groupId": "OG000", "value": "2.2"}, {"groupId": "OG001", "value": "2.8"}]}]}, {"title": "D/C due to inadequate efficacy", "categories": [{"measurements": [{"groupId": "OG000", "value": "0.4"}, {"groupId": "OG001", "value": "4.1"}]}]}, {"title": "Increase in level of psychiatric services", "categories": [{"measurements": [{"groupId": "OG000", "value": "1.3"}, {"groupId": "OG001", "value": "1.8"}]}]}, {"title": "Suicide", "categories": [{"measurements": [{"groupId": "OG000", "value": "0"}, {"groupId": "OG001", "value": "0"}]}]}]}]}, "adverseEventsModule": {"frequencyThreshold": "2", "description": "Intent to Treat (ITT) population included all participants who were randomly assigned to treatment and who received at least 1 dose of their randomly assigned study treatment.", "eventGroups": [{"id": "EG000", "title": "Paliperidone Palmitate", "description": "Intramuscular injection, 234 milligram (mg) on Day 1, 156 mg on Day 8, followed by flexible monthly maintenance dosing as per investigator's discretion starting on Day 38 up to 15 months.", "seriousNumAffected": 42, "seriousNumAtRisk": 226, "otherNumAffected": 178, "otherNumAtRisk": 226}, {"id": "EG001", "title": "Oral Antipsychotics", "description": "One of 7 oral antipsychotics (aripiprazole, haloperidol, olanzapine, paliperidone, perphenazine, quetiapine, and risperidone) that the investigator specified as appropriate for the participant was administered as per clinical practice for up to 15 months.", "seriousNumAffected": 53, "seriousNumAtRisk": 218, "otherNumAffected": 155, "otherNumAtRisk": 218}], "seriousEvents": [{"term": "Cardiac Failure Congestive", "organSystem": "Cardiac disorders", "sourceVocabulary": "MedDRA Version 12.0", "assessmentType": "NON_SYSTEMATIC_ASSESSMENT", "stats": [{"groupId": "EG000", "numAffected": 0, "numAtRisk": 226}, {"groupId": "EG001", "numAffected": 1, "numAtRisk": 218}]}, {"term": "Coronary Artery Disease", "organSystem": "Cardiac disorders", "sourceVocabulary": "MedDRA Version 12.0", "assessmentType": "NON_SYSTEMATIC_ASSESSMENT", "stats": [{"groupId": "EG000", "numAffected": 0, "numAtRisk": 226}, {"groupId": "EG001", "numAffected": 1, "numAtRisk": 218}]}, {"term": "Haematemesis", "organSystem": "Gastrointestinal disorders", "sourceVocabulary": "MedDRA Version 12.0", "assessmentType": "NON_SYSTEMATIC_ASSESSMENT", "stats": [{"groupId": "EG000", "numAffected": 1, "numAtRisk": 226}, {"groupId": "EG001", "numAffected": 0, "numAtRisk": 218}]}, {"term": "Intestinal Obstruction", "organSystem": "Gastrointestinal disorders", "sourceVocabulary": "MedDRA Version 12.0", "assessmentType": "NON_SYSTEMATIC_ASSESSMENT", "stats": [{"groupId": "EG000", "numAffected": 1, "numAtRisk": 226}, {"groupId": "EG001", "numAffected": 0, "numAtRisk": 218}]}, {"term": "Vomiting", "organSystem": "Gastrointestinal disorders", "sourceVocabulary": "MedDRA Version 12.0", "assessmentType": "NON_SYSTEMATIC_ASSESSMENT", "stats": [{"groupId": "EG000", "numAffected": 1, "numAtRisk": 226}, {"groupId": "EG001", "numAffected": 0, "numAtRisk": 218}]}, {"term": "Asthenia", "organSystem": "General disorders", "sourceVocabulary": "MedDRA Version 12.0", "assessmentType": "NON_SYSTEMATIC_ASSESSMENT", "stats": [{"groupId": "EG000", "numAffected": 0, "numAtRisk": 226}, {"groupId": "EG001", "numAffected": 1, "numAtRisk": 218}]}, {"term": "Chest Pain", "organSystem": "General disorders", "sourceVocabulary": "MedDRA Version 12.0", "assessmentType": "NON_SYSTEMATIC_ASSESSMENT", "stats": [{"groupId": "EG000", "numAffected": 0, "numAtRisk": 226}, {"groupId": "EG001", "numAffected": 1, "numAtRisk": 218}]}, {"term": "Drug Withdrawal Syndrome", "organSystem": "General disorders", "sourceVocabulary": "MedDRA Version 12.0", "assessmentType": "NON_SYSTEMATIC_ASSESSMENT", "stats": [{"groupId": "EG000", "numAffected": 0, "numAtRisk": 226}, {"groupId": "EG001", "numAffected": 1, "numAtRisk": 218}]}, {"term": "Non-cardiac Chest Pain", "organSystem": "General disorders", "sourceVocabulary": "MedDRA Version 12.0", "assessmentType": "NON_SYSTEMATIC_ASSESSMENT", "stats": [{"groupId": "EG000", "numAffected": 1, "numAtRisk": 226}, {"groupId": "EG001", "numAffected": 0, "numAtRisk": 218}]}, {"term": "Sudden Death", "organSystem": "General disorders", "sourceVocabulary": "MedDRA Version 12.0", "assessmentType": "NON_SYSTEMATIC_ASSESSMENT", "stats": [{"groupId": "EG000", "numAffected": 1, "numAtRisk": 226}, {"groupId": "EG001", "numAffected": 0, "numAtRisk": 218}]}, {"term": "Hypersensitivity", "organSystem": "Immune system disorders", "sourceVocabulary": "MedDRA Version 12.0", "assessmentType": "NON_SYSTEMATIC_ASSESSMENT", "stats": [{"groupId": "EG000", "numAffected": 0, "numAtRisk": 226}, {"groupId": "EG001", "numAffected": 1, "numAtRisk": 218}]}, {"term": "Acquired Immunodeficiency Syndrome", "organSystem": "Infections and infestations", "sourceVocabulary": "MedDRA Version 12.0", "assessmentType": "NON_SYSTEMATIC_ASSESSMENT", "stats": [{"groupId": "EG000", "numAffected": 1, "numAtRisk": 226}, {"groupId": "EG001", "numAffected": 0, "numAtRisk": 218}]}, {"term": "Cellulitis", "organSystem": "Infections and infestations", "sourceVocabulary": "MedDRA Version 12.0", "assessmentType": "NON_SYSTEMATIC_ASSESSMENT", "stats": [{"groupId": "EG000", "numAffected": 2, "numAtRisk": 226}, {"groupId": "EG001", "numAffected": 1, "numAtRisk": 218}]}, {"term": "Cholecystitis Infective", "organSystem": "Infections and infestations", "sourceVocabulary": "MedDRA Version 12.0", "assessmentType": "NON_SYSTEMATIC_ASSESSMENT", "stats": [{"groupId": "EG000", "numAffected": 0, "numAtRisk": 226}, {"groupId": "EG001", "numAffected": 1, "numAtRisk": 218}]}, {"term": "H1N1 Influenza", "organSystem": "Infections and infestations", "sourceVocabulary": "MedDRA Version 12.0", "assessmentType": "NON_SYSTEMATIC_ASSESSMENT", "stats": [{"groupId": "EG000", "numAffected": 1, "numAtRisk": 226}, {"groupId": "EG001", "numAffected": 0, "numAtRisk": 218}]}, {"term": "HIV Infection", "organSystem": "Infections and infestations", "sourceVocabulary": "MedDRA Version 12.0", "assessmentType": "NON_SYSTEMATIC_ASSESSMENT", "stats": [{"groupId": "EG000", "numAffected": 1, "numAtRisk": 226}, {"groupId": "EG001", "numAffected": 0, "numAtRisk": 218}]}, {"term": "Otitis Media", "organSystem": "Infections and infestations", "sourceVocabulary": "MedDRA Version 12.0", "assessmentType": "NON_SYSTEMATIC_ASSESSMENT", "stats": [{"groupId": "EG000", "numAffected": 0, "numAtRisk": 226}, {"groupId": "EG001", "numAffected": 1, "numAtRisk": 218}]}, {"term": "Pneumonia", "organSystem": "Infections and infestations", "sourceVocabulary": "MedDRA Version 12.0", "assessmentType": "NON_SYSTEMATIC_ASSESSMENT", "stats": [{"groupId": "EG000", "numAffected": 1, "numAtRisk": 226}, {"groupId": "EG001", "numAffected": 1, "numAtRisk": 218}]}, {"term": "Sepsis", "organSystem": "Infections and infestations", "sourceVocabulary": "MedDRA Version 12.0", "assessmentType": "NON_SYSTEMATIC_ASSESSMENT", "stats": [{"groupId": "EG000", "numAffected": 1, "numAtRisk": 226}, {"groupId": "EG001", "numAffected": 0, "numAtRisk": 218}]}, {"term": "Wound Infection", "organSystem": "Infections and infestations", "sourceVocabulary": "MedDRA Version 12.0", "assessmentType": "NON_SYSTEMATIC_ASSESSMENT", "stats": [{"groupId": "EG000", "numAffected": 0, "numAtRisk": 226}, {"groupId": "EG001", "numAffected": 1, "numAtRisk": 218}]}, {"term": "Accidental Overdose", "organSystem": "Injury, poisoning and procedural complications", "sourceVocabulary": "MedDRA Version 12.0", "assessmentType": "NON_SYSTEMATIC_ASSESSMENT", "stats": [{"groupId": "EG000", "numAffected": 1, "numAtRisk": 226}, {"groupId": "EG001", "numAffected": 0, "numAtRisk": 218}]}, {"term": "Alcohol Poisoning", "organSystem": "Injury, poisoning and procedural complications", "sourceVocabulary": "MedDRA Version 12.0", "assessmentType": "NON_SYSTEMATIC_ASSESSMENT", "stats": [{"groupId": "EG000", "numAffected": 1, "numAtRisk": 226}, {"groupId": "EG001", "numAffected": 0, "numAtRisk": 218}]}, {"term": "Gun Shot Wound", "organSystem": "Injury, poisoning and procedural complications", "sourceVocabulary": "MedDRA Version 12.0", "assessmentType": "NON_SYSTEMATIC_ASSESSMENT", "stats": [{"groupId": "EG000", "numAffected": 0, "numAtRisk": 226}, {"groupId": "EG001", "numAffected": 1, "numAtRisk": 218}]}, {"term": "Hip Fracture", "organSystem": "Injury, poisoning and procedural complications", "sourceVocabulary": "MedDRA Version 12.0", "assessmentType": "NON_SYSTEMATIC_ASSESSMENT", "stats": [{"groupId": "EG000", "numAffected": 0, "numAtRisk": 226}, {"groupId": "EG001", "numAffected": 1, "numAtRisk": 218}]}, {"term": "Intentional Overdose", "organSystem": "Injury, poisoning and procedural complications", "sourceVocabulary": "MedDRA Version 12.0", "assessmentType": "NON_SYSTEMATIC_ASSESSMENT", "stats": [{"groupId": "EG000", "numAffected": 1, "numAtRisk": 226}, {"groupId": "EG001", "numAffected": 1, "numAtRisk": 218}]}, {"term": "Lower Limb Fracture", "organSystem": "Injury, poisoning and procedural complications", "sourceVocabulary": "MedDRA Version 12.0", "assessmentType": "NON_SYSTEMATIC_ASSESSMENT", "stats": [{"groupId": "EG000", "numAffected": 0, "numAtRisk": 226}, {"groupId": "EG001", "numAffected": 1, "numAtRisk": 218}]}, {"term": "Overdose", "organSystem": "Injury, poisoning and procedural complications", "sourceVocabulary": "MedDRA Version 12.0", "assessmentType": "NON_SYSTEMATIC_ASSESSMENT", "stats": [{"groupId": "EG000", "numAffected": 1, "numAtRisk": 226}, {"groupId": "EG001", "numAffected": 0, "numAtRisk": 218}]}, {"term": "Perirenal Haematoma", "organSystem": "Injury, poisoning and procedural complications", "sourceVocabulary": "MedDRA Version 12.0", "assessmentType": "NON_SYSTEMATIC_ASSESSMENT", "stats": [{"groupId": "EG000", "numAffected": 1, "numAtRisk": 226}, {"groupId": "EG001", "numAffected": 0, "numAtRisk": 218}]}, {"term": "Traumatic Brain Injury", "organSystem": "Injury, poisoning and procedural complications", "sourceVocabulary": "MedDRA Version 12.0", "assessmentType": "NON_SYSTEMATIC_ASSESSMENT", "stats": [{"groupId": "EG000", "numAffected": 1, "numAtRisk": 226}, {"groupId": "EG001", "numAffected": 0, "numAtRisk": 218}]}, {"term": "Traumatic Lung Injury", "organSystem": "Injury, poisoning and procedural complications", "sourceVocabulary": "MedDRA Version 12.0", "assessmentType": "NON_SYSTEMATIC_ASSESSMENT", "stats": [{"groupId": "EG000", "numAffected": 1, "numAtRisk": 226}, {"groupId": "EG001", "numAffected": 0, "numAtRisk": 218}]}, {"term": "Hypoglycaemia", "organSystem": "Metabolism and nutrition disorders", "sourceVocabulary": "MedDRA Version 12.0", "assessmentType": "NON_SYSTEMATIC_ASSESSMENT", "stats": [{"groupId": "EG000", "numAffected": 0, "numAtRisk": 226}, {"groupId": "EG001", "numAffected": 1, "numAtRisk": 218}]}, {"term": "Hyponatraemia", "organSystem": "Metabolism and nutrition disorders", "sourceVocabulary": "MedDRA Version 12.0", "assessmentType": "NON_SYSTEMATIC_ASSESSMENT", "stats": [{"groupId": "EG000", "numAffected": 1, "numAtRisk": 226}, {"groupId": "EG001", "numAffected": 0, "numAtRisk": 218}]}, {"term": "Rhabdomyolysis", "organSystem": "Musculoskeletal and connective tissue disorders", "sourceVocabulary": "MedDRA Version 12.0", "assessmentType": "NON_SYSTEMATIC_ASSESSMENT", "stats": [{"groupId": "EG000", "numAffected": 1, "numAtRisk": 226}, {"groupId": "EG001", "numAffected": 0, "numAtRisk": 218}]}, {"term": "Gastric Cancer Stage III", "organSystem": "Neoplasms benign, malignant and unspecified (incl cysts and polyps)", "sourceVocabulary": "MedDRA Version 12.0", "assessmentType": "NON_SYSTEMATIC_ASSESSMENT", "stats": [{"groupId": "EG000", "numAffected": 1, "numAtRisk": 226}, {"groupId": "EG001", "numAffected": 0, "numAtRisk": 218}]}, {"term": "Akathisia", "organSystem": "Nervous system disorders", "sourceVocabulary": "MedDRA Version 12.0", "assessmentType": "NON_SYSTEMATIC_ASSESSMENT", "stats": [{"groupId": "EG000", "numAffected": 1, "numAtRisk": 226}, {"groupId": "EG001", "numAffected": 0, "numAtRisk": 218}]}, {"term": "Cerebellar Ataxia", "organSystem": "Nervous system disorders", "sourceVocabulary": "MedDRA Version 12.0", "assessmentType": "NON_SYSTEMATIC_ASSESSMENT", "stats": [{"groupId": "EG000", "numAffected": 1, "numAtRisk": 226}, {"groupId": "EG001", "numAffected": 0, "numAtRisk": 218}]}, {"term": "Convulsion", "organSystem": "Nervous system disorders", "sourceVocabulary": "MedDRA Version 12.0", "assessmentType": "NON_SYSTEMATIC_ASSESSMENT", "stats": [{"groupId": "EG000", "numAffected": 0, "numAtRisk": 226}, {"groupId": "EG001", "numAffected": 1, "numAtRisk": 218}]}, {"term": "Dystonia", "organSystem": "Nervous system disorders", "sourceVocabulary": "MedDRA Version 12.0", "assessmentType": "NON_SYSTEMATIC_ASSESSMENT", "stats": [{"groupId": "EG000", "numAffected": 0, "numAtRisk": 226}, {"groupId": "EG001", "numAffected": 1, "numAtRisk": 218}]}, {"term": "Encephalitis", "organSystem": "Nervous system disorders", "sourceVocabulary": "MedDRA Version 12.0", "assessmentType": "NON_SYSTEMATIC_ASSESSMENT", "stats": [{"groupId": "EG000", "numAffected": 1, "numAtRisk": 226}, {"groupId": "EG001", "numAffected": 0, "numAtRisk": 218}]}, {"term": "Epilepsy", "organSystem": "Nervous system disorders", "sourceVocabulary": "MedDRA Version 12.0", "assessmentType": "NON_SYSTEMATIC_ASSESSMENT", "stats": [{"groupId": "EG000", "numAffected": 0, "numAtRisk": 226}, {"groupId": "EG001", "numAffected": 1, "numAtRisk": 218}]}, {"term": "Facial Paresis", "organSystem": "Nervous system disorders", "sourceVocabulary": "MedDRA Version 12.0", "assessmentType": "NON_SYSTEMATIC_ASSESSMENT", "stats": [{"groupId": "EG000", "numAffected": 0, "numAtRisk": 226}, {"groupId": "EG001", "numAffected": 1, "numAtRisk": 218}]}, {"term": "Ischaemic Stroke", "organSystem": "Nervous system disorders", "sourceVocabulary": "MedDRA Version 12.0", "assessmentType": "NON_SYSTEMATIC_ASSESSMENT", "stats": [{"groupId": "EG000", "numAffected": 0, "numAtRisk": 226}, {"groupId": "EG001", "numAffected": 1, "numAtRisk": 218}]}, {"term": "Presyncope", "organSystem": "Nervous system disorders", "sourceVocabulary": "MedDRA Version 12.0", "assessmentType": "NON_SYSTEMATIC_ASSESSMENT", "stats": [{"groupId": "EG000", "numAffected": 0, "numAtRisk": 226}, {"groupId": "EG001", "numAffected": 1, "numAtRisk": 218}]}, {"term": "Syncope", "organSystem": "Nervous system disorders", "sourceVocabulary": "MedDRA Version 12.0", "assessmentType": "NON_SYSTEMATIC_ASSESSMENT", "stats": [{"groupId": "EG000", "numAffected": 0, "numAtRisk": 226}, {"groupId": "EG001", "numAffected": 1, "numAtRisk": 218}]}, {"term": "Stillbirth", "organSystem": "Pregnancy, puerperium and perinatal conditions", "sourceVocabulary": "MedDRA Version 12.0", "assessmentType": "NON_SYSTEMATIC_ASSESSMENT", "stats": [{"groupId": "EG000", "numAffected": 0, "numAtRisk": 226}, {"groupId": "EG001", "numAffected": 1, "numAtRisk": 218}]}, {"term": "Acute Psychosis", "organSystem": "Psychiatric disorders", "sourceVocabulary": "MedDRA Version 12.0", "assessmentType": "NON_SYSTEMATIC_ASSESSMENT", "stats": [{"groupId": "EG000", "numAffected": 1, "numAtRisk": 226}, {"groupId": "EG001", "numAffected": 2, "numAtRisk": 218}]}, {"term": "Aggression", "organSystem": "Psychiatric disorders", "sourceVocabulary": "MedDRA Version 12.0", "assessmentType": "NON_SYSTEMATIC_ASSESSMENT", "stats": [{"groupId": "EG000", "numAffected": 0, "numAtRisk": 226}, {"groupId": "EG001", "numAffected": 1, "numAtRisk": 218}]}, {"term": "Agitation", "organSystem": "Psychiatric disorders", "sourceVocabulary": "MedDRA Version 12.0", "assessmentType": "NON_SYSTEMATIC_ASSESSMENT", "stats": [{"groupId": "EG000", "numAffected": 2, "numAtRisk": 226}, {"groupId": "EG001", "numAffected": 0, "numAtRisk": 218}]}, {"term": "Alcohol Withdrawal Syndrome", "organSystem": "Psychiatric disorders", "sourceVocabulary": "MedDRA Version 12.0", "assessmentType": "NON_SYSTEMATIC_ASSESSMENT", "stats": [{"groupId": "EG000", "numAffected": 2, "numAtRisk": 226}, {"groupId": "EG001", "numAffected": 1, "numAtRisk": 218}]}, {"term": "Alcoholism", "organSystem": "Psychiatric disorders", "sourceVocabulary": "MedDRA Version 12.0", "assessmentType": "NON_SYSTEMATIC_ASSESSMENT", "stats": [{"groupId": "EG000", "numAffected": 2, "numAtRisk": 226}, {"groupId": "EG001", "numAffected": 0, "numAtRisk": 218}]}, {"term": "Delusion", "organSystem": "Psychiatric disorders", "sourceVocabulary": "MedDRA Version 12.0", "assessmentType": "NON_SYSTEMATIC_ASSESSMENT", "stats": [{"groupId": "EG000", "numAffected": 1, "numAtRisk": 226}, {"groupId": "EG001", "numAffected": 0, "numAtRisk": 218}]}, {"term": "Depression", "organSystem": "Psychiatric disorders", "sourceVocabulary": "MedDRA Version 12.0", "assessmentType": "NON_SYSTEMATIC_ASSESSMENT", "stats": [{"groupId": "EG000", "numAffected": 4, "numAtRisk": 226}, {"groupId": "EG001", "numAffected": 1, "numAtRisk": 218}]}, {"term": "Depression Suicidal", "organSystem": "Psychiatric disorders", "sourceVocabulary": "MedDRA Version 12.0", "assessmentType": "NON_SYSTEMATIC_ASSESSMENT", "stats": [{"groupId": "EG000", "numAffected": 1, "numAtRisk": 226}, {"groupId": "EG001", "numAffected": 0, "numAtRisk": 218}]}, {"term": "Depressive Symptom", "organSystem": "Psychiatric disorders", "sourceVocabulary": "MedDRA Version 12.0", "assessmentType": "NON_SYSTEMATIC_ASSESSMENT", "stats": [{"groupId": "EG000", "numAffected": 1, "numAtRisk": 226}, {"groupId": "EG001", "numAffected": 0, "numAtRisk": 218}]}, {"term": "Factitious Disorder", "organSystem": "Psychiatric disorders", "sourceVocabulary": "MedDRA Version 12.0", "assessmentType": "NON_SYSTEMATIC_ASSESSMENT", "stats": [{"groupId": "EG000", "numAffected": 0, "numAtRisk": 226}, {"groupId": "EG001", "numAffected": 1, "numAtRisk": 218}]}, {"term": "Hallucination", "organSystem": "Psychiatric disorders", "sourceVocabulary": "MedDRA Version 12.0", "assessmentType": "NON_SYSTEMATIC_ASSESSMENT", "stats": [{"groupId": "EG000", "numAffected": 0, "numAtRisk": 226}, {"groupId": "EG001", "numAffected": 1, "numAtRisk": 218}]}, {"term": "Hallucination, Auditory", "organSystem": "Psychiatric disorders", "sourceVocabulary": "MedDRA Version 12.0", "assessmentType": "NON_SYSTEMATIC_ASSESSMENT", "stats": [{"groupId": "EG000", "numAffected": 1, "numAtRisk": 226}, {"groupId": "EG001", "numAffected": 1, "numAtRisk": 218}]}, {"term": "Hallucinations, Mixed", "organSystem": "Psychiatric disorders", "sourceVocabulary": "MedDRA Version 12.0", "assessmentType": "NON_SYSTEMATIC_ASSESSMENT", "stats": [{"groupId": "EG000", "numAffected": 1, "numAtRisk": 226}, {"groupId": "EG001", "numAffected": 0, "numAtRisk": 218}]}, {"term": "Homicidal Ideation", "organSystem": "Psychiatric disorders", "sourceVocabulary": "MedDRA Version 12.0", "assessmentType": "NON_SYSTEMATIC_ASSESSMENT", "stats": [{"groupId": "EG000", "numAffected": 0, "numAtRisk": 226}, {"groupId": "EG001", "numAffected": 3, "numAtRisk": 218}]}, {"term": "Mania", "organSystem": "Psychiatric disorders", "sourceVocabulary": "MedDRA Version 12.0", "assessmentType": "NON_SYSTEMATIC_ASSESSMENT", "stats": [{"groupId": "EG000", "numAffected": 1, "numAtRisk": 226}, {"groupId": "EG001", "numAffected": 0, "numAtRisk": 218}]}, {"term": "Mental Status Changes", "organSystem": "Psychiatric disorders", "sourceVocabulary": "MedDRA Version 12.0", "assessmentType": "NON_SYSTEMATIC_ASSESSMENT", "stats": [{"groupId": "EG000", "numAffected": 1, "numAtRisk": 226}, {"groupId": "EG001", "numAffected": 0, "numAtRisk": 218}]}, {"term": "Paranoia", "organSystem": "Psychiatric disorders", "sourceVocabulary": "MedDRA Version 12.0", "assessmentType": "NON_SYSTEMATIC_ASSESSMENT", "stats": [{"groupId": "EG000", "numAffected": 2, "numAtRisk": 226}, {"groupId": "EG001", "numAffected": 0, "numAtRisk": 218}]}, {"term": "Polysubstance Dependence", "organSystem": "Psychiatric disorders", "sourceVocabulary": "MedDRA Version 12.0", "assessmentType": "NON_SYSTEMATIC_ASSESSMENT", "stats": [{"groupId": "EG000", "numAffected": 0, "numAtRisk": 226}, {"groupId": "EG001", "numAffected": 1, "numAtRisk": 218}]}, {"term": "Psychotic Behaviour", "organSystem": "Psychiatric disorders", "sourceVocabulary": "MedDRA Version 12.0", "assessmentType": "NON_SYSTEMATIC_ASSESSMENT", "stats": [{"groupId": "EG000", "numAffected": 0, "numAtRisk": 226}, {"groupId": "EG001", "numAffected": 1, "numAtRisk": 218}]}, {"term": "Psychotic Disorder", "organSystem": "Psychiatric disorders", "sourceVocabulary": "MedDRA Version 12.0", "assessmentType": "NON_SYSTEMATIC_ASSESSMENT", "stats": [{"groupId": "EG000", "numAffected": 11, "numAtRisk": 226}, {"groupId": "EG001", "numAffected": 7, "numAtRisk": 218}]}, {"term": "Schizoaffective Disorder Bipolar Type", "organSystem": "Psychiatric disorders", "sourceVocabulary": "MedDRA Version 12.0", "assessmentType": "NON_SYSTEMATIC_ASSESSMENT", "stats": [{"groupId": "EG000", "numAffected": 0, "numAtRisk": 226}, {"groupId": "EG001", "numAffected": 1, "numAtRisk": 218}]}, {"term": "Schizophrenia", "organSystem": "Psychiatric disorders", "sourceVocabulary": "MedDRA Version 12.0", "assessmentType": "NON_SYSTEMATIC_ASSESSMENT", "stats": [{"groupId": "EG000", "numAffected": 4, "numAtRisk": 226}, {"groupId": "EG001", "numAffected": 11, "numAtRisk": 218}]}, {"term": "Schizophrenia, Paranoid Type", "organSystem": "Psychiatric disorders", "sourceVocabulary": "MedDRA Version 12.0", "assessmentType": "NON_SYSTEMATIC_ASSESSMENT", "stats": [{"groupId": "EG000", "numAffected": 4, "numAtRisk": 226}, {"groupId": "EG001", "numAffected": 5, "numAtRisk": 218}]}, {"term": "Substance Abuse", "organSystem": "Psychiatric disorders", "sourceVocabulary": "MedDRA Version 12.0", "assessmentType": "NON_SYSTEMATIC_ASSESSMENT", "stats": [{"groupId": "EG000", "numAffected": 1, "numAtRisk": 226}, {"groupId": "EG001", "numAffected": 0, "numAtRisk": 218}]}, {"term": "Suicidal Ideation", "organSystem": "Psychiatric disorders", "sourceVocabulary": "MedDRA Version 12.0", "assessmentType": "NON_SYSTEMATIC_ASSESSMENT", "stats": [{"groupId": "EG000", "numAffected": 5, "numAtRisk": 226}, {"groupId": "EG001", "numAffected": 11, "numAtRisk": 218}]}, {"term": "Suicide Attempt", "organSystem": "Psychiatric disorders", "sourceVocabulary": "MedDRA Version 12.0", "assessmentType": "NON_SYSTEMATIC_ASSESSMENT", "stats": [{"groupId": "EG000", "numAffected": 1, "numAtRisk": 226}, {"groupId": "EG001", "numAffected": 3, "numAtRisk": 218}]}, {"term": "Renal Failure Acute", "organSystem": "Renal and urinary disorders", "sourceVocabulary": "MedDRA Version 12.0", "assessmentType": "NON_SYSTEMATIC_ASSESSMENT", "stats": [{"groupId": "EG000", "numAffected": 1, "numAtRisk": 226}, {"groupId": "EG001", "numAffected": 2, "numAtRisk": 218}]}, {"term": "Acute Respiratory Distress Syndrome", "organSystem": "Respiratory, thoracic and mediastinal disorders", "sourceVocabulary": "MedDRA Version 12.0", "assessmentType": "NON_SYSTEMATIC_ASSESSMENT", "stats": [{"groupId": "EG000", "numAffected": 1, "numAtRisk": 226}, {"groupId": "EG001", "numAffected": 0, "numAtRisk": 218}]}, {"term": "Asthma", "organSystem": "Respiratory, thoracic and mediastinal disorders", "sourceVocabulary": "MedDRA Version 12.0", "assessmentType": "NON_SYSTEMATIC_ASSESSMENT", "stats": [{"groupId": "EG000", "numAffected": 1, "numAtRisk": 226}, {"groupId": "EG001", "numAffected": 1, "numAtRisk": 218}]}, {"term": "Pneumothorax", "organSystem": "Respiratory, thoracic and mediastinal disorders", "sourceVocabulary": "MedDRA Version 12.0", "assessmentType": "NON_SYSTEMATIC_ASSESSMENT", "stats": [{"groupId": "EG000", "numAffected": 1, "numAtRisk": 226}, {"groupId": "EG001", "numAffected": 0, "numAtRisk": 218}]}, {"term": "Pulmonary Embolism", "organSystem": "Respiratory, thoracic and mediastinal disorders", "sourceVocabulary": "MedDRA Version 12.0", "assessmentType": "NON_SYSTEMATIC_ASSESSMENT", "stats": [{"groupId": "EG000", "numAffected": 1, "numAtRisk": 226}, {"groupId": "EG001", "numAffected": 0, "numAtRisk": 218}]}, {"term": "Status Asthmaticus", "organSystem": "Respiratory, thoracic and mediastinal disorders", "sourceVocabulary": "MedDRA Version 12.0", "assessmentType": "NON_SYSTEMATIC_ASSESSMENT", "stats": [{"groupId": "EG000", "numAffected": 0, "numAtRisk": 226}, {"groupId": "EG001", "numAffected": 1, "numAtRisk": 218}]}, {"term": "Deep Vein Thrombosis", "organSystem": "Vascular disorders", "sourceVocabulary": "MedDRA Version 12.0", "assessmentType": "NON_SYSTEMATIC_ASSESSMENT", "stats": [{"groupId": "EG000", "numAffected": 1, "numAtRisk": 226}, {"groupId": "EG001", "numAffected": 0, "numAtRisk": 218}]}, {"term": "Hypertension", "organSystem": "Vascular disorders", "sourceVocabulary": "MedDRA Version 12.0", "assessmentType": "NON_SYSTEMATIC_ASSESSMENT", "stats": [{"groupId": "EG000", "numAffected": 0, "numAtRisk": 226}, {"groupId": "EG001", "numAffected": 1, "numAtRisk": 218}]}], "otherEvents": [{"term": "Hyperprolactinaemia", "organSystem": "Endocrine disorders", "sourceVocabulary": "MedDRA Version 12.0", "assessmentType": "NON_SYSTEMATIC_ASSESSMENT", "stats": [{"groupId": "EG000", "numAffected": 7, "numAtRisk": 226}, {"groupId": "EG001", "numAffected": 4, "numAtRisk": 218}]}, {"term": "Abdominal Discomfort", "organSystem": "Gastrointestinal disorders", "sourceVocabulary": "MedDRA Version 12.0", "assessmentType": "NON_SYSTEMATIC_ASSESSMENT", "stats": [{"groupId": "EG000", "numAffected": 0, "numAtRisk": 226}, {"groupId": "EG001", "numAffected": 5, "numAtRisk": 218}]}, {"term": "Constipation", "organSystem": "Gastrointestinal disorders", "sourceVocabulary": "MedDRA Version 12.0", "assessmentType": "NON_SYSTEMATIC_ASSESSMENT", "stats": [{"groupId": "EG000", "numAffected": 7, "numAtRisk": 226}, {"groupId": "EG001", "numAffected": 8, "numAtRisk": 218}]}, {"term": "Diarrhoea", "organSystem": "Gastrointestinal disorders", "sourceVocabulary": "MedDRA Version 12.0", "assessmentType": "NON_SYSTEMATIC_ASSESSMENT", "stats": [{"groupId": "EG000", "numAffected": 4, "numAtRisk": 226}, {"groupId": "EG001", "numAffected": 7, "numAtRisk": 218}]}, {"term": "Dry Mouth", "organSystem": "Gastrointestinal disorders", "sourceVocabulary": "MedDRA Version 12.0", "assessmentType": "NON_SYSTEMATIC_ASSESSMENT", "stats": [{"groupId": "EG000", "numAffected": 15, "numAtRisk": 226}, {"groupId": "EG001", "numAffected": 18, "numAtRisk": 218}]}, {"term": "Dyspepsia", "organSystem": "Gastrointestinal disorders", "sourceVocabulary": "MedDRA Version 12.0", "assessmentType": "NON_SYSTEMATIC_ASSESSMENT", "stats": [{"groupId": "EG000", "numAffected": 7, "numAtRisk": 226}, {"groupId": "EG001", "numAffected": 3, "numAtRisk": 218}]}, {"term": "Nausea", "organSystem": "Gastrointestinal disorders", "sourceVocabulary": "MedDRA Version 12.0", "assessmentType": "NON_SYSTEMATIC_ASSESSMENT", "stats": [{"groupId": "EG000", "numAffected": 9, "numAtRisk": 226}, {"groupId": "EG001", "numAffected": 6, "numAtRisk": 218}]}, {"term": "Salivary Hypersecretion", "organSystem": "Gastrointestinal disorders", "sourceVocabulary": "MedDRA Version 12.0", "assessmentType": "NON_SYSTEMATIC_ASSESSMENT", "stats": [{"groupId": "EG000", "numAffected": 7, "numAtRisk": 226}, {"groupId": "EG001", "numAffected": 0, "numAtRisk": 218}]}, {"term": "Toothache", "organSystem": "Gastrointestinal disorders", "sourceVocabulary": "MedDRA Version 12.0", "assessmentType": "NON_SYSTEMATIC_ASSESSMENT", "stats": [{"groupId": "EG000", "numAffected": 11, "numAtRisk": 226}, {"groupId": "EG001", "numAffected": 13, "numAtRisk": 218}]}, {"term": "Vomiting", "organSystem": "Gastrointestinal disorders", "sourceVocabulary": "MedDRA Version 12.0", "assessmentType": "NON_SYSTEMATIC_ASSESSMENT", "stats": [{"groupId": "EG000", "numAffected": 2, "numAtRisk": 226}, {"groupId": "EG001", "numAffected": 5, "numAtRisk": 218}]}, {"term": "Fatigue", "organSystem": "General disorders", "sourceVocabulary": "MedDRA Version 12.0", "assessmentType": "NON_SYSTEMATIC_ASSESSMENT", "stats": [{"groupId": "EG000", "numAffected": 17, "numAtRisk": 226}, {"groupId": "EG001", "numAffected": 6, "numAtRisk": 218}]}, {"term": "Injection Site Pain", "organSystem": "General disorders", "sourceVocabulary": "MedDRA Version 12.0", "assessmentType": "NON_SYSTEMATIC_ASSESSMENT", "stats": [{"groupId": "EG000", "numAffected": 42, "numAtRisk": 226}, {"groupId": "EG001", "numAffected": 0, "numAtRisk": 218}]}, {"term": "Irritability", "organSystem": "General disorders", "sourceVocabulary": "MedDRA Version 12.0", "assessmentType": "NON_SYSTEMATIC_ASSESSMENT", "stats": [{"groupId": "EG000", "numAffected": 4, "numAtRisk": 226}, {"groupId": "EG001", "numAffected": 6, "numAtRisk": 218}]}, {"term": "Pain", "organSystem": "General disorders", "sourceVocabulary": "MedDRA Version 12.0", "assessmentType": "NON_SYSTEMATIC_ASSESSMENT", "stats": [{"groupId": "EG000", "numAffected": 1, "numAtRisk": 226}, {"groupId": "EG001", "numAffected": 5, "numAtRisk": 218}]}, {"term": "Bronchitis", "organSystem": "Infections and infestations", "sourceVocabulary": "MedDRA Version 12.0", "assessmentType": "NON_SYSTEMATIC_ASSESSMENT", "stats": [{"groupId": "EG000", "numAffected": 6, "numAtRisk": 226}, {"groupId": "EG001", "numAffected": 5, "numAtRisk": 218}]}, {"term": "Influenza", "organSystem": "Infections and infestations", "sourceVocabulary": "MedDRA Version 12.0", "assessmentType": "NON_SYSTEMATIC_ASSESSMENT", "stats": [{"groupId": "EG000", "numAffected": 4, "numAtRisk": 226}, {"groupId": "EG001", "numAffected": 5, "numAtRisk": 218}]}, {"term": "Nasopharyngitis", "organSystem": "Infections and infestations", "sourceVocabulary": "MedDRA Version 12.0", "assessmentType": "NON_SYSTEMATIC_ASSESSMENT", "stats": [{"groupId": "EG000", "numAffected": 15, "numAtRisk": 226}, {"groupId": "EG001", "numAffected": 14, "numAtRisk": 218}]}, {"term": "Upper Respiratory Tract Infection", "organSystem": "Infections and infestations", "sourceVocabulary": "MedDRA Version 12.0", "assessmentType": "NON_SYSTEMATIC_ASSESSMENT", "stats": [{"groupId": "EG000", "numAffected": 13, "numAtRisk": 226}, {"groupId": "EG001", "numAffected": 11, "numAtRisk": 218}]}, {"term": "Joint Sprain", "organSystem": "Injury, poisoning and procedural complications", "sourceVocabulary": "MedDRA Version 12.0", "assessmentType": "NON_SYSTEMATIC_ASSESSMENT", "stats": [{"groupId": "EG000", "numAffected": 2, "numAtRisk": 226}, {"groupId": "EG001", "numAffected": 6, "numAtRisk": 218}]}, {"term": "Laceration", "organSystem": "Injury, poisoning and procedural complications", "sourceVocabulary": "MedDRA Version 12.0", "assessmentType": "NON_SYSTEMATIC_ASSESSMENT", "stats": [{"groupId": "EG000", "numAffected": 4, "numAtRisk": 226}, {"groupId": "EG001", "numAffected": 12, "numAtRisk": 218}]}, {"term": "Blood Prolactin Increased", "organSystem": "Investigations", "sourceVocabulary": "MedDRA Version 12.0", "assessmentType": "NON_SYSTEMATIC_ASSESSMENT", "stats": [{"groupId": "EG000", "numAffected": 11, "numAtRisk": 226}, {"groupId": "EG001", "numAffected": 2, "numAtRisk": 218}]}, {"term": "Semen Volume Decreased", "organSystem": "Investigations", "sourceVocabulary": "MedDRA Version 12.0", "assessmentType": "NON_SYSTEMATIC_ASSESSMENT", "stats": [{"groupId": "EG000", "numAffected": 5, "numAtRisk": 226}, {"groupId": "EG001", "numAffected": 0, "numAtRisk": 218}]}, {"term": "Weight Increased", "organSystem": "Investigations", "sourceVocabulary": "MedDRA Version 12.0", "assessmentType": "NON_SYSTEMATIC_ASSESSMENT", "stats": [{"groupId": "EG000", "numAffected": 30, "numAtRisk": 226}, {"groupId": "EG001", "numAffected": 16, "numAtRisk": 218}]}, {"term": "Abnormal Weight Gain", "organSystem": "Metabolism and nutrition disorders", "sourceVocabulary": "MedDRA Version 12.0", "assessmentType": "NON_SYSTEMATIC_ASSESSMENT", "stats": [{"groupId": "EG000", "numAffected": 11, "numAtRisk": 226}, {"groupId": "EG001", "numAffected": 4, "numAtRisk": 218}]}, {"term": "Increased Appetite", "organSystem": "Metabolism and nutrition disorders", "sourceVocabulary": "MedDRA Version 12.0", "assessmentType": "NON_SYSTEMATIC_ASSESSMENT", "stats": [{"groupId": "EG000", "numAffected": 16, "numAtRisk": 226}, {"groupId": "EG001", "numAffected": 8, "numAtRisk": 218}]}, {"term": "Arthralgia", "organSystem": "Musculoskeletal and connective tissue disorders", "sourceVocabulary": "MedDRA Version 12.0", "assessmentType": "NON_SYSTEMATIC_ASSESSMENT", "stats": [{"groupId": "EG000", "numAffected": 7, "numAtRisk": 226}, {"groupId": "EG001", "numAffected": 3, "numAtRisk": 218}]}, {"term": "Back Pain", "organSystem": "Musculoskeletal and connective tissue disorders", "sourceVocabulary": "MedDRA Version 12.0", "assessmentType": "NON_SYSTEMATIC_ASSESSMENT", "stats": [{"groupId": "EG000", "numAffected": 13, "numAtRisk": 226}, {"groupId": "EG001", "numAffected": 8, "numAtRisk": 218}]}, {"term": "Musculoskeletal Stiffness", "organSystem": "Musculoskeletal and connective tissue disorders", "sourceVocabulary": "MedDRA Version 12.0", "assessmentType": "NON_SYSTEMATIC_ASSESSMENT", "stats": [{"groupId": "EG000", "numAffected": 5, "numAtRisk": 226}, {"groupId": "EG001", "numAffected": 1, "numAtRisk": 218}]}, {"term": "Pain in Extremity", "organSystem": "Musculoskeletal and connective tissue disorders", "sourceVocabulary": "MedDRA Version 12.0", "assessmentType": "NON_SYSTEMATIC_ASSESSMENT", "stats": [{"groupId": "EG000", "numAffected": 9, "numAtRisk": 226}, {"groupId": "EG001", "numAffected": 8, "numAtRisk": 218}]}, {"term": "Akathisia", "organSystem": "Nervous system disorders", "sourceVocabulary": "MedDRA Version 12.0", "assessmentType": "NON_SYSTEMATIC_ASSESSMENT", "stats": [{"groupId": "EG000", "numAffected": 26, "numAtRisk": 226}, {"groupId": "EG001", "numAffected": 17, "numAtRisk": 218}]}, {"term": "Dizziness", "organSystem": "Nervous system disorders", "sourceVocabulary": "MedDRA Version 12.0", "assessmentType": "NON_SYSTEMATIC_ASSESSMENT", "stats": [{"groupId": "EG000", "numAffected": 6, "numAtRisk": 226}, {"groupId": "EG001", "numAffected": 11, "numAtRisk": 218}]}, {"term": "Dyskinesia", "organSystem": "Nervous system disorders", "sourceVocabulary": "MedDRA Version 12.0", "assessmentType": "NON_SYSTEMATIC_ASSESSMENT", "stats": [{"groupId": "EG000", "numAffected": 6, "numAtRisk": 226}, {"groupId": "EG001", "numAffected": 4, "numAtRisk": 218}]}, {"term": "Dystonia", "organSystem": "Nervous system disorders", "sourceVocabulary": "MedDRA Version 12.0", "assessmentType": "NON_SYSTEMATIC_ASSESSMENT", "stats": [{"groupId": "EG000", "numAffected": 5, "numAtRisk": 226}, {"groupId": "EG001", "numAffected": 5, "numAtRisk": 218}]}, {"term": "Extrapyramidal Disorder", "organSystem": "Nervous system disorders", "sourceVocabulary": "MedDRA Version 12.0", "assessmentType": "NON_SYSTEMATIC_ASSESSMENT", "stats": [{"groupId": "EG000", "numAffected": 5, "numAtRisk": 226}, {"groupId": "EG001", "numAffected": 4, "numAtRisk": 218}]}, {"term": "Headache", "organSystem": "Nervous system disorders", "sourceVocabulary": "MedDRA Version 12.0", "assessmentType": "NON_SYSTEMATIC_ASSESSMENT", "stats": [{"groupId": "EG000", "numAffected": 17, "numAtRisk": 226}, {"groupId": "EG001", "numAffected": 19, "numAtRisk": 218}]}, {"term": "Sedation", "organSystem": "Nervous system disorders", "sourceVocabulary": "MedDRA Version 12.0", "assessmentType": "NON_SYSTEMATIC_ASSESSMENT", "stats": [{"groupId": "EG000", "numAffected": 15, "numAtRisk": 226}, {"groupId": "EG001", "numAffected": 18, "numAtRisk": 218}]}, {"term": "Somnolence", "organSystem": "Nervous system disorders", "sourceVocabulary": "MedDRA Version 12.0", "assessmentType": "NON_SYSTEMATIC_ASSESSMENT", "stats": [{"groupId": "EG000", "numAffected": 10, "numAtRisk": 226}, {"groupId": "EG001", "numAffected": 16, "numAtRisk": 218}]}, {"term": "Tremor", "organSystem": "Nervous system disorders", "sourceVocabulary": "MedDRA Version 12.0", "assessmentType": "NON_SYSTEMATIC_ASSESSMENT", "stats": [{"groupId": "EG000", "numAffected": 5, "numAtRisk": 226}, {"groupId": "EG001", "numAffected": 3, "numAtRisk": 218}]}, {"term": "Agitation", "organSystem": "Psychiatric disorders", "sourceVocabulary": "MedDRA Version 12.0", "assessmentType": "NON_SYSTEMATIC_ASSESSMENT", "stats": [{"groupId": "EG000", "numAffected": 5, "numAtRisk": 226}, {"groupId": "EG001", "numAffected": 5, "numAtRisk": 218}]}, {"term": "Anxiety", "organSystem": "Psychiatric disorders", "sourceVocabulary": "MedDRA Version 12.0", "assessmentType": "NON_SYSTEMATIC_ASSESSMENT", "stats": [{"groupId": "EG000", "numAffected": 25, "numAtRisk": 226}, {"groupId": "EG001", "numAffected": 18, "numAtRisk": 218}]}, {"term": "Depression", "organSystem": "Psychiatric disorders", "sourceVocabulary": "MedDRA Version 12.0", "assessmentType": "NON_SYSTEMATIC_ASSESSMENT", "stats": [{"groupId": "EG000", "numAffected": 19, "numAtRisk": 226}, {"groupId": "EG001", "numAffected": 17, "numAtRisk": 218}]}, {"term": "Hallucination, Auditory", "organSystem": "Psychiatric disorders", "sourceVocabulary": "MedDRA Version 12.0", "assessmentType": "NON_SYSTEMATIC_ASSESSMENT", "stats": [{"groupId": "EG000", "numAffected": 3, "numAtRisk": 226}, {"groupId": "EG001", "numAffected": 6, "numAtRisk": 218}]}, {"term": "Insomnia", "organSystem": "Psychiatric disorders", "sourceVocabulary": "MedDRA Version 12.0", "assessmentType": "NON_SYSTEMATIC_ASSESSMENT", "stats": [{"groupId": "EG000", "numAffected": 42, "numAtRisk": 226}, {"groupId": "EG001", "numAffected": 27, "numAtRisk": 218}]}, {"term": "Libido Decreased", "organSystem": "Psychiatric disorders", "sourceVocabulary": "MedDRA Version 12.0", "assessmentType": "NON_SYSTEMATIC_ASSESSMENT", "stats": [{"groupId": "EG000", "numAffected": 13, "numAtRisk": 226}, {"groupId": "EG001", "numAffected": 3, "numAtRisk": 218}]}, {"term": "Schizophrenia", "organSystem": "Psychiatric disorders", "sourceVocabulary": "MedDRA Version 12.0", "assessmentType": "NON_SYSTEMATIC_ASSESSMENT", "stats": [{"groupId": "EG000", "numAffected": 7, "numAtRisk": 226}, {"groupId": "EG001", "numAffected": 6, "numAtRisk": 218}]}, {"term": "Suicidal Ideation", "organSystem": "Psychiatric disorders", "sourceVocabulary": "MedDRA Version 12.0", "assessmentType": "NON_SYSTEMATIC_ASSESSMENT", "stats": [{"groupId": "EG000", "numAffected": 4, "numAtRisk": 226}, {"groupId": "EG001", "numAffected": 9, "numAtRisk": 218}]}, {"term": "Amenorrhoea", "organSystem": "Reproductive system and breast disorders", "sourceVocabulary": "MedDRA Version 12.0", "assessmentType": "NON_SYSTEMATIC_ASSESSMENT", "stats": [{"groupId": "EG000", "numAffected": 5, "numAtRisk": 226}, {"groupId": "EG001", "numAffected": 1, "numAtRisk": 218}]}, {"term": "Erectile Dysfunction", "organSystem": "Reproductive system and breast disorders", "sourceVocabulary": "MedDRA Version 12.0", "assessmentType": "NON_SYSTEMATIC_ASSESSMENT", "stats": [{"groupId": "EG000", "numAffected": 17, "numAtRisk": 226}, {"groupId": "EG001", "numAffected": 1, "numAtRisk": 218}]}, {"term": "Galactorrhoea", "organSystem": "Reproductive system and breast disorders", "sourceVocabulary": "MedDRA Version 12.0", "assessmentType": "NON_SYSTEMATIC_ASSESSMENT", "stats": [{"groupId": "EG000", "numAffected": 5, "numAtRisk": 226}, {"groupId": "EG001", "numAffected": 0, "numAtRisk": 218}]}, {"term": "Cough", "organSystem": "Respiratory, thoracic and mediastinal disorders", "sourceVocabulary": "MedDRA Version 12.0", "assessmentType": "NON_SYSTEMATIC_ASSESSMENT", "stats": [{"groupId": "EG000", "numAffected": 7, "numAtRisk": 226}, {"groupId": "EG001", "numAffected": 6, "numAtRisk": 218}]}, {"term": "Nasal Congestion", "organSystem": "Respiratory, thoracic and mediastinal disorders", "sourceVocabulary": "MedDRA Version 12.0", "assessmentType": "NON_SYSTEMATIC_ASSESSMENT", "stats": [{"groupId": "EG000", "numAffected": 6, "numAtRisk": 226}, {"groupId": "EG001", "numAffected": 1, "numAtRisk": 218}]}, {"term": "Oropharyngeal Pain", "organSystem": "Respiratory, thoracic and mediastinal disorders", "sourceVocabulary": "MedDRA Version 12.0", "assessmentType": "NON_SYSTEMATIC_ASSESSMENT", "stats": [{"groupId": "EG000", "numAffected": 5, "numAtRisk": 226}, {"groupId": "EG001", "numAffected": 0, "numAtRisk": 218}]}, {"term": "Hypertension", "organSystem": "Vascular disorders", "sourceVocabulary": "MedDRA Version 12.0", "assessmentType": "NON_SYSTEMATIC_ASSESSMENT", "stats": [{"groupId": "EG000", "numAffected": 2, "numAtRisk": 226}, {"groupId": "EG001", "numAffected": 8, "numAtRisk": 218}]}]}, "moreInfoModule": {"certainAgreement": {"piSponsorEmployee": false, "restrictionType": "GT60", "restrictiveAgreement": true}, "pointOfContact": {"title": "Director, Clinical Development", "organization": "Janssen Research & Development", "email": "ClinicalTrialDisclosure@its.jnj.com"}}}, "derivedSection": {"miscInfoModule": {"versionHolder": "2024-06-26"}, "conditionBrowseModule": {"meshes": [{"id": "D000012559", "term": "Schizophrenia"}], "ancestors": [{"id": "D000019967", "term": "Schizophrenia Spectrum and Other Psychotic Disorders"}, {"id": "D000001523", "term": "Mental Disorders"}], "browseLeaves": [{"id": "M15376", "name": "Schizophrenia", "asFound": "Schizophrenia", "relevance": "HIGH"}, {"id": "M4815", "name": "Mental Disorders", "relevance": "LOW"}, {"id": "M14473", "name": "Psychotic Disorders", "relevance": "LOW"}, {"id": "M21838", "name": "Schizophrenia Spectrum and Other Psychotic Disorders", "relevance": "LOW"}], "browseBranches": [{"abbrev": "BXM", "name": "Behaviors and Mental Disorders"}, {"abbrev": "All", "name": "All Conditions"}]}, "interventionBrowseModule": {"meshes": [{"id": "D000077152", "term": "Olanzapine"}, {"id": "D000018967", "term": "Risperidone"}, {"id": "D000068180", "term": "Aripiprazole"}, {"id": "D000069348", "term": "Quetiapine Fumarate"}, {"id": "D000068882", "term": "Paliperidone Palmitate"}, {"id": "D000010546", "term": "Perphenazine"}], "ancestors": [{"id": "D000012702", "term": "Serotonin Antagonists"}, {"id": "D000018490", "term": "Serotonin Agents"}, {"id": "D000018377", "term": "Neurotransmitter Agents"}, {"id": "D000045504", "term": "Molecular Mechanisms of Pharmacological Action"}, {"id": "D000045505", "term": "Physiological Effects of Drugs"}, {"id": "D000014150", "term": "Antipsychotic Agents"}, {"id": "D000014149", "term": "Tranquilizing Agents"}, {"id": "D000002492", "term": "Central Nervous System Depressants"}, {"id": "D000011619", "term": "Psychotropic Drugs"}, {"id": "D000018492", "term": "Dopamine Antagonists"}, {"id": "D000015259", "term": "Dopamine Agents"}, {"id": "D000000932", "term": "Antiemetics"}, {"id": "D000001337", "term": "Autonomic Agents"}, {"id": "D000018373", "term": "Peripheral Nervous System Agents"}, {"id": "D000005765", "term": "Gastrointestinal Agents"}, {"id": "D000017367", "term": "Selective Serotonin Reuptake Inhibitors"}, {"id": "D000014179", "term": "Neurotransmitter Uptake Inhibitors"}, {"id": "D000049990", "term": "Membrane Transport Modulators"}, {"id": "D000000928", "term": "Antidepressive Agents"}, {"id": "D000018491", "term": "Dopamine Agonists"}, {"id": "D000058825", "term": "Serotonin 5-HT1 Receptor Agonists"}, {"id": "D000017366", "term": "Serotonin Receptor Agonists"}, {"id": "D000058830", "term": "Serotonin 5-HT2 Receptor Antagonists"}, {"id": "D000065127", "term": "Dopamine D2 Receptor Antagonists"}], "browseLeaves": [{"id": "M16904", "name": "Antipsychotic Agents", "relevance": "LOW"}, {"id": "M229", "name": "Aripiprazole", "asFound": "Association", "relevance": "HIGH"}, {"id": "M9312", "name": "Haloperidol", "relevance": "LOW"}, {"id": "M215475", "name": "Haloperidol decanoate", "relevance": "LOW"}, {"id": "M20999", "name": "Risperidone", "asFound": "Stable", "relevance": "HIGH"}, {"id": "M1675", "name": "Olanzapine", "asFound": "Cavity", "relevance": "HIGH"}, {"id": "M329", "name": "Paliperidone Palmitate", "asFound": "Operating", "relevance": "HIGH"}, {"id": "M13454", "name": "Perphenazine", "asFound": "Omeprazole 20 mg", "relevance": "HIGH"}, {"id": "M399", "name": "Quetiapine Fumarate", "asFound": "Sexual", "relevance": "HIGH"}, {"id": "M15512", "name": "Serotonin", "relevance": "LOW"}, {"id": "M20504", "name": "Neurotransmitter Agents", "relevance": "LOW"}, {"id": "M14474", "name": "Psychotropic Drugs", "relevance": "LOW"}, {"id": "M7473", "name": "Dopamine", "relevance": "LOW"}, {"id": "M20596", "name": "Dopamine Antagonists", "relevance": "LOW"}, {"id": "M17962", "name": "Dopamine Agents", "relevance": "LOW"}, {"id": "M4251", "name": "Antiemetics", "relevance": "LOW"}, {"id": "M8881", "name": "Gastrointestinal Agents", "relevance": "LOW"}, {"id": "M19649", "name": "Selective Serotonin Reuptake Inhibitors", "relevance": "LOW"}, {"id": "M4247", "name": "Antidepressive Agents", "relevance": "LOW"}, {"id": "M20595", "name": "Dopamine Agonists", "relevance": "LOW"}, {"id": "M29240", "name": "Serotonin 5-HT1 Receptor Agonists", "relevance": "LOW"}, {"id": "M19648", "name": "Serotonin Receptor Agonists", "relevance": "LOW"}], "browseBranches": [{"abbrev": "CNSDep", "name": "Central Nervous System Depressants"}, {"abbrev": "PsychDr", "name": "Psychotropic Drugs"}, {"abbrev": "All", "name": "All Drugs and Chemicals"}, {"abbrev": "AnDyAg", "name": "Anti-Dyskinesia Agents"}, {"abbrev": "AnEm", "name": "Antiemetics"}, {"abbrev": "Gast", "name": "Gastrointestinal Agents"}, {"abbrev": "CaAg", "name": "Cardiotonic Agents"}]}}, "hasResults": true}