{"protocolSection": {"identificationModule": {"nctId": "NCT00389519", "orgStudyIdInfo": {"id": "K726-06-4003"}, "organization": {"fullName": "Pfizer", "class": "INDUSTRY"}, "briefTitle": "A Study of the Effectiveness and Safety of Ramipril in the Treatment of Hypertension in Children and Adolescents", "officialTitle": "A Randomized, Double-Blind, Placebo-Controlled, Multicenter, Parallel-Arm Study Assessing the Efficacy, Safety, and Dose-Response of Ramipril for the Treatment of Hypertension in Children and Adolescents"}, "statusModule": {"statusVerifiedDate": "2012-06", "overallStatus": "TERMINATED", "whyStopped": "A planned interim analysis was performed after approx. 240 subjects completed the trial. The study was stopped, as permitted by protocol, after the analysis.", "startDateStruct": {"date": "2006-10"}, "primaryCompletionDateStruct": {"date": "2007-11", "type": "ACTUAL"}, "completionDateStruct": {"date": "2007-11", "type": "ACTUAL"}, "studyFirstSubmitDate": "2006-10-17", "studyFirstSubmitQcDate": "2006-10-18", "studyFirstPostDateStruct": {"date": "2006-10-19", "type": "ESTIMATED"}, "resultsFirstSubmitDate": "2010-01-21", "resultsFirstSubmitQcDate": "2010-04-29", "resultsFirstPostDateStruct": {"date": "2010-05-19", "type": "ESTIMATED"}, "lastUpdateSubmitDate": "2012-06-06", "lastUpdatePostDateStruct": {"date": "2012-06-11", "type": "ESTIMATED"}}, "sponsorCollaboratorsModule": {"leadSponsor": {"name": "Pfizer", "class": "INDUSTRY"}}, "descriptionModule": {"briefSummary": "The primary purpose of this study is to evaluate the blood pressure lowering effects of ramipril, an FDA-approved drug for the treatment of hypertension in adults, in children and adolescents aged 6 to 16 years with hypertension.", "detailedDescription": "Information is needed on the treatment of hypertension in children and adolescents with antihypertensive drugs like ramipril. The study will assess the safety and blood pressure effects of several doses of the antihypertensive drug ramipril in children and adolescents age 6-16 years. Approximately 450 children will be given placebo, or 1 of the 3 doses of ramipril. The treatment assigned will be done by chance, like flipping a coin. Approximately 120 study centers throughout the world will participate in the trial.\n\nEach child will complete a 1- to 4-week Screening Period where they will stop taking their current blood pressure lowering drug(s), a 4-week Treatment Period where they will receive placebo or one of the ramipril doses, and a Follow-up visit 1 week after completion of the Treatment Period. Children diagnosed with hypertension according to the fourth report on the diagnosis, evaluation and treatment of high blood pressure in children and adolescents (U.S. report), will be included in the study if their blood pressure meets certain values.\n\nEach child will complete a minimum of 6 and up to 9 clinic visits over the course of the study during which procedures and assessments of blood pressure and safety will be performed. In addition, a child's parents/guardians will be instructed to measure their child's blood pressure at home between clinic visits.\n\nA planned interim analysis was performed after approximately 240 subjects completed the trial. The study was stopped, as permitted by protocol, after the analysis."}, "conditionsModule": {"conditions": ["Hypertension"], "keywords": ["Hypertension/*etiology", "Blood Pressure", "Pediatric", "Adolescent", "Child"]}, "designModule": {"studyType": "INTERVENTIONAL", "phases": ["PHASE3"], "designInfo": {"allocation": "RANDOMIZED", "interventionModel": "PARALLEL", "primaryPurpose": "TREATMENT", "maskingInfo": {"masking": "QUADRUPLE", "whoMasked": ["PARTICIPANT", "CARE_PROVIDER", "INVESTIGATOR", "OUTCOMES_ASSESSOR"]}}, "enrollmentInfo": {"count": 422, "type": "ACTUAL"}}, "armsInterventionsModule": {"armGroups": [{"label": "Placebo", "type": "PLACEBO_COMPARATOR", "description": "once per day", "interventionNames": ["Drug: placebo"]}, {"label": "ramipril low dose", "type": "EXPERIMENTAL", "description": "0.3125, 0.625, or 1.25 mg once a day, based on subject weight", "interventionNames": ["Drug: ramipril"]}, {"label": "ramipril mid dose", "type": "EXPERIMENTAL", "description": "1.25, 2.5, or 5 mg once a day, based on subject weight", "interventionNames": ["Drug: ramipril"]}, {"label": "ramipril high dose", "type": "EXPERIMENTAL", "description": "5, 10, or 20 mg once a day, based on subject weight", "interventionNames": ["Drug: ramipril"]}], "interventions": [{"type": "DRUG", "name": "ramipril", "description": "once a day oral ramipril capsules given for 4 weeks", "armGroupLabels": ["ramipril high dose", "ramipril low dose", "ramipril mid dose"], "otherNames": ["Altace"]}, {"type": "DRUG", "name": "placebo", "description": "once a day oral placebo capsule for 4 weeks", "armGroupLabels": ["Placebo"]}]}, "outcomesModule": {"primaryOutcomes": [{"measure": "Change From Baseline to 4 Weeks in Trough Sitting Systolic Blood Pressure", "description": "Value at end of treatment minus value at baseline, comparing the high-dose ramipril group with placebo", "timeFrame": "Baseline to 4 weeks"}], "secondaryOutcomes": [{"measure": "Change From Baseline to 4 Weeks in Trough Sitting Diastolic Blood Pressure", "description": "Value at end of treatment minus value at baseline, comparing the high-dose ramipril group with placebo", "timeFrame": "Baseline to 4 weeks"}, {"measure": "Change From Baseline to 4 Weeks in Serum Creatinine", "description": "Value at end of treatment (up to 4 weeks) minus value at baseline", "timeFrame": "Baseline up to 4 weeks"}, {"measure": "Change From Baseline to 4 Weeks in Serum Potassium", "description": "Value at end of treatment (up to 4 weeks) minus value at baseline", "timeFrame": "Baseline up to 4 weeks"}, {"measure": "Change From Baseline to 4 Weeks in Schwartz Formula Glomerular Filtration Rate (GFR)", "description": "Value at end of treatment (up to 4 weeks) minus value at baseline; GFR is a measure of kidney function.", "timeFrame": "Baseline up to 4 weeks"}]}, "eligibilityModule": {"eligibilityCriteria": "Inclusion Criteria:\n\n1. Previous, documented diagnosis of hypertension, or newly diagnosed hypertension according to the fourth report on the diagnosis, evaluation and treatment of high blood pressure in children and adolescents (United States). SiSBP greater than or equal to the 95th percentile for age, gender, and height.\n2. The subject can be safely withdrawn from antihypertensive medications during the screening period, and if given placebo during the treatment period in the judgment of the Investigator.\n3. The subject is male or female age 6 to 16 years (inclusive), and weighs greater than or equal to 20 kg.\n4. Female subjects greater than or equal to 12 years of age, or who have had greater than or equal to 1 menstruation must: (a) have a negative serum pregnancy test at screening (i.e., subject is not pregnant), (b) not be lactating, and (c) use an acceptable method of contraception.\n5. Parents/guardians are able to demonstrate their ability to (a) use a home blood pressure monitor supplied for the study to monitor their child's blood pressure, and (2) mix and administer a liquid dose of study drug if needed.\n\nExclusion Criteria:\n\n1. Bilateral renal artery stenosis.\n2. Uncorrected coarctation of the aorta or corrected coarctation with a right arm/right leg blood pressure gradient greater than 10 mmHg.\n3. Severe hypertension.\n4. Renal transplantation or other previous solid organ transplantation less than 6 months prior to entering the study.\n5. Subjects with nephrotic syndrome not on stable maintenance therapy of prednisone or cyclosporine.\n6. A history of cardiomyopathy, clinically significant structural heart disease, or atrioventricular conduction disturbance, sick sinus syndrome, atrial flutter, atrial fibrillation, clinically significant bradycardia or an accessory bypass tract, or clinical symptoms of congestive heart failure.\n7. Clinically significant hematologic, hepatobiliary, or renal disease including a Schwartz formula GFR less than 40 mL/min/1.73 m2, and/or serum potassium (K+) greater than 5.5 mEq/L.\n8. History of pancreatitis (active or inactive).\n9. Known sensitivity to angiotensin converting enzyme inhibitors or a history of angioneurotic edema.", "healthyVolunteers": false, "sex": "ALL", "minimumAge": "6 Years", "maximumAge": "16 Years", "stdAges": ["CHILD"]}, "contactsLocationsModule": {"locations": [{"facility": "UAMS College of Medicine/ Arkansas Children's Hospital", "city": "Little Rock", "state": "Arkansas", "zip": "72202", "country": "United States", "geoPoint": {"lat": 34.74648, "lon": -92.28959}}, {"facility": "Woodland International Research Group, LLC", "city": "Little Rock", "state": "Arkansas", "zip": "72211", "country": "United States", "geoPoint": {"lat": 34.74648, "lon": -92.28959}}, {"facility": "Impact Clinical Research", "city": "Beverly Hills", "state": "California", "zip": "90211", "country": "United States", "geoPoint": {"lat": 34.07362, "lon": -118.40036}}, {"facility": "Neufeld Medical Group", "city": "Los Angeles", "state": "California", "zip": "90048", "country": "United States", "geoPoint": {"lat": 34.05223, "lon": -118.24368}}, {"facility": "Almon Clinical Research, Inc.", "city": "Orange", "state": "California", "zip": "92868", "country": "United States", "geoPoint": {"lat": 33.78779, "lon": -117.85311}}, {"facility": "Pediatrics in Brevard", "city": "Cocoa Beach", "state": "Florida", "zip": "33155", "country": "United States", "geoPoint": {"lat": 28.32045, "lon": -80.60947}}, {"facility": "Watson Clinic Center for Research, Inc.", "city": "Lakeland", "state": "Florida", "zip": "33805", "country": "United States", "geoPoint": {"lat": 28.03947, "lon": -81.9498}}, {"facility": "Emory University", "city": "Atlanta", "state": "Georgia", "zip": "30322", "country": "United States", "geoPoint": {"lat": 33.749, "lon": -84.38798}}, {"facility": "Medical College of Georgia", "city": "Augusta", "state": "Georgia", "zip": "30912", "country": "United States", "geoPoint": {"lat": 33.47097, "lon": -81.97484}}, {"facility": "Hawaii Pacific Health", "city": "Honolulu", "state": "Hawaii", "zip": "96813", "country": "United States", "geoPoint": {"lat": 21.30694, "lon": -157.85833}}, {"facility": "Nephrology and Hypertension Consultants", "city": "Park Ridge", "state": "Illinois", "zip": "60068", "country": "United States", "geoPoint": {"lat": 42.01114, "lon": -87.84062}}, {"facility": "Tinley Park Pediatric Associates", "city": "Tinley Park", "state": "Illinois", "zip": "60477", "country": "United States", "geoPoint": {"lat": 41.57337, "lon": -87.78449}}, {"facility": "Kosair Children's Hospital", "city": "Louisville", "state": "Kentucky", "zip": "40202", "country": "United States", "geoPoint": {"lat": 38.25424, "lon": -85.75941}}, {"facility": "Louisiana State University", "city": "Shreveport", "state": "Louisiana", "zip": "71103", "country": "United States", "geoPoint": {"lat": 32.52515, "lon": -93.75018}}, {"facility": "Craig Spiegel, MD", "city": "Bridgeton", "state": "Missouri", "zip": "63044", "country": "United States", "geoPoint": {"lat": 38.767, "lon": -90.41151}}, {"facility": "Impact Clinical Trials", "city": "Las Vegas", "state": "Nevada", "zip": "89106", "country": "United States", "geoPoint": {"lat": 36.17497, "lon": -115.13722}}, {"facility": "Children's Heart Center", "city": "Las Vegas", "state": "Nevada", "zip": "89109", "country": "United States", "geoPoint": {"lat": 36.17497, "lon": -115.13722}}, {"facility": "Premier Clinical Research Group", "city": "Toms River", "state": "New Jersey", "zip": "08755", "country": "United States", "geoPoint": {"lat": 39.95373, "lon": -74.19792}}, {"facility": "SUNY Upstate Syracuse, Department of Pediatrics", "city": "Syracuse", "state": "New York", "zip": "13210", "country": "United States", "geoPoint": {"lat": 43.04812, "lon": -76.14742}}, {"facility": "Hartrich Aquino & Hrab, PC", "city": "Williamsville", "state": "New York", "zip": "14221", "country": "United States", "geoPoint": {"lat": 42.96395, "lon": -78.73781}}, {"facility": "Western Wake Pediatrics", "city": "Cary", "state": "North Carolina", "zip": "27518", "country": "United States", "geoPoint": {"lat": 35.79154, "lon": -78.78112}}, {"facility": "University of North Carolina", "city": "Chapel Hill", "state": "North Carolina", "zip": "27514", "country": "United States", "geoPoint": {"lat": 35.9132, "lon": -79.05584}}, {"facility": "Duke Pediatric Clinical Research Program", "city": "Durham", "state": "North Carolina", "zip": "27710", "country": "United States", "geoPoint": {"lat": 35.99403, "lon": -78.89862}}, {"facility": "North Carolina Children's and Adults Clinical Research Foundation", "city": "Sylva", "state": "North Carolina", "zip": "28779", "country": "United States", "geoPoint": {"lat": 35.37371, "lon": -83.22598}}, {"facility": "Cincinnati Children's Hospital Medical Center", "city": "Cincinnati", "state": "Ohio", "zip": "45229", "country": "United States", "geoPoint": {"lat": 39.12713, "lon": -84.51435}}, {"facility": "Center for Clinical and Translational Research", "city": "Columbus", "state": "Ohio", "zip": "43205", "country": "United States", "geoPoint": {"lat": 39.96118, "lon": -82.99879}}, {"facility": "Central Sooner Research", "city": "Norman", "state": "Oklahoma", "zip": "73069", "country": "United States", "geoPoint": {"lat": 35.22257, "lon": -97.43948}}, {"facility": "The University of Oklahoma", "city": "Tulsa", "state": "Oklahoma", "zip": "74135", "country": "United States", "geoPoint": {"lat": 36.15398, "lon": -95.99277}}, {"facility": "Oregon Health and Science University", "city": "Portland", "state": "Oregon", "zip": "97201", "country": "United States", "geoPoint": {"lat": 45.52345, "lon": -122.67621}}, {"facility": "Northwest Pediatric Kidney Specialists, LLC", "city": "Portland", "state": "Oregon", "zip": "97227", "country": "United States", "geoPoint": {"lat": 45.52345, "lon": -122.67621}}, {"facility": "Thomas Jefferson University Hospital", "city": "Philadelphia", "state": "Pennsylvania", "zip": "19107", "country": "United States", "geoPoint": {"lat": 39.95233, "lon": -75.16379}}, {"facility": "Holston Medical Group", "city": "Kingsport", "state": "Tennessee", "zip": "37660", "country": "United States", "geoPoint": {"lat": 36.54843, "lon": -82.56182}}, {"facility": "Le Bonheur Children's Hospital", "city": "Memphis", "state": "Tennessee", "zip": "38105", "country": "United States", "geoPoint": {"lat": 35.14953, "lon": -90.04898}}, {"facility": "South East Texas Cardiology Associates", "city": "Beaumont", "state": "Texas", "zip": "77701", "country": "United States", "geoPoint": {"lat": 30.08605, "lon": -94.10185}}, {"facility": "University of Texas Medical Center", "city": "Houston", "state": "Texas", "zip": "77030", "country": "United States", "geoPoint": {"lat": 29.76328, "lon": -95.36327}}, {"facility": "University of Utah", "city": "Salt Lake City", "state": "Utah", "zip": "84108", "country": "United States", "geoPoint": {"lat": 40.76078, "lon": -111.89105}}, {"facility": "University of Virginia", "city": "Charlottesville", "state": "Virginia", "zip": "22908", "country": "United States", "geoPoint": {"lat": 38.02931, "lon": -78.47668}}, {"facility": "Huguenot Pediatrics", "city": "Midlothian", "state": "Virginia", "zip": "23113", "country": "United States", "geoPoint": {"lat": 37.50598, "lon": -77.64916}}, {"facility": "Children's Specialty Group", "city": "Norfolk", "state": "Virginia", "zip": "23510", "country": "United States", "geoPoint": {"lat": 36.84681, "lon": -76.28522}}, {"facility": "Hospital de Ni\u00f1os \"Dr. Ricardo Guti\u00e9rrez\"", "city": "Buenos Aires", "country": "Argentina", "geoPoint": {"lat": -34.61315, "lon": -58.37723}}, {"facility": "Hospital General Interzonal \"Dr. Jos\u00e9 Penna\"", "city": "Buenos Aires", "country": "Argentina", "geoPoint": {"lat": -34.61315, "lon": -58.37723}}, {"facility": "Hospital Interzonal Especializado Materno Infantil", "city": "Buenos Aires", "country": "Argentina", "geoPoint": {"lat": -34.61315, "lon": -58.37723}}, {"facility": "Hospital Italiano de Buenos Aires", "city": "Buenos Aires", "country": "Argentina", "geoPoint": {"lat": -34.61315, "lon": -58.37723}}, {"facility": "Hospital de Ni\u00f1os Juan Carlos Navarro", "city": "San Juan", "country": "Argentina", "geoPoint": {"lat": -31.5375, "lon": -68.53639}}, {"facility": "Centro Infantil del R\u00ednon", "city": "Tucom\u00e1n", "country": "Argentina"}, {"facility": "Cl\u00ednica Las Condes", "city": "Santiago", "country": "Chile", "geoPoint": {"lat": -33.45694, "lon": -70.64827}}, {"facility": "Hospital de Ni\u00f1os Roberto del Rio", "city": "Santiago", "country": "Chile", "geoPoint": {"lat": -33.45694, "lon": -70.64827}}, {"facility": "Hospital Luis Calvo Mackena", "city": "Santiago", "country": "Chile", "geoPoint": {"lat": -33.45694, "lon": -70.64827}}, {"facility": "Hospital Dr. Gustavo Fricke", "city": "Vina del Mar", "country": "Chile", "geoPoint": {"lat": -33.02457, "lon": -71.55183}}, {"facility": "Fundaci\u00f3n Bios", "city": "Barranquilla", "country": "Colombia", "geoPoint": {"lat": 10.96854, "lon": -74.78132}}, {"facility": "Fundaci\u00f3n Cardio Infantil - Instituto de Cardiolog\u00eda", "city": "Bogot\u00e1", "country": "Colombia", "geoPoint": {"lat": 4.60971, "lon": -74.08175}}, {"facility": "Hospital de San Jose", "city": "Bogot\u00e1", "country": "Colombia", "geoPoint": {"lat": 4.60971, "lon": -74.08175}}, {"facility": "Instituto Nacional del Ri\u00f1\u00f3n", "city": "Bogot\u00e1", "country": "Colombia", "geoPoint": {"lat": 4.60971, "lon": -74.08175}}, {"facility": "Hospital Pablo Tobon Uribe", "city": "Medellin", "country": "Colombia", "geoPoint": {"lat": 6.25184, "lon": -75.56359}}, {"facility": "Hospital Universitario San Vicente de Paul", "city": "Medellin", "country": "Colombia", "geoPoint": {"lat": 6.25184, "lon": -75.56359}}, {"facility": "Hospital Pablo Tobon Uribe", "city": "Medell\u00edn", "country": "Colombia", "geoPoint": {"lat": 6.25184, "lon": -75.56359}}, {"facility": "Gujarat Kidney Foundation, Jivraj Mehta Hospital", "city": "Ahmedabad", "country": "India", "geoPoint": {"lat": 23.02579, "lon": 72.58727}}, {"facility": "Heart Care Clinic", "city": "Ahmedabad", "country": "India", "geoPoint": {"lat": 23.02579, "lon": 72.58727}}, {"facility": "St. John's Hospital", "city": "Bangalore", "country": "India", "geoPoint": {"lat": 12.97194, "lon": 77.59369}}, {"facility": "Institute of Child Health & Hospital for Children", "city": "Chennai", "country": "India", "geoPoint": {"lat": 13.08784, "lon": 80.27847}}, {"facility": "AIl India Institute medical sciences", "city": "Delhi", "country": "India", "geoPoint": {"lat": 28.65195, "lon": 77.23149}}, {"facility": "Apollo Hospital", "city": "Delhi", "country": "India", "geoPoint": {"lat": 28.65195, "lon": 77.23149}}, {"facility": "Maulana Azad Medical College and Lok Nayak Hospital", "city": "Delhi", "country": "India", "geoPoint": {"lat": 28.65195, "lon": 77.23149}}, {"facility": "Apollo Hospital Hyderabad", "city": "Hyderabaad", "country": "India", "geoPoint": {"lat": 17.38405, "lon": 78.45636}}, {"facility": "Nizam's Institute of Medical Sciences", "city": "Hyderabaad", "country": "India", "geoPoint": {"lat": 17.38405, "lon": 78.45636}}, {"facility": "Christian Medical College and Hospital", "city": "Ludhiana", "country": "India", "geoPoint": {"lat": 30.91204, "lon": 75.85379}}, {"facility": "Jaslok Hospital and Research Centre", "city": "Mumbai", "country": "India", "geoPoint": {"lat": 19.07283, "lon": 72.88261}}, {"facility": "KEM Hospital Research Centre", "city": "Pune", "country": "India", "geoPoint": {"lat": 18.51957, "lon": 73.85535}}, {"facility": "Kerala Institute of Medical Science", "city": "Trivandrum", "country": "India", "geoPoint": {"lat": 8.4855, "lon": 76.94924}}, {"facility": "Klinika Nefrologii Dzieciecej SPSK nr 1 ACK AMG", "city": "Gdansk", "country": "Poland", "geoPoint": {"lat": 54.35205, "lon": 18.64637}}, {"facility": "Katedra i Klinika Kardiologii Dzieciecej SK nr 6, Gornoslaskie Centrum Zdrowia Dziecka i Matki, Slaska AM", "city": "Katowice", "country": "Poland", "geoPoint": {"lat": 50.25841, "lon": 19.02754}}, {"facility": "II Katedra Pediatrii, Klinika Kardiologii Dzieciecej UM w Lodzi", "city": "Lodz", "country": "Poland", "geoPoint": {"lat": 51.75, "lon": 19.46667}}, {"facility": "Klinika Nefrologii i Dializoterapii, Instytut Centrum Zdrowia Matki Polki", "city": "Lodz", "country": "Poland", "geoPoint": {"lat": 51.75, "lon": 19.46667}}, {"facility": "Klinika Kardiologii i Nefrologii Dzieciecej AM", "city": "Poznan", "country": "Poland", "geoPoint": {"lat": 52.40692, "lon": 16.92993}}, {"facility": "I Klinika Chorob Dzieci SPSK nr 1 PAM", "city": "Szczecin", "country": "Poland", "geoPoint": {"lat": 53.42894, "lon": 14.55302}}, {"facility": "Oddzial Nefrologi Dzieciecej ze Stacja Dializ SSP ZOZ nad Dziecklem i Mlodzieza", "city": "Szczecin", "country": "Poland", "geoPoint": {"lat": 53.42894, "lon": 14.55302}}, {"facility": "Oddzial Pediatrii i Nefrologii ze Stacja Dializ, Wojewodzki Szpital Dzieciecy", "city": "Torun", "country": "Poland", "geoPoint": {"lat": 53.01375, "lon": 18.59814}}, {"facility": "Klinika Nefrologii i Transplantacji Nerek, Instytut Pomnik Centrum Zdrowia Dziecka", "city": "Warszawa", "country": "Poland", "geoPoint": {"lat": 52.22977, "lon": 21.01178}}, {"facility": "Klinika Nefrologii Pediatrycznej AM", "city": "Wroclaw", "country": "Poland", "geoPoint": {"lat": 51.1, "lon": 17.03333}}, {"facility": "Benmed Park Clinic", "city": "Benoni", "country": "South Africa", "geoPoint": {"lat": -26.18848, "lon": 28.32078}}, {"facility": "Chris Hani Baragwanath", "city": "Johannesburg", "country": "South Africa", "geoPoint": {"lat": -26.20227, "lon": 28.04363}}, {"facility": "Global Clinical Trial Centre", "city": "Port Elizabeth", "country": "South Africa", "geoPoint": {"lat": -33.91799, "lon": 25.57007}}, {"facility": "Potchefstroom Medi-Clinic", "city": "Potchefstroom", "country": "South Africa", "geoPoint": {"lat": -26.71667, "lon": 27.1}}, {"facility": "Eastmed Medical centre", "city": "Pretoria", "country": "South Africa", "geoPoint": {"lat": -25.74486, "lon": 28.18783}}, {"facility": "Jubilee CTC Jubilee Hospital", "city": "Pretoria", "country": "South Africa", "geoPoint": {"lat": -25.74486, "lon": 28.18783}}, {"facility": "Pretoria Academic Hospital", "city": "Pretoria", "country": "South Africa", "geoPoint": {"lat": -25.74486, "lon": 28.18783}}, {"facility": "Zuid Afrikaans Hospital", "city": "Pretoria", "country": "South Africa", "geoPoint": {"lat": -25.74486, "lon": 28.18783}}, {"facility": "Sandton Clinical Research Centre", "city": "Sandton", "country": "South Africa", "geoPoint": {"lat": -26.05524, "lon": 28.05943}}, {"facility": "Istanbul University Istanbul Medical Faculty Pediatric Nephrology", "city": "Istanbul", "country": "Turkey", "geoPoint": {"lat": 41.01384, "lon": 28.94966}}, {"facility": "Marmara University Medical Faculty Pediatric Nephrology", "city": "Istanbul", "country": "Turkey", "geoPoint": {"lat": 41.01384, "lon": 28.94966}}, {"facility": "Dokuzeylul University Medical Faculty Pediatric Nephrology", "city": "Izmir", "country": "Turkey", "geoPoint": {"lat": 38.41273, "lon": 27.13838}}, {"facility": "Ondokummayis University Medical Faculty Pediatric Nephrology", "city": "Samsun", "country": "Turkey", "geoPoint": {"lat": 41.27976, "lon": 36.3361}}, {"facility": "Dnepropetrovsk Medical Academy, Department of Hospital Pediatrics on the bases of Regional Pediatric Hospital", "city": "Dnepropetrovsk", "country": "Ukraine", "geoPoint": {"lat": 48.4593, "lon": 35.03864}}, {"facility": "Kharkov State University,Dept. of hospital pediatric on the bases of Regional Children's Hospital", "city": "Kharkov", "country": "Ukraine", "geoPoint": {"lat": 49.98081, "lon": 36.25272}}, {"facility": "NMU n.b. Bogomolets, on b.o. Chil. Clin.Hosp.#2, Department of Pediatrics #2", "city": "Kiev", "country": "Ukraine", "geoPoint": {"lat": 50.45466, "lon": 30.5238}}, {"facility": "Institute of Pediatrics and Obstetrics AMS of Ukraine, Department of ecology related health problems", "city": "Kyiv", "country": "Ukraine", "geoPoint": {"lat": 50.45466, "lon": 30.5238}}, {"facility": "Danylo Halytskiy Lviv NationalMedical University, Department of Faculty", "city": "Lviv", "country": "Ukraine", "geoPoint": {"lat": 49.83826, "lon": 24.02324}}, {"facility": "Odessa State Medical University, Dept. of hospital pediatric and neonotology on the bases of Regional Children Hospital", "city": "Odessa", "country": "Ukraine", "geoPoint": {"lat": 46.47747, "lon": 30.73262}}, {"facility": "Crim.St. Med. Uni. On b.o. Rep. Child.Clin.Hosp. Chair of Pediat. W.c. of Physioth. Of the Postgr.dept", "city": "Simferopol", "country": "Ukraine", "geoPoint": {"lat": 44.95719, "lon": 34.11079}}, {"facility": "Uzhorod National University, Medical faculty, Department of Children's disease with course of Infection disease on the basis of City Children's Clinical Hospital.", "city": "Uzhorod", "country": "Ukraine", "geoPoint": {"lat": 48.61667, "lon": 22.3}}, {"facility": "Vinnitsa National Medical Academy, Department of Hospital Pediatrics on the bases of Regional Pediatric Hospital", "city": "Vinnitsa", "country": "Ukraine", "geoPoint": {"lat": 49.84639, "lon": 37.71861}}]}}, "resultsSection": {"participantFlowModule": {"preAssignmentDetails": "Subjects entered placebo run-in prior to randomization", "recruitmentDetails": "Study was conducted from October 2006 to November 2007 at 56 international sites", "groups": [{"id": "FG000", "title": "Placebo"}, {"id": "FG001", "title": "Ramipril Low Dose"}, {"id": "FG002", "title": "Ramipril Mid Dose"}, {"id": "FG003", "title": "Ramipril High Dose"}], "periods": [{"title": "Placebo Run-In", "milestones": [{"type": "STARTED", "achievements": [{"groupId": "FG000", "numSubjects": "422"}, {"groupId": "FG001", "numSubjects": "0"}, {"groupId": "FG002", "numSubjects": "0"}, {"groupId": "FG003", "numSubjects": "0"}]}, {"type": "COMPLETED", "achievements": [{"groupId": "FG000", "numSubjects": "244"}, {"groupId": "FG001", "numSubjects": "0"}, {"groupId": "FG002", "numSubjects": "0"}, {"groupId": "FG003", "numSubjects": "0"}]}, {"type": "NOT COMPLETED", "achievements": [{"groupId": "FG000", "numSubjects": "178"}, {"groupId": "FG001", "numSubjects": "0"}, {"groupId": "FG002", "numSubjects": "0"}, {"groupId": "FG003", "numSubjects": "0"}]}], "dropWithdraws": [{"type": "Did not meet blood pressure criteria", "reasons": [{"groupId": "FG000", "numSubjects": "119"}, {"groupId": "FG001", "numSubjects": "0"}, {"groupId": "FG002", "numSubjects": "0"}, {"groupId": "FG003", "numSubjects": "0"}]}, {"type": "Withdrawal by Subject", "reasons": [{"groupId": "FG000", "numSubjects": "19"}, {"groupId": "FG001", "numSubjects": "0"}, {"groupId": "FG002", "numSubjects": "0"}, {"groupId": "FG003", "numSubjects": "0"}]}, {"type": "Reason not specified", "reasons": [{"groupId": "FG000", "numSubjects": "40"}, {"groupId": "FG001", "numSubjects": "0"}, {"groupId": "FG002", "numSubjects": "0"}, {"groupId": "FG003", "numSubjects": "0"}]}]}, {"title": "Randomized", "milestones": [{"type": "STARTED", "achievements": [{"groupId": "FG000", "numSubjects": "83"}, {"groupId": "FG001", "numSubjects": "41"}, {"groupId": "FG002", "numSubjects": "40"}, {"groupId": "FG003", "numSubjects": "80"}]}, {"type": "COMPLETED", "achievements": [{"groupId": "FG000", "numSubjects": "81"}, {"groupId": "FG001", "numSubjects": "41"}, {"groupId": "FG002", "numSubjects": "40"}, {"groupId": "FG003", "numSubjects": "80"}]}, {"type": "NOT COMPLETED", "achievements": [{"groupId": "FG000", "numSubjects": "2"}, {"groupId": "FG001", "numSubjects": "0"}, {"groupId": "FG002", "numSubjects": "0"}, {"groupId": "FG003", "numSubjects": "0"}]}], "dropWithdraws": [{"type": "Did not receive study drug", "reasons": [{"groupId": "FG000", "numSubjects": "2"}, {"groupId": "FG001", "numSubjects": "0"}, {"groupId": "FG002", "numSubjects": "0"}, {"groupId": "FG003", "numSubjects": "0"}]}]}, {"title": "Treated", "milestones": [{"type": "STARTED", "achievements": [{"groupId": "FG000", "numSubjects": "81"}, {"groupId": "FG001", "numSubjects": "41"}, {"groupId": "FG002", "numSubjects": "40"}, {"groupId": "FG003", "numSubjects": "80"}]}, {"type": "COMPLETED", "achievements": [{"groupId": "FG000", "numSubjects": "79"}, {"groupId": "FG001", "numSubjects": "40"}, {"groupId": "FG002", "numSubjects": "40"}, {"groupId": "FG003", "numSubjects": "76"}]}, {"type": "NOT COMPLETED", "achievements": [{"groupId": "FG000", "numSubjects": "2"}, {"groupId": "FG001", "numSubjects": "1"}, {"groupId": "FG002", "numSubjects": "0"}, {"groupId": "FG003", "numSubjects": "4"}]}], "dropWithdraws": [{"type": "Adverse Event", "reasons": [{"groupId": "FG000", "numSubjects": "1"}, {"groupId": "FG001", "numSubjects": "0"}, {"groupId": "FG002", "numSubjects": "0"}, {"groupId": "FG003", "numSubjects": "2"}]}, {"type": "Reason not specified", "reasons": [{"groupId": "FG000", "numSubjects": "1"}, {"groupId": "FG001", "numSubjects": "1"}, {"groupId": "FG002", "numSubjects": "0"}, {"groupId": "FG003", "numSubjects": "2"}]}]}]}, "baselineCharacteristicsModule": {"groups": [{"id": "BG000", "title": "Placebo"}, {"id": "BG001", "title": "Ramipril Low Dose"}, {"id": "BG002", "title": "Ramipril Mid Dose"}, {"id": "BG003", "title": "Ramipril High Dose"}, {"id": "BG004", "title": "Total", "description": "Total of all reporting groups"}], "denoms": [{"units": "Participants", "counts": [{"groupId": "BG000", "value": "81"}, {"groupId": "BG001", "value": "41"}, {"groupId": "BG002", "value": "40"}, {"groupId": "BG003", "value": "80"}, {"groupId": "BG004", "value": "242"}]}], "measures": [{"title": "Age Continuous", "paramType": "MEAN", "dispersionType": "STANDARD_DEVIATION", "unitOfMeasure": "years", "classes": [{"categories": [{"measurements": [{"groupId": "BG000", "value": "12.2", "spread": "3.06"}, {"groupId": "BG001", "value": "12.3", "spread": "3.03"}, {"groupId": "BG002", "value": "12.1", "spread": "2.81"}, {"groupId": "BG003", "value": "12.3", "spread": "3.06"}, {"groupId": "BG004", "value": "12.2", "spread": "2.99"}]}]}]}, {"title": "Sex: Female, Male", "paramType": "COUNT_OF_PARTICIPANTS", "unitOfMeasure": "Participants", "classes": [{"categories": [{"title": "Female", "measurements": [{"groupId": "BG000", "value": "32"}, {"groupId": "BG001", "value": "16"}, {"groupId": "BG002", "value": "11"}, {"groupId": "BG003", "value": "29"}, {"groupId": "BG004", "value": "88"}]}, {"title": "Male", "measurements": [{"groupId": "BG000", "value": "49"}, {"groupId": "BG001", "value": "25"}, {"groupId": "BG002", "value": "29"}, {"groupId": "BG003", "value": "51"}, {"groupId": "BG004", "value": "154"}]}]}]}, {"title": "Race/Ethnicity, Customized", "paramType": "NUMBER", "unitOfMeasure": "participants", "classes": [{"title": "Black", "categories": [{"measurements": [{"groupId": "BG000", "value": "21"}, {"groupId": "BG001", "value": "11"}, {"groupId": "BG002", "value": "10"}, {"groupId": "BG003", "value": "20"}, {"groupId": "BG004", "value": "62"}]}]}, {"title": "Asian", "categories": [{"measurements": [{"groupId": "BG000", "value": "8"}, {"groupId": "BG001", "value": "1"}, {"groupId": "BG002", "value": "4"}, {"groupId": "BG003", "value": "10"}, {"groupId": "BG004", "value": "23"}]}]}, {"title": "Caucasian", "categories": [{"measurements": [{"groupId": "BG000", "value": "27"}, {"groupId": "BG001", "value": "15"}, {"groupId": "BG002", "value": "13"}, {"groupId": "BG003", "value": "29"}, {"groupId": "BG004", "value": "84"}]}]}, {"title": "Hispanic", "categories": [{"measurements": [{"groupId": "BG000", "value": "25"}, {"groupId": "BG001", "value": "14"}, {"groupId": "BG002", "value": "13"}, {"groupId": "BG003", "value": "20"}, {"groupId": "BG004", "value": "72"}]}]}, {"title": "Other", "categories": [{"measurements": [{"groupId": "BG000", "value": "0"}, {"groupId": "BG001", "value": "0"}, {"groupId": "BG002", "value": "0"}, {"groupId": "BG003", "value": "1"}, {"groupId": "BG004", "value": "1"}]}]}]}]}, "outcomeMeasuresModule": {"outcomeMeasures": [{"type": "PRIMARY", "title": "Change From Baseline to 4 Weeks in Trough Sitting Systolic Blood Pressure", "description": "Value at end of treatment minus value at baseline, comparing the high-dose ramipril group with placebo", "populationDescription": "Intent to treat (ITT) analysis including only treated participants who had at least one post-baseline assessment (1 placebo patient was treated but had no post-baseline assessment); last observation carried forward (LOCF)", "reportingStatus": "POSTED", "paramType": "MEAN", "dispersionType": "Standard Deviation", "unitOfMeasure": "mm Hg", "timeFrame": "Baseline to 4 weeks", "groups": [{"id": "OG000", "title": "Placebo"}, {"id": "OG001", "title": "Ramipril Low Dose"}, {"id": "OG002", "title": "Ramipril Mid Dose"}, {"id": "OG003", "title": "Ramipril High Dose"}], "denoms": [{"units": "Participants", "counts": [{"groupId": "OG000", "value": "80"}, {"groupId": "OG001", "value": "41"}, {"groupId": "OG002", "value": "40"}, {"groupId": "OG003", "value": "80"}]}], "classes": [{"categories": [{"measurements": [{"groupId": "OG000", "value": "-8.1", "spread": "7.92"}, {"groupId": "OG001", "value": "-9.7", "spread": "10.68"}, {"groupId": "OG002", "value": "-11.1", "spread": "8.88"}, {"groupId": "OG003", "value": "-11.3", "spread": "8.76"}]}]}], "analyses": [{"groupIds": ["OG000", "OG003"], "groupDescription": "Planned interim efficacy analysis: 80 placebo and 80 high-dose ramipril subjects provided 93% power, alpha=0.032, to detect 5 mmHg difference in primary outcome. SD of 8.5 mmHg assumed. Alpha of 0.032 required for the planned interim efficacy analysis.\n\nIf study continued: 450 total subjects would provide 90% power, alpha=0.027, to detect 3 mmHg difference between placebo and combined ramipril dose groups. Alpha of 0.027 required for the final analysis.", "testedNonInferiority": false, "nonInferiorityType": "SUPERIORITY_OR_OTHER", "pValue": "0.044", "pValueComment": "two-sided test", "statisticalMethod": "ANCOVA", "statisticalComment": "test from contrast statement from full model", "ciPctValue": "95"}]}, {"type": "SECONDARY", "title": "Change From Baseline to 4 Weeks in Trough Sitting Diastolic Blood Pressure", "description": "Value at end of treatment minus value at baseline, comparing the high-dose ramipril group with placebo", "populationDescription": "Intent to treat (ITT) analysis including only treated participants who had at least one post-baseline assessment (1 placebo patient was treated but had no post-baseline assessment); last observation carried forward (LOCF)", "reportingStatus": "POSTED", "paramType": "MEAN", "dispersionType": "Standard Deviation", "unitOfMeasure": "mm Hg", "timeFrame": "Baseline to 4 weeks", "groups": [{"id": "OG000", "title": "Placebo"}, {"id": "OG001", "title": "Ramipril Low Dose"}, {"id": "OG002", "title": "Ramipril Mid Dose"}, {"id": "OG003", "title": "Ramipril High Dose"}], "denoms": [{"units": "Participants", "counts": [{"groupId": "OG000", "value": "80"}, {"groupId": "OG001", "value": "41"}, {"groupId": "OG002", "value": "40"}, {"groupId": "OG003", "value": "80"}]}], "classes": [{"categories": [{"measurements": [{"groupId": "OG000", "value": "-5.0", "spread": "10.04"}, {"groupId": "OG001", "value": "-5.8", "spread": "10.17"}, {"groupId": "OG002", "value": "-6.1", "spread": "8.03"}, {"groupId": "OG003", "value": "-8.4", "spread": "9.14"}]}]}], "analyses": [{"groupIds": ["OG000", "OG003"], "testedNonInferiority": false, "nonInferiorityType": "SUPERIORITY_OR_OTHER", "pValue": "0.006", "pValueComment": "two-sided, unadjusted", "statisticalMethod": "ANCOVA", "statisticalComment": "test from contrast statement from full model", "ciPctValue": "95"}]}, {"type": "SECONDARY", "title": "Change From Baseline to 4 Weeks in Serum Creatinine", "description": "Value at end of treatment (up to 4 weeks) minus value at baseline", "populationDescription": "Number of participants analyzed is less than number treated in the participant flow section because analysis includes only treated participants who had both a baseline and a post-baseline assessment; LOCF", "reportingStatus": "POSTED", "paramType": "MEAN", "dispersionType": "Standard Deviation", "unitOfMeasure": "mg/dL", "timeFrame": "Baseline up to 4 weeks", "groups": [{"id": "OG000", "title": "Placebo"}, {"id": "OG001", "title": "Ramipril Low Dose"}, {"id": "OG002", "title": "Ramipril Mid Dose"}, {"id": "OG003", "title": "Ramipril High Dose"}], "denoms": [{"units": "Participants", "counts": [{"groupId": "OG000", "value": "78"}, {"groupId": "OG001", "value": "39"}, {"groupId": "OG002", "value": "38"}, {"groupId": "OG003", "value": "77"}]}], "classes": [{"categories": [{"measurements": [{"groupId": "OG000", "value": "0.04", "spread": "0.305"}, {"groupId": "OG001", "value": "0.06", "spread": "0.275"}, {"groupId": "OG002", "value": "0.03", "spread": "0.133"}, {"groupId": "OG003", "value": "0.06", "spread": "0.211"}]}]}]}, {"type": "SECONDARY", "title": "Change From Baseline to 4 Weeks in Serum Potassium", "description": "Value at end of treatment (up to 4 weeks) minus value at baseline", "populationDescription": "Number of participants analyzed is less than number treated in the participant flow section because analysis includes only treated participants who had both a baseline and a post-baseline assessment; LOCF", "reportingStatus": "POSTED", "paramType": "MEAN", "dispersionType": "Standard Deviation", "unitOfMeasure": "mg/dL", "timeFrame": "Baseline up to 4 weeks", "groups": [{"id": "OG000", "title": "Placebo"}, {"id": "OG001", "title": "Ramipril Low Dose"}, {"id": "OG002", "title": "Ramipril Mid Dose"}, {"id": "OG003", "title": "Ramipril High Dose"}], "denoms": [{"units": "Participants", "counts": [{"groupId": "OG000", "value": "79"}, {"groupId": "OG001", "value": "39"}, {"groupId": "OG002", "value": "40"}, {"groupId": "OG003", "value": "77"}]}], "classes": [{"categories": [{"measurements": [{"groupId": "OG000", "value": "0.01", "spread": "0.742"}, {"groupId": "OG001", "value": "-0.20", "spread": "0.475"}, {"groupId": "OG002", "value": "-0.08", "spread": "0.418"}, {"groupId": "OG003", "value": "0.07", "spread": "0.559"}]}]}]}, {"type": "SECONDARY", "title": "Change From Baseline to 4 Weeks in Schwartz Formula Glomerular Filtration Rate (GFR)", "description": "Value at end of treatment (up to 4 weeks) minus value at baseline; GFR is a measure of kidney function.", "populationDescription": "Number of participants analyzed is less than number treated in the participant flow section because analysis includes only treated participants who had both a baseline and a post-baseline assessment; LOCF", "reportingStatus": "POSTED", "paramType": "MEAN", "dispersionType": "Standard Deviation", "unitOfMeasure": "mL/min per 1.73 m2", "timeFrame": "Baseline up to 4 weeks", "groups": [{"id": "OG000", "title": "Placebo"}, {"id": "OG001", "title": "Ramipril Low Dose"}, {"id": "OG002", "title": "Ramipril Mid Dose"}, {"id": "OG003", "title": "Ramipril High Dose"}], "denoms": [{"units": "Participants", "counts": [{"groupId": "OG000", "value": "78"}, {"groupId": "OG001", "value": "39"}, {"groupId": "OG002", "value": "38"}, {"groupId": "OG003", "value": "77"}]}], "classes": [{"categories": [{"measurements": [{"groupId": "OG000", "value": "-4.2", "spread": "27.85"}, {"groupId": "OG001", "value": "-6.0", "spread": "24.74"}, {"groupId": "OG002", "value": "-5.9", "spread": "26.29"}, {"groupId": "OG003", "value": "-6.9", "spread": "30.58"}]}]}]}]}, "adverseEventsModule": {"frequencyThreshold": "5", "eventGroups": [{"id": "EG000", "title": "Placebo", "seriousNumAffected": 0, "seriousNumAtRisk": 81, "otherNumAffected": 11, "otherNumAtRisk": 81}, {"id": "EG001", "title": "Ramipril Low Dose", "seriousNumAffected": 1, "seriousNumAtRisk": 41, "otherNumAffected": 8, "otherNumAtRisk": 41}, {"id": "EG002", "title": "Ramipril Mid Dose", "seriousNumAffected": 1, "seriousNumAtRisk": 40, "otherNumAffected": 6, "otherNumAtRisk": 40}, {"id": "EG003", "title": "Ramipril High Dose", "seriousNumAffected": 0, "seriousNumAtRisk": 80, "otherNumAffected": 12, "otherNumAtRisk": 80}], "seriousEvents": [{"term": "pyelonephritis", "organSystem": "Infections and infestations", "sourceVocabulary": "MedDRA 9.1", "assessmentType": "SYSTEMATIC_ASSESSMENT", "stats": [{"groupId": "EG000", "numAffected": 0, "numAtRisk": 81}, {"groupId": "EG001", "numAffected": 1, "numAtRisk": 41}, {"groupId": "EG002", "numAffected": 0, "numAtRisk": 40}, {"groupId": "EG003", "numAffected": 0, "numAtRisk": 80}]}, {"term": "nephrotic syndrome", "organSystem": "Renal and urinary disorders", "sourceVocabulary": "MedDRA 9.1", "assessmentType": "SYSTEMATIC_ASSESSMENT", "stats": [{"groupId": "EG000", "numAffected": 0, "numAtRisk": 81}, {"groupId": "EG001", "numAffected": 0, "numAtRisk": 41}, {"groupId": "EG002", "numAffected": 1, "numAtRisk": 40}, {"groupId": "EG003", "numAffected": 0, "numAtRisk": 80}]}], "otherEvents": [{"term": "abdominal pain upper", "organSystem": "Gastrointestinal disorders", "sourceVocabulary": "MedDRA 9.1", "assessmentType": "SYSTEMATIC_ASSESSMENT", "stats": [{"groupId": "EG000", "numAffected": 2, "numAtRisk": 81}, {"groupId": "EG001", "numAffected": 0, "numAtRisk": 41}, {"groupId": "EG002", "numAffected": 3, "numAtRisk": 40}, {"groupId": "EG003", "numAffected": 1, "numAtRisk": 80}]}, {"term": "chest pain", "organSystem": "General disorders", "sourceVocabulary": "MedDRA 9.1", "assessmentType": "SYSTEMATIC_ASSESSMENT", "stats": [{"groupId": "EG000", "numAffected": 0, "numAtRisk": 81}, {"groupId": "EG001", "numAffected": 0, "numAtRisk": 41}, {"groupId": "EG002", "numAffected": 3, "numAtRisk": 40}, {"groupId": "EG003", "numAffected": 0, "numAtRisk": 80}]}, {"term": "upper respiratory tract infection", "organSystem": "Infections and infestations", "sourceVocabulary": "MedDRA 9.1", "assessmentType": "SYSTEMATIC_ASSESSMENT", "stats": [{"groupId": "EG000", "numAffected": 2, "numAtRisk": 81}, {"groupId": "EG001", "numAffected": 4, "numAtRisk": 41}, {"groupId": "EG002", "numAffected": 1, "numAtRisk": 40}, {"groupId": "EG003", "numAffected": 1, "numAtRisk": 80}]}, {"term": "dizziness", "organSystem": "Nervous system disorders", "sourceVocabulary": "MedDRA 9.1", "assessmentType": "SYSTEMATIC_ASSESSMENT", "stats": [{"groupId": "EG000", "numAffected": 2, "numAtRisk": 81}, {"groupId": "EG001", "numAffected": 0, "numAtRisk": 41}, {"groupId": "EG002", "numAffected": 2, "numAtRisk": 40}, {"groupId": "EG003", "numAffected": 2, "numAtRisk": 80}]}, {"term": "headache", "organSystem": "Nervous system disorders", "sourceVocabulary": "MedDRA 9.1", "assessmentType": "SYSTEMATIC_ASSESSMENT", "stats": [{"groupId": "EG000", "numAffected": 6, "numAtRisk": 81}, {"groupId": "EG001", "numAffected": 4, "numAtRisk": 41}, {"groupId": "EG002", "numAffected": 3, "numAtRisk": 40}, {"groupId": "EG003", "numAffected": 8, "numAtRisk": 80}]}]}, "moreInfoModule": {"certainAgreement": {"piSponsorEmployee": false, "restrictionType": "OTHER", "restrictiveAgreement": true, "otherDetails": "Investigator agreed not to individually publish results of the study. Investigators may participate in a joint multicenter publication of the study results. Written notice must be provided to King. King has the right to review the publication and can require deletion of Confidential Information and delay of publication to allow for filing of patent applications."}, "pointOfContact": {"title": "Professional Information Services", "organization": "King Pharmaceuticals, Inc.", "phone": "1-800-776-3637"}}}, "derivedSection": {"miscInfoModule": {"versionHolder": "2024-07-01"}, "conditionBrowseModule": {"meshes": [{"id": "D000006973", "term": "Hypertension"}], "ancestors": [{"id": "D000014652", "term": "Vascular Diseases"}, {"id": "D000002318", "term": "Cardiovascular Diseases"}], "browseLeaves": [{"id": "M10024", "name": "Hypertension", "asFound": "Hypertension", "relevance": "HIGH"}, {"id": "M17400", "name": "Vascular Diseases", "relevance": "LOW"}], "browseBranches": [{"abbrev": "BC14", "name": "Heart and Blood Diseases"}, {"abbrev": "All", "name": "All Conditions"}]}, "interventionBrowseModule": {"meshes": [{"id": "D000017257", "term": "Ramipril"}], "ancestors": [{"id": "D000000806", "term": "Angiotensin-Converting Enzyme Inhibitors"}, {"id": "D000011480", "term": "Protease Inhibitors"}, {"id": "D000004791", "term": "Enzyme Inhibitors"}, {"id": "D000045504", "term": "Molecular Mechanisms of Pharmacological Action"}, {"id": "D000000959", "term": "Antihypertensive Agents"}], "browseLeaves": [{"id": "M19553", "name": "Ramipril", "asFound": "Mandibular", "relevance": "HIGH"}, {"id": "M7951", "name": "Enzyme Inhibitors", "relevance": "LOW"}, {"id": "M4134", "name": "Angiotensin-Converting Enzyme Inhibitors", "relevance": "LOW"}, {"id": "M19609", "name": "HIV Protease Inhibitors", "relevance": "LOW"}, {"id": "M14343", "name": "Protease Inhibitors", "relevance": "LOW"}, {"id": "M4277", "name": "Antihypertensive Agents", "relevance": "LOW"}], "browseBranches": [{"abbrev": "AnAg", "name": "Antihypertensive Agents"}, {"abbrev": "All", "name": "All Drugs and Chemicals"}, {"abbrev": "Infe", "name": "Anti-Infective Agents"}]}}, "hasResults": true}