{"protocolSection": {"identificationModule": {"nctId": "NCT01762501", "orgStudyIdInfo": {"id": "ACS1"}, "organization": {"fullName": "Sogo Rinsho M\u00e9d\u00e9fi Co., Ltd.", "class": "OTHER"}, "briefTitle": "Azilsartan Circadian and Sleep Pressure", "officialTitle": "Azilsartan Circadian and Sleep Pressure - the 1st Study"}, "statusModule": {"statusVerifiedDate": "2015-11", "overallStatus": "COMPLETED", "expandedAccessInfo": {"hasExpandedAccess": false}, "startDateStruct": {"date": "2012-12"}, "primaryCompletionDateStruct": {"date": "2013-12", "type": "ACTUAL"}, "completionDateStruct": {"date": "2013-12", "type": "ACTUAL"}, "studyFirstSubmitDate": "2012-12-18", "studyFirstSubmitQcDate": "2013-01-04", "studyFirstPostDateStruct": {"date": "2013-01-07", "type": "ESTIMATED"}, "resultsFirstSubmitDate": "2015-11-19", "resultsFirstSubmitQcDate": "2015-11-19", "resultsFirstPostDateStruct": {"date": "2015-12-28", "type": "ESTIMATED"}, "lastUpdateSubmitDate": "2015-11-19", "lastUpdatePostDateStruct": {"date": "2015-12-28", "type": "ESTIMATED"}}, "sponsorCollaboratorsModule": {"responsibleParty": {"type": "SPONSOR"}, "leadSponsor": {"name": "Sogo Rinsho M\u00e9d\u00e9fi Co., Ltd.", "class": "OTHER"}, "collaborators": [{"name": "Takeda", "class": "INDUSTRY"}]}, "oversightModule": {"oversightHasDmc": false}, "descriptionModule": {"briefSummary": "To determine the efficacy of Azilsartan 20 mg versus Amlodipine 5 mg oral administration once per day for 8 weeks in patients with grade I or grade II essential hypertension.", "detailedDescription": "Treatment\n\n\\<Run-in period\\> Use of any antihypertensives, including azilsartan and amlodipine, is prohibited during the run-in period.\n\n\\<Treatment period\\> Subjects who are considered eligible for participation in the study based on the results of eligibility assessment during the run-in period will be randomized to the azilsartan 20 mg or amlodipine 5 mg group at a ratio of 1:1 according to the following stratification factors; the type of awake-sleep blood pressure variation determined based on the data from ABPM at the start of run-in, complication status (chronic kidney diseases \\[CKD\\], type 2 diabetes), age, and sex.\n\nSubjects will start treatment with either antihypertensive after examination for the start of treatment (Week 0) and visit the study site every 2 weeks, 5 visits in total, until the end of treatment (Week 8).\n\nSubjects will orally take azilsartan 20 mg or amlodipine 5 mg, according to their group allocation, once daily before or after breakfast in the morning."}, "conditionsModule": {"conditions": ["Hypertension"], "keywords": ["Hypertension"]}, "designModule": {"studyType": "INTERVENTIONAL", "phases": ["NA"], "designInfo": {"allocation": "RANDOMIZED", "interventionModel": "PARALLEL", "primaryPurpose": "TREATMENT", "maskingInfo": {"masking": "NONE"}}, "enrollmentInfo": {"count": 957, "type": "ACTUAL"}}, "armsInterventionsModule": {"armGroups": [{"label": "Azilsartan", "type": "EXPERIMENTAL", "description": "Azilsartan 20mg/day in oral administration, single dose Treatment duration: 8 weeks", "interventionNames": ["Drug: Azilsartan"]}, {"label": "Amlodipine", "type": "ACTIVE_COMPARATOR", "description": "Amlodipine 5mg/day in oral administration, single dose Treatment duration: 8 weeks", "interventionNames": ["Drug: Amlodipine"]}], "interventions": [{"type": "DRUG", "name": "Azilsartan", "description": "Azilsartan 20mg/day", "armGroupLabels": ["Azilsartan"], "otherNames": ["AZILVA Tablets"]}, {"type": "DRUG", "name": "Amlodipine", "description": "Amlodipine 5mg/day", "armGroupLabels": ["Amlodipine"], "otherNames": ["Amlodin Tablets etc."]}]}, "outcomesModule": {"primaryOutcomes": [{"measure": "Change in Nocturnal Systolic Blood Pressure Level", "description": "Change at the end of a treatment period (Week 8) from the beginning point of an observation period\n\n\\*Nocturnal systolic blood pressure level: the mean value of systolic arterial pressure during night (during sleeping)", "timeFrame": "Baseline and 8 weeks"}], "secondaryOutcomes": [{"measure": "Change in the Absolute Value in Difference With Targeted Value* (15 Percent) of Nocturnal Systolic Blood Pressure Fall**", "description": "Change from the start of the run-in period (Week -1) at the end of the treatment period (Week 8) \\*The targeted value has been set as the median of the dipping rate, normal type of nocturnal blood pressure variation, rate of nocturnal blood pressure fall (10-20 percent)\n\n\\*\\* Rate of nocturnal blood pressure fall: calculated as (awake SBP-sleep SBP)/awake SBP", "timeFrame": "Baseline and 8 weeks"}, {"measure": "Change in Nocturnal Diastolic Blood Pressure Level", "description": "Change from the start of the run-in period (Week -1) at the end of the treatment period (Week 8)", "timeFrame": "Baseline and 8 weeks"}, {"measure": "Change in 24-hour Mean Systolic Blood Pressure Level", "description": "Change from the start of the run-in period (Week -1) at the end of the treatment period (Week 8)", "timeFrame": "Baseline and 8 weeks"}, {"measure": "Change in 24-hour Mean Diastolic Blood Pressure Level", "description": "Change from the start of the run-in period (Week -1) at the end of the treatment period (Week 8)", "timeFrame": "Baseline and 8 weeks"}]}, "eligibilityModule": {"eligibilityCriteria": "Inclusion Criteria:\n\n* Grade I or II essential hypertension\n* The sitting systolic blood pressure is in term of 140-179 mmHg, or sitting diastolic blood pressure is in term of 90-109 mmHg at the both two time points at the beginning of the observation period and at the beginning of a treatment period (Week0)\n* 20 years old or older at the time of the informed consent\n* Able to give written informed consent before participating in the research\n* Therapeutic category during the observation period: Ambulatory\n\nExclusion Criteria:\n\n* Secondary hypertension, grade III hypertension (sitting systolic blood pressure greater than or equal to 180 mmHg or sitting diastolic blood pressure greater than or equal to 110 mmHg), malignant hypertension\n* More than 2 kinds of antihypertensive agents for treatment on the hypertension\n* History of taking following medicines within 2 weeks before start of the observation period.\n\nWhen subject with taking any of the following medicine at the time of informed consent is included, stop to take the medicine for determined period after the informed consent.\n\nI. Antihypertensive agents II. Antianginal agents III. Antiarrhythmic agents (except single time use of the lidocaine hydrochloride formulation for anesthesia) IV. Digitalis products\n\n* Less than 130 mmHg of mean 24-hour systolic blood pressure and less than 80 mmHg of mean 24-hour diastolic blood pressure at the start of the observation period.\n* History of following circulatory-related diseases or symptoms within 24 weeks before start of the observation period.\n\nI. Cardiac disease: Myocardial infarction, coronary artery revascularization II. Cerebrovascular-disease: cerebral infarction, cerebral hemorrhage, transient ischemic attack III. Progressive hypertensive retinopathy: hemorrhage, exudation, or papilledema\n\n* History or complication with the following circulatory-related diseases; Valvular stenosis, atrial fibrillation, pharmacotherapy-required angina, congestion heart failure, or cardiac arrhythmia, or arteriosclerosis obliterans with symptoms of intermittent claudication et al\n* Day / night reversal\n* History of hypersensitivity or allergy to Azilsartan, Amlodipine, or related drugs\n* Participant in any other clinical research\n* Pregnant, possible to being pregnant, or lactating woman\n* Mal-control of blood pressure during informed consent to taking antihypertensive agent\n* Any those the investigator or other researchers consider as unsuitable", "healthyVolunteers": false, "sex": "ALL", "minimumAge": "20 Years", "stdAges": ["ADULT", "OLDER_ADULT"]}, "contactsLocationsModule": {"overallOfficials": [{"name": "Kazuo Kario", "affiliation": "Chief Professor of Division of Cardiovascular Medicine, Jichi Medical University", "role": "PRINCIPAL_INVESTIGATOR"}], "locations": [{"facility": "Jyuzen General Hospital", "city": "Niihama", "state": "Aichi", "country": "Japan", "geoPoint": {"lat": 33.96047, "lon": 133.30522}}, {"facility": "Junn Clinic", "city": "Tsushima", "state": "Aichi", "country": "Japan", "geoPoint": {"lat": 35.16667, "lon": 136.71667}}, {"facility": "Seikei-kai New Tokyo Hospital", "city": "Matsudo", "state": "Chiba", "country": "Japan", "geoPoint": {"lat": 35.77995, "lon": 139.90144}}, {"facility": "Sanshukai Doi Internal Medicine Clinic", "city": "Chikushino", "state": "Fukuoka", "country": "Japan", "geoPoint": {"lat": 33.49631, "lon": 130.5156}}, {"facility": "Junshinkai Nakamura Cardiovascular Clinic", "city": "Itoshima", "state": "Fukuoka", "country": "Japan", "geoPoint": {"lat": 33.54225, "lon": 130.18421}}, {"facility": "Osaki Clinic", "city": "Kitakyusyu", "state": "Fukuoka", "country": "Japan"}, {"facility": "Osamura Medical Clinic", "city": "Kitakyusyu", "state": "Fukuoka", "country": "Japan"}, {"facility": "Hoshi General Hospital", "city": "Koriyama", "state": "Fukushima", "country": "Japan", "geoPoint": {"lat": 37.4, "lon": 140.38333}}, {"facility": "Zensyukai Hospital", "city": "Maebashi", "state": "Gunma", "country": "Japan", "geoPoint": {"lat": 36.4, "lon": 139.08333}}, {"facility": "Hakushoukai Sano Hospital", "city": "Asahikawa", "state": "Hokkaido", "country": "Japan", "geoPoint": {"lat": 43.77063, "lon": 142.36489}}, {"facility": "Jiseikai Higashiasahikawa Hospital", "city": "Asahikawa", "state": "Hokkaido", "country": "Japan", "geoPoint": {"lat": 43.77063, "lon": 142.36489}}, {"facility": "Koushinkai Shintomi Naika Clinic", "city": "Asahikawa", "state": "Hokkaido", "country": "Japan", "geoPoint": {"lat": 43.77063, "lon": 142.36489}}, {"facility": "Aoki Clinic", "city": "Sapporo", "state": "Hokkaido", "country": "Japan", "geoPoint": {"lat": 43.06667, "lon": 141.35}}, {"facility": "Houwakai Sapporo Hospital", "city": "Sapporo", "state": "Hokkaido", "country": "Japan", "geoPoint": {"lat": 43.06667, "lon": 141.35}}, {"facility": "Mitani Clinic", "city": "Sapporo", "state": "Hokkaido", "country": "Japan", "geoPoint": {"lat": 43.06667, "lon": 141.35}}, {"facility": "Shinkotoni Family Clinic", "city": "Sapporo", "state": "Hokkaido", "country": "Japan", "geoPoint": {"lat": 43.06667, "lon": 141.35}}, {"facility": "Shoureikan Shinsapporo Seiryou Hospital", "city": "Sapporo", "state": "Hokkaido", "country": "Japan", "geoPoint": {"lat": 43.06667, "lon": 141.35}}, {"facility": "Tomakomai City Hospital", "city": "Tomakomai", "state": "Hokkaido", "country": "Japan", "geoPoint": {"lat": 42.63694, "lon": 141.60333}}, {"facility": "Hukuyo naika clinic", "city": "Itoshima", "state": "Hukuoka", "country": "Japan", "geoPoint": {"lat": 33.54225, "lon": 130.18421}}, {"facility": "Asunaro medical Clinic", "city": "Kitakyushu", "state": "Hukuoka", "country": "Japan", "geoPoint": {"lat": 33.85181, "lon": 130.85034}}, {"facility": "Keiseikai Gohshi Hospital", "city": "Amagasaki", "state": "Hyogo", "country": "Japan", "geoPoint": {"lat": 34.71667, "lon": 135.41667}}, {"facility": "Keijukai Itabashi Clinic", "city": "Koga", "state": "Ibaraki", "country": "Japan", "geoPoint": {"lat": 33.73333, "lon": 130.46667}}, {"facility": "Kamata medical Clinic", "city": "Morioka", "state": "Iwate", "country": "Japan", "geoPoint": {"lat": 39.7, "lon": 141.15}}, {"facility": "Koyokai Hanamure Hospital", "city": "Ichikikushikino", "state": "Kagoshima", "country": "Japan", "geoPoint": {"lat": 31.72934, "lon": 130.29305}}, {"facility": "Izumi General Medical Center", "city": "Izumi", "state": "Kagoshima", "country": "Japan", "geoPoint": {"lat": 34.48333, "lon": 135.43333}}, {"facility": "Iroden Clinic", "city": "Kamakura", "state": "Kanagawa", "country": "Japan", "geoPoint": {"lat": 35.30889, "lon": 139.55028}}, {"facility": "Nagasu Clinic", "city": "Kamakura", "state": "Kanagawa", "country": "Japan", "geoPoint": {"lat": 35.30889, "lon": 139.55028}}, {"facility": "Himawari-kai Kanagawa Himawari Clinic", "city": "Kawasaki", "state": "Kanagawa", "country": "Japan", "geoPoint": {"lat": 35.52056, "lon": 139.71722}}, {"facility": "Kawasaki Saiwai Clinic", "city": "Kawasaki", "state": "Kanagawa", "country": "Japan", "geoPoint": {"lat": 35.52056, "lon": 139.71722}}, {"facility": "Wakoukai Kawasaki Rinko General Hospital", "city": "Kawasaki", "state": "Kanagawa", "country": "Japan", "geoPoint": {"lat": 35.52056, "lon": 139.71722}}, {"facility": "Hakuai Clinic", "city": "Sagamihara", "state": "Kanagawa", "country": "Japan", "geoPoint": {"lat": 35.54899, "lon": 139.26064}}, {"facility": "Kaneshiro Diabetes Clinic", "city": "Sagamihara", "state": "Kanagawa", "country": "Japan", "geoPoint": {"lat": 35.54899, "lon": 139.26064}}, {"facility": "Yamamoto Clinic", "city": "Sagamihara", "state": "Kanagawa", "country": "Japan", "geoPoint": {"lat": 35.54899, "lon": 139.26064}}, {"facility": "Tsuruma Kaneshiro Diabetes Clinic", "city": "Yamato", "state": "Kanagawa", "country": "Japan"}, {"facility": "Furuie Clinic", "city": "Yokohama", "state": "Kanagawa", "country": "Japan", "geoPoint": {"lat": 35.43333, "lon": 139.65}}, {"facility": "Minamisawa Clinic", "city": "Yokohama", "state": "Kanagawa", "country": "Japan", "geoPoint": {"lat": 35.43333, "lon": 139.65}}, {"facility": "Shintoukai Yokohama Minoru Clinic", "city": "Yokohama", "state": "Kanagawa", "country": "Japan", "geoPoint": {"lat": 35.43333, "lon": 139.65}}, {"facility": "Shuyu-kai Kikuchi Clinic", "city": "Yokohama", "state": "Kanagawa", "country": "Japan", "geoPoint": {"lat": 35.43333, "lon": 139.65}}, {"facility": "Tani Clinic", "city": "Yokohama", "state": "Kanagawa", "country": "Japan", "geoPoint": {"lat": 35.43333, "lon": 139.65}}, {"facility": "Higashikatsuyama Nakazawa Naika Allergy Internal Medicine", "city": "Sendai", "state": "Miyagi", "country": "Japan", "geoPoint": {"lat": 38.26667, "lon": 140.86667}}, {"facility": "Shinden Higashi Clinic", "city": "Sendai", "state": "Miyagi", "country": "Japan", "geoPoint": {"lat": 38.26667, "lon": 140.86667}}, {"facility": "Meiwakai Izaki Clinic", "city": "Omura", "state": "Nagasaki", "country": "Japan", "geoPoint": {"lat": 32.92139, "lon": 129.95389}}, {"facility": "Shoninkai Shonin Hospital", "city": "Beppu", "state": "Oita", "country": "Japan", "geoPoint": {"lat": 33.27945, "lon": 131.49751}}, {"facility": "Hirano Doujinkai Tsuyama Daiichi Hospital", "city": "Tsuyama", "state": "Okayama", "country": "Japan", "geoPoint": {"lat": 35.05215, "lon": 133.99885}}, {"facility": "Taira Hospital", "city": "Wake-gun", "state": "Okayama", "country": "Japan", "geoPoint": {"lat": 34.81156, "lon": 134.14264}}, {"facility": "Tenjin Tanaka Internal Medicine Clinic", "city": "Takatsuki", "state": "Osaka", "country": "Japan", "geoPoint": {"lat": 34.84833, "lon": 135.61678}}, {"facility": "Enomoto Clinic", "city": "Ageo", "state": "Saitama", "country": "Japan", "geoPoint": {"lat": 35.97145, "lon": 139.61382}}, {"facility": "Kazo Minami Clinic", "city": "Kazo", "state": "Saitama", "country": "Japan", "geoPoint": {"lat": 36.11667, "lon": 139.6}}, {"facility": "Asukurepiosu Enomoto Clinic", "city": "Kumagaya", "state": "Saitama", "country": "Japan", "geoPoint": {"lat": 36.13497, "lon": 139.39004}}, {"facility": "Shibuya Clinic", "city": "Kumagaya", "state": "Saitama", "country": "Japan", "geoPoint": {"lat": 36.13497, "lon": 139.39004}}, {"facility": "Genkikai Wakasa Clinic", "city": "Tokorozawa", "state": "Saitama", "country": "Japan", "geoPoint": {"lat": 35.79916, "lon": 139.46903}}, {"facility": "JA Shizuoka Kohseiren Enshu Hospital", "city": "Hamamatsu", "state": "Shizuoka", "country": "Japan", "geoPoint": {"lat": 34.7, "lon": 137.73333}}, {"facility": "Shimoda Medical Center", "city": "Shimoda", "state": "Shizuoka", "country": "Japan", "geoPoint": {"lat": 34.67645, "lon": 138.94448}}, {"facility": "Jichi Medical University Hospital", "city": "Shimotsuke", "state": "Tochigi", "country": "Japan", "geoPoint": {"lat": 36.41323, "lon": 139.86622}}, {"facility": "DIC Utsunomiya Central Clinic", "city": "Utsunomiya", "state": "Tochigi", "country": "Japan", "geoPoint": {"lat": 36.56667, "lon": 139.88333}}, {"facility": "Nippori Clinic", "city": "Arakawa-ku", "state": "Tokyo", "country": "Japan"}, {"facility": "Eireikai Niwa Family Clinic", "city": "Chofu", "state": "Tokyo", "country": "Japan", "geoPoint": {"lat": 35.64837, "lon": 139.55426}}, {"facility": "Keiyu Clinic", "city": "Chuo-ku", "state": "Tokyo", "country": "Japan", "geoPoint": {"lat": 35.57779, "lon": 139.71685}}, {"facility": "Nihonbashikabutocho Nakajima Clinic", "city": "Chuo-ku", "state": "Tokyo", "country": "Japan", "geoPoint": {"lat": 35.57779, "lon": 139.71685}}, {"facility": "Tokyo Center Clinic", "city": "Chuo-ku", "state": "Tokyo", "country": "Japan", "geoPoint": {"lat": 35.57779, "lon": 139.71685}}, {"facility": "Taiseikai Seikoudou Clinic", "city": "Edogawa-ku", "state": "Tokyo", "country": "Japan"}, {"facility": "Hirookai Kanbara Clinic", "city": "Koto-ku", "state": "Tokyo", "country": "Japan", "geoPoint": {"lat": 35.66667, "lon": 139.81718}}, {"facility": "Ono Medical Clinic", "city": "Koto-ku", "state": "Tokyo", "country": "Japan", "geoPoint": {"lat": 35.66667, "lon": 139.81718}}, {"facility": "Sawai Medical Clinic", "city": "Koto-ku", "state": "Tokyo", "country": "Japan", "geoPoint": {"lat": 35.66667, "lon": 139.81718}}, {"facility": "Shinsei-kai Kameido Ekimae Ckinic", "city": "Koto-ku", "state": "Tokyo", "country": "Japan", "geoPoint": {"lat": 35.66667, "lon": 139.81718}}, {"facility": "Shinseikai Kameido Minami-guchi Clinic", "city": "Koto-ku", "state": "Tokyo", "country": "Japan", "geoPoint": {"lat": 35.66667, "lon": 139.81718}}, {"facility": "Kamada Clinic", "city": "Mitaka", "state": "Tokyo", "country": "Japan", "geoPoint": {"lat": 35.68351, "lon": 139.55963}}, {"facility": "Mitaka Health Care Clinic", "city": "Mitaka", "state": "Tokyo", "country": "Japan", "geoPoint": {"lat": 35.68351, "lon": 139.55963}}, {"facility": "Murenosato Clinic", "city": "Mitaka", "state": "Tokyo", "country": "Japan", "geoPoint": {"lat": 35.68351, "lon": 139.55963}}, {"facility": "Shirayurikai Swing Bldg Nozaki Clinic", "city": "Musashino", "state": "Tokyo", "country": "Japan", "geoPoint": {"lat": 35.70611, "lon": 139.55944}}, {"facility": "Kenkoukan Suzuki Clinic", "city": "Ota-ku", "state": "Tokyo", "country": "Japan", "geoPoint": {"lat": 36.3, "lon": 139.36667}}, {"facility": "Keichikai Shimokitazawa Tomo Clinic", "city": "Setagaya-ku", "state": "Tokyo", "country": "Japan", "geoPoint": {"lat": 35.64825, "lon": 139.65376}}, {"facility": "Ishinkai Oda Clinic", "city": "Shinjuku-ku", "state": "Tokyo", "country": "Japan", "geoPoint": {"lat": 35.2946, "lon": 139.57059}}, {"facility": "Ryousyukai Kanauchi Medical Clinic", "city": "Shinjuku-ku", "state": "Tokyo", "country": "Japan", "geoPoint": {"lat": 35.2946, "lon": 139.57059}}, {"facility": "Shingakai MaO Clinic", "city": "Suginami-ku", "state": "Tokyo", "country": "Japan"}, {"facility": "Keiseikai Otsuka Kita-guchi Clinic", "city": "Toshima-ku", "state": "Tokyo", "country": "Japan"}, {"facility": "Fujino Clinic", "city": "Ube", "state": "Yamaguchi", "country": "Japan", "geoPoint": {"lat": 33.94306, "lon": 131.25111}}, {"facility": "Hirokai Higashikatsura Medical Clinic", "city": "Tsuru", "state": "Yamanashi", "country": "Japan"}, {"facility": "Hakataeki-higashi Clinic", "city": "Fukuoka", "country": "Japan", "geoPoint": {"lat": 33.6, "lon": 130.41667}}, {"facility": "Ogata Medical Clinic", "city": "Fukuoka", "country": "Japan", "geoPoint": {"lat": 33.6, "lon": 130.41667}}, {"facility": "Soejima Naika Clinic", "city": "Fukuoka", "country": "Japan", "geoPoint": {"lat": 33.6, "lon": 130.41667}}, {"facility": "Inoue Neurology Clinic", "city": "Hiroshima", "country": "Japan", "geoPoint": {"lat": 34.4, "lon": 132.45}}, {"facility": "Oda medical Clinic", "city": "Hiroshima", "country": "Japan", "geoPoint": {"lat": 34.4, "lon": 132.45}}, {"facility": "Aiseikai PS Clinic", "city": "Hukuoka", "country": "Japan"}, {"facility": "Kosei-kai Nijigaoka Hospital", "city": "Nagasaki", "country": "Japan", "geoPoint": {"lat": 32.75, "lon": 129.88333}}, {"facility": "Seizenkai Okayama Saidaiji Hospital", "city": "Okayama", "country": "Japan", "geoPoint": {"lat": 34.65, "lon": 133.93333}}, {"facility": "Yasuda Clinic", "city": "Okayama", "country": "Japan", "geoPoint": {"lat": 34.65, "lon": 133.93333}}, {"facility": "AMC Nishiumeda Clinic", "city": "Osaka", "country": "Japan", "geoPoint": {"lat": 34.69374, "lon": 135.50218}}, {"facility": "Kouseikai Chimori Medical Clinic", "city": "Osaka", "country": "Japan", "geoPoint": {"lat": 34.69374, "lon": 135.50218}}, {"facility": "H&Y Akimoto Naika Clinic", "city": "Saitama", "country": "Japan", "geoPoint": {"lat": 35.90807, "lon": 139.65657}}, {"facility": "Shiseidou Tomita Hospital", "city": "Saitama", "country": "Japan", "geoPoint": {"lat": 35.90807, "lon": 139.65657}}, {"facility": "Takahashi Clinic", "city": "Saitama", "country": "Japan", "geoPoint": {"lat": 35.90807, "lon": 139.65657}}]}, "referencesModule": {"references": [{"pmid": "25646296", "type": "DERIVED", "citation": "Kario K, Hoshide S. Age-related difference in the sleep pressure-lowering effect between an angiotensin II receptor blocker and a calcium channel blocker in Asian hypertensives: the ACS1 Study. Hypertension. 2015 Apr;65(4):729-35. doi: 10.1161/HYPERTENSIONAHA.114.04935. Epub 2015 Feb 2."}]}}, "resultsSection": {"participantFlowModule": {"preAssignmentDetails": "957 patients was enrolled in this study. In run-in period, 239 patients were withdrawn.", "recruitmentDetails": "Enrollment was performed at hospital and clinic", "groups": [{"id": "FG000", "title": "Azilsartan", "description": "Azilsartan 20mg/day in oral administration, single dose Treatment duration: 8 weeks\n\nAzilsartan: Azilsartan 20mg/day"}, {"id": "FG001", "title": "Amlodipine", "description": "Amlodipine 5mg/day in oral administration, single dose Treatment duration: 8 weeks\n\nAmlodipine: Amlodipine 5mg/day"}], "periods": [{"title": "Overall Study", "milestones": [{"type": "STARTED", "achievements": [{"groupId": "FG000", "numSubjects": "359"}, {"groupId": "FG001", "numSubjects": "359"}]}, {"type": "COMPLETED", "achievements": [{"groupId": "FG000", "numSubjects": "332"}, {"groupId": "FG001", "numSubjects": "336"}]}, {"type": "NOT COMPLETED", "achievements": [{"groupId": "FG000", "numSubjects": "27"}, {"groupId": "FG001", "numSubjects": "23"}]}]}]}, "baselineCharacteristicsModule": {"groups": [{"id": "BG000", "title": "Azilsartan", "description": "Azilsartan 20mg/day in oral administration, single dose Treatment duration: 8 weeks\n\nAzilsartan: Azilsartan 20mg/day"}, {"id": "BG001", "title": "Amlodipine", "description": "Amlodipine 5mg/day in oral administration, single dose Treatment duration: 8 weeks\n\nAmlodipine: Amlodipine 5mg/day"}, {"id": "BG002", "title": "Total", "description": "Total of all reporting groups"}], "denoms": [{"units": "Participants", "counts": [{"groupId": "BG000", "value": "359"}, {"groupId": "BG001", "value": "359"}, {"groupId": "BG002", "value": "718"}]}], "measures": [{"title": "Age, Continuous", "paramType": "MEAN", "dispersionType": "STANDARD_DEVIATION", "unitOfMeasure": "years", "classes": [{"categories": [{"measurements": [{"groupId": "BG000", "value": "61", "spread": "12"}, {"groupId": "BG001", "value": "61", "spread": "12"}, {"groupId": "BG002", "value": "61", "spread": "12"}]}]}]}, {"title": "Sex: Female, Male", "paramType": "COUNT_OF_PARTICIPANTS", "unitOfMeasure": "Participants", "classes": [{"categories": [{"title": "Female", "measurements": [{"groupId": "BG000", "value": "157"}, {"groupId": "BG001", "value": "157"}, {"groupId": "BG002", "value": "314"}]}, {"title": "Male", "measurements": [{"groupId": "BG000", "value": "202"}, {"groupId": "BG001", "value": "202"}, {"groupId": "BG002", "value": "404"}]}]}]}, {"title": "Region of Enrollment", "paramType": "NUMBER", "unitOfMeasure": "participants", "classes": [{"title": "Japan", "categories": [{"measurements": [{"groupId": "BG000", "value": "359"}, {"groupId": "BG001", "value": "359"}, {"groupId": "BG002", "value": "718"}]}]}]}, {"title": "Clinic SBP", "paramType": "MEAN", "dispersionType": "STANDARD_DEVIATION", "unitOfMeasure": "mmHg", "classes": [{"categories": [{"measurements": [{"groupId": "BG000", "value": "149.6", "spread": "10.2"}, {"groupId": "BG001", "value": "150.5", "spread": "10.2"}, {"groupId": "BG002", "value": "150.1", "spread": "10.2"}]}]}]}, {"title": "Clinic DBP", "paramType": "MEAN", "dispersionType": "STANDARD_DEVIATION", "unitOfMeasure": "mmHg", "classes": [{"categories": [{"measurements": [{"groupId": "BG000", "value": "90.3", "spread": "9.4"}, {"groupId": "BG001", "value": "89.8", "spread": "9.6"}, {"groupId": "BG002", "value": "90.1", "spread": "9.5"}]}]}]}, {"title": "24-hour SBP", "paramType": "MEAN", "dispersionType": "STANDARD_DEVIATION", "unitOfMeasure": "mmHg", "classes": [{"categories": [{"measurements": [{"groupId": "BG000", "value": "150.6", "spread": "13.0"}, {"groupId": "BG001", "value": "152.4", "spread": "13.7"}, {"groupId": "BG002", "value": "151.5", "spread": "13.4"}]}]}]}, {"title": "24-hour DBP", "paramType": "MEAN", "dispersionType": "STANDARD_DEVIATION", "unitOfMeasure": "mmHg", "classes": [{"categories": [{"measurements": [{"groupId": "BG000", "value": "89.3", "spread": "8.6"}, {"groupId": "BG001", "value": "90.4", "spread": "9.3"}, {"groupId": "BG002", "value": "89.8", "spread": "9.0"}]}]}]}]}, "outcomeMeasuresModule": {"outcomeMeasures": [{"type": "PRIMARY", "title": "Change in Nocturnal Systolic Blood Pressure Level", "description": "Change at the end of a treatment period (Week 8) from the beginning point of an observation period\n\n\\*Nocturnal systolic blood pressure level: the mean value of systolic arterial pressure during night (during sleeping)", "reportingStatus": "POSTED", "paramType": "MEAN", "dispersionType": "Standard Deviation", "unitOfMeasure": "mmHg", "timeFrame": "Baseline and 8 weeks", "groups": [{"id": "OG000", "title": "Azilsartan", "description": "Azilsartan 20mg/day in oral administration, single dose Treatment duration: 8 weeks\n\nAzilsartan: Azilsartan 20mg/day"}, {"id": "OG001", "title": "Amlodipine", "description": "Amlodipine 5mg/day in oral administration, single dose Treatment duration: 8 weeks\n\nAmlodipine: Amlodipine 5mg/day"}], "denoms": [{"units": "Participants", "counts": [{"groupId": "OG000", "value": "359"}, {"groupId": "OG001", "value": "359"}]}], "classes": [{"categories": [{"measurements": [{"groupId": "OG000", "value": "-12.6", "spread": "15.4"}, {"groupId": "OG001", "value": "-17.5", "spread": "14.0"}]}]}]}, {"type": "SECONDARY", "title": "Change in the Absolute Value in Difference With Targeted Value* (15 Percent) of Nocturnal Systolic Blood Pressure Fall**", "description": "Change from the start of the run-in period (Week -1) at the end of the treatment period (Week 8) \\*The targeted value has been set as the median of the dipping rate, normal type of nocturnal blood pressure variation, rate of nocturnal blood pressure fall (10-20 percent)\n\n\\*\\* Rate of nocturnal blood pressure fall: calculated as (awake SBP-sleep SBP)/awake SBP", "reportingStatus": "POSTED", "paramType": "MEAN", "dispersionType": "95% Confidence Interval", "unitOfMeasure": "mmHg", "timeFrame": "Baseline and 8 weeks", "groups": [{"id": "OG000", "title": "Azilsartan", "description": "Azilsartan 20mg/day in oral administration, single dose Treatment duration: 8 weeks\n\nAzilsartan: Azilsartan 20mg/day"}, {"id": "OG001", "title": "Amlodipine", "description": "Amlodipine 5mg/day in oral administration, single dose Treatment duration: 8 weeks\n\nAmlodipine: Amlodipine 5mg/day"}], "denoms": [{"units": "Participants", "counts": [{"groupId": "OG000", "value": "321"}, {"groupId": "OG001", "value": "331"}]}], "classes": [{"title": "riser", "categories": [{"measurements": [{"groupId": "OG000", "value": "-7.3", "lowerLimit": "-10.0", "upperLimit": "-4.5"}, {"groupId": "OG001", "value": "-10.1", "lowerLimit": "-13.5", "upperLimit": "-6.6"}]}]}, {"title": "non-dipper", "categories": [{"measurements": [{"groupId": "OG000", "value": "-0.7", "lowerLimit": "-1.9", "upperLimit": "0.6"}, {"groupId": "OG001", "value": "-2.1", "lowerLimit": "-3.1", "upperLimit": "-1.1"}]}]}, {"title": "dipper", "categories": [{"measurements": [{"groupId": "OG000", "value": "4.5", "lowerLimit": "3.6", "upperLimit": "5.4"}, {"groupId": "OG001", "value": "3.1", "lowerLimit": "2.3", "upperLimit": "3.8"}]}]}, {"title": "extreme dipper", "categories": [{"measurements": [{"groupId": "OG000", "value": "-1.9", "lowerLimit": "-3.9", "upperLimit": "0.1"}, {"groupId": "OG001", "value": "-3.1", "lowerLimit": "-4.9", "upperLimit": "-1.2"}]}]}]}, {"type": "SECONDARY", "title": "Change in Nocturnal Diastolic Blood Pressure Level", "description": "Change from the start of the run-in period (Week -1) at the end of the treatment period (Week 8)", "reportingStatus": "POSTED", "paramType": "MEAN", "dispersionType": "Standard Deviation", "unitOfMeasure": "mmHg", "timeFrame": "Baseline and 8 weeks", "groups": [{"id": "OG000", "title": "Azilsartan", "description": "Azilsartan 20mg/day in oral administration, single dose Treatment duration: 8 weeks\n\nAzilsartan: Azilsartan 20mg/day"}, {"id": "OG001", "title": "Amlodipine", "description": "Amlodipine 5mg/day in oral administration, single dose Treatment duration: 8 weeks\n\nAmlodipine: Amlodipine 5mg/day"}], "denoms": [{"units": "Participants", "counts": [{"groupId": "OG000", "value": "359"}, {"groupId": "OG001", "value": "359"}]}], "classes": [{"categories": [{"measurements": [{"groupId": "OG000", "value": "-7.1", "spread": "8.5"}, {"groupId": "OG001", "value": "-8.9", "spread": "7.9"}]}]}]}, {"type": "SECONDARY", "title": "Change in 24-hour Mean Systolic Blood Pressure Level", "description": "Change from the start of the run-in period (Week -1) at the end of the treatment period (Week 8)", "reportingStatus": "POSTED", "paramType": "MEAN", "dispersionType": "Standard Deviation", "unitOfMeasure": "mmHg", "timeFrame": "Baseline and 8 weeks", "groups": [{"id": "OG000", "title": "Azilsartan", "description": "Azilsartan 20mg/day in oral administration, single dose Treatment duration: 8 weeks\n\nAzilsartan: Azilsartan 20mg/day"}, {"id": "OG001", "title": "Amlodipine", "description": "Amlodipine 5mg/day in oral administration, single dose Treatment duration: 8 weeks\n\nAmlodipine: Amlodipine 5mg/day"}], "denoms": [{"units": "Participants", "counts": [{"groupId": "OG000", "value": "359"}, {"groupId": "OG001", "value": "359"}]}], "classes": [{"categories": [{"measurements": [{"groupId": "OG000", "value": "-14.0", "spread": "13.3"}, {"groupId": "OG001", "value": "-17.5", "spread": "11.5"}]}]}]}, {"type": "SECONDARY", "title": "Change in 24-hour Mean Diastolic Blood Pressure Level", "description": "Change from the start of the run-in period (Week -1) at the end of the treatment period (Week 8)", "reportingStatus": "POSTED", "paramType": "MEAN", "dispersionType": "Standard Deviation", "unitOfMeasure": "mmHg", "timeFrame": "Baseline and 8 weeks", "groups": [{"id": "OG000", "title": "Azilsartan", "description": "Azilsartan 20mg/day in oral administration, single dose Treatment duration: 8 weeks\n\nAzilsartan: Azilsartan 20mg/day"}, {"id": "OG001", "title": "Amlodipine", "description": "Amlodipine 5mg/day in oral administration, single dose Treatment duration: 8 weeks\n\nAmlodipine: Amlodipine 5mg/day"}], "denoms": [{"units": "Participants", "counts": [{"groupId": "OG000", "value": "359"}, {"groupId": "OG001", "value": "359"}]}], "classes": [{"categories": [{"measurements": [{"groupId": "OG000", "value": "-7.9", "spread": "7.5"}, {"groupId": "OG001", "value": "-8.9", "spread": "6.3"}]}]}]}]}, "adverseEventsModule": {"frequencyThreshold": "5", "timeFrame": "8weeks", "eventGroups": [{"id": "EG000", "title": "Azilsartan", "description": "Azilsartan 20mg/day in oral administration, single dose Treatment duration: 8 weeks\n\nAzilsartan: Azilsartan 20mg/day", "seriousNumAffected": 0, "seriousNumAtRisk": 359, "otherNumAffected": 91, "otherNumAtRisk": 359}, {"id": "EG001", "title": "Amlodipine", "description": "Amlodipine 5mg/day in oral administration, single dose Treatment duration: 8 weeks\n\nAmlodipine: Amlodipine 5mg/day", "seriousNumAffected": 5, "seriousNumAtRisk": 359, "otherNumAffected": 77, "otherNumAtRisk": 359}], "seriousEvents": [{"term": "Diverticulitis", "organSystem": "Gastrointestinal disorders", "assessmentType": "NON_SYSTEMATIC_ASSESSMENT", "stats": [{"groupId": "EG000", "numAffected": 0, "numAtRisk": 359}, {"groupId": "EG001", "numAffected": 1, "numAtRisk": 359}]}, {"term": "Stroke", "organSystem": "Vascular disorders", "assessmentType": "NON_SYSTEMATIC_ASSESSMENT", "stats": [{"groupId": "EG000", "numAffected": 0, "numAtRisk": 359}, {"groupId": "EG001", "numAffected": 1, "numAtRisk": 359}]}, {"term": "Nettle rash", "organSystem": "Skin and subcutaneous tissue disorders", "assessmentType": "NON_SYSTEMATIC_ASSESSMENT", "stats": [{"groupId": "EG000", "numAffected": 0, "numAtRisk": 359}, {"groupId": "EG001", "numAffected": 1, "numAtRisk": 359}]}, {"term": "Cancer", "organSystem": "Gastrointestinal disorders", "assessmentType": "NON_SYSTEMATIC_ASSESSMENT", "stats": [{"groupId": "EG000", "numAffected": 0, "numAtRisk": 359}, {"groupId": "EG001", "numAffected": 2, "numAtRisk": 359}]}], "otherEvents": [{"term": "Infectious disease", "organSystem": "Infections and infestations", "assessmentType": "NON_SYSTEMATIC_ASSESSMENT", "stats": [{"groupId": "EG000", "numAffected": 30, "numAtRisk": 359}, {"groupId": "EG001", "numAffected": 34, "numAtRisk": 359}]}, {"term": "Other", "organSystem": "Musculoskeletal and connective tissue disorders", "assessmentType": "NON_SYSTEMATIC_ASSESSMENT", "stats": [{"groupId": "EG000", "numAffected": 62, "numAtRisk": 359}, {"groupId": "EG001", "numAffected": 49, "numAtRisk": 359}]}]}, "moreInfoModule": {"certainAgreement": {"piSponsorEmployee": false, "restrictionType": "OTHER", "restrictiveAgreement": true, "otherDetails": "The only disclosure restriction on the PIs is that PIs must get approval about publish by study director(Kazuo Kario)."}, "pointOfContact": {"title": "Naoyuki Takano", "organization": "Sogo Rinsho Medefi Co., Ltd", "email": "takano.naoyuki@sogo-medefi.jp", "phone": "+81-3-6901-6079"}}}, "derivedSection": {"miscInfoModule": {"versionHolder": "2024-07-01"}, "conditionBrowseModule": {"meshes": [{"id": "D000006973", "term": "Hypertension"}], "ancestors": [{"id": "D000014652", "term": "Vascular Diseases"}, {"id": "D000002318", "term": "Cardiovascular Diseases"}], "browseLeaves": [{"id": "M10024", "name": "Hypertension", "asFound": "Hypertension", "relevance": "HIGH"}, {"id": "M17400", "name": "Vascular Diseases", "relevance": "LOW"}], "browseBranches": [{"abbrev": "BC14", "name": "Heart and Blood Diseases"}, {"abbrev": "All", "name": "All Conditions"}]}, "interventionBrowseModule": {"meshes": [{"id": "D000017311", "term": "Amlodipine"}, {"id": "C000557413", "term": "Azilsartan medoxomil"}], "ancestors": [{"id": "D000000959", "term": "Antihypertensive Agents"}, {"id": "D000002121", "term": "Calcium Channel Blockers"}, {"id": "D000049990", "term": "Membrane Transport Modulators"}, {"id": "D000045504", "term": "Molecular Mechanisms of Pharmacological Action"}, {"id": "D000077264", "term": "Calcium-Regulating Hormones and Agents"}, {"id": "D000045505", "term": "Physiological Effects of Drugs"}, {"id": "D000014665", "term": "Vasodilator Agents"}, {"id": "D000047228", "term": "Angiotensin II Type 1 Receptor Blockers"}, {"id": "D000057911", "term": "Angiotensin Receptor Antagonists"}], "browseLeaves": [{"id": "M19600", "name": "Amlodipine", "asFound": "Healthy Volunteers", "relevance": "HIGH"}, {"id": "M256876", "name": "Azilsartan medoxomil", "asFound": "NIV", "relevance": "HIGH"}, {"id": "M4277", "name": "Antihypertensive Agents", "relevance": "LOW"}, {"id": "M5381", "name": "Calcium", "relevance": "LOW"}, {"id": "M5398", "name": "Calcium, Dietary", "relevance": "LOW"}, {"id": "M5384", "name": "Calcium Channel Blockers", "relevance": "LOW"}, {"id": "M9789", "name": "Hormones", "relevance": "LOW"}, {"id": "M17412", "name": "Vasodilator Agents", "relevance": "LOW"}, {"id": "M4132", "name": "Angiotensin II", "relevance": "LOW"}, {"id": "M289354", "name": "Giapreza", "relevance": "LOW"}, {"id": "M4135", "name": "Angiotensinogen", "relevance": "LOW"}, {"id": "M25789", "name": "Angiotensin II Type 1 Receptor Blockers", "relevance": "LOW"}, {"id": "M28916", "name": "Angiotensin Receptor Antagonists", "relevance": "LOW"}], "browseBranches": [{"abbrev": "AnAg", "name": "Antihypertensive Agents"}, {"abbrev": "ChanBlk", "name": "Channel Blockers"}, {"abbrev": "VaDiAg", "name": "Vasodilator Agents"}, {"abbrev": "All", "name": "All Drugs and Chemicals"}, {"abbrev": "BDCA", "name": "Bone Density Conservation Agents"}, {"abbrev": "VaCoAg", "name": "Vasoconstrictor Agents"}]}}, "hasResults": true}