{"protocolSection": {"identificationModule": {"nctId": "NCT00790192", "orgStudyIdInfo": {"id": "D1050233"}, "organization": {"fullName": "Sumitomo Pharma America, Inc.", "class": "INDUSTRY"}, "briefTitle": "Lurasidone HCL - A 6-week Phase 3 Study of Patients With Acute Schizophrenia.", "officialTitle": "A Phase 3 Randomized, Double-Blind, Placebo- and Active Comparator-Controlled Clinical Trial to Study the Efficacy and Safety of Two Doses of Lurasidone in Acutely Psychotic Subjects With Schizophrenia (PEARL 3)", "acronym": "PEARL 3"}, "statusModule": {"statusVerifiedDate": "2016-03", "overallStatus": "COMPLETED", "expandedAccessInfo": {"hasExpandedAccess": false}, "startDateStruct": {"date": "2008-10"}, "primaryCompletionDateStruct": {"date": "2010-07", "type": "ACTUAL"}, "completionDateStruct": {"date": "2010-07", "type": "ACTUAL"}, "studyFirstSubmitDate": "2008-11-10", "studyFirstSubmitQcDate": "2008-11-12", "studyFirstPostDateStruct": {"date": "2008-11-13", "type": "ESTIMATED"}, "resultsFirstSubmitDate": "2011-09-01", "resultsFirstSubmitQcDate": "2011-09-01", "resultsFirstPostDateStruct": {"date": "2011-10-06", "type": "ESTIMATED"}, "lastUpdateSubmitDate": "2016-03-11", "lastUpdatePostDateStruct": {"date": "2016-03-17", "type": "ESTIMATED"}}, "sponsorCollaboratorsModule": {"responsibleParty": {"type": "SPONSOR"}, "leadSponsor": {"name": "Sumitomo Pharma America, Inc.", "class": "INDUSTRY"}}, "oversightModule": {"oversightHasDmc": true}, "descriptionModule": {"briefSummary": "Lurasidone HCl is a compound being developed for the treatment of schizophrenia. This clinical study is designed to test the hypothesis that lurasidone is effective, tolerable, and safe as compared with quetiapine XR short term among acutely psychotic patients with chronic schizophrenia."}, "conditionsModule": {"conditions": ["Schizophrenia"], "keywords": ["Schizophrenia", "SM-13496", "Latuda", "Lurasidone"]}, "designModule": {"studyType": "INTERVENTIONAL", "phases": ["PHASE3"], "designInfo": {"allocation": "RANDOMIZED", "interventionModel": "PARALLEL", "primaryPurpose": "TREATMENT", "maskingInfo": {"masking": "DOUBLE", "whoMasked": ["PARTICIPANT", "INVESTIGATOR"]}}, "enrollmentInfo": {"count": 488, "type": "ACTUAL"}}, "armsInterventionsModule": {"armGroups": [{"label": "Lurasidone 80mg", "type": "EXPERIMENTAL", "interventionNames": ["Drug: Lurasidone"]}, {"label": "Lurasidone 160mg", "type": "EXPERIMENTAL", "interventionNames": ["Drug: Lurasidone"]}, {"label": "Quetiapine XR", "type": "ACTIVE_COMPARATOR", "interventionNames": ["Drug: Quetiapine XR"]}, {"label": "Placebo", "type": "PLACEBO_COMPARATOR", "interventionNames": ["Drug: Placebo"]}], "interventions": [{"type": "DRUG", "name": "Lurasidone", "description": "Lurasidone 80 mg tablets", "armGroupLabels": ["Lurasidone 80mg"]}, {"type": "DRUG", "name": "Lurasidone", "description": "Lurasidone 4 40 mg tablets", "armGroupLabels": ["Lurasidone 160mg"]}, {"type": "DRUG", "name": "Quetiapine XR", "description": "Quetiapine XR 600mg", "armGroupLabels": ["Quetiapine XR"]}, {"type": "DRUG", "name": "Placebo", "description": "Matching Placebo to Lurasidone or Quetiapine", "armGroupLabels": ["Placebo"]}]}, "outcomesModule": {"primaryOutcomes": [{"measure": "Primary Efficacy Endpoint: Mean Change in Total PANSS Score From Baseline to the End of the Double Blind Phase", "description": "The PANSS (Positive and Negative Syndrome Scale) is a 30-item scale (range 30-210) designed to assess various symptoms of schizophrenia including delusions, grandiosity, blunted affect, poor attention, and poor impulse control. The 30 symptoms are rated on a 7-point scale that ranges from 1 (absent) to 7 (extreme psychopathology). The PANSS total score consists of the sum of all 30 PANSS items. Higher scores indicate worsening.", "timeFrame": "Week 6"}], "secondaryOutcomes": [{"measure": "Secondary Outcome: CGI-S From Baseline to the End of the Double-blind Treatment", "description": "Clinical Global Impression of Severity is a clinician-rated assessment of the subject's current illness state on a 7 point scale, where a higher score is associated with greater illness severity. The scale has a single item measured on a 7 point scale from 1 ('normal', not ill) to 7 (extremely ill).", "timeFrame": "6-Weeks"}]}, "eligibilityModule": {"eligibilityCriteria": "Inclusion Criteria:\n\n* Provide written informed consent and aged between 18 and 75 years of age.\n* Meets DSM-IV\u2122 criteria for a primary diagnosis of schizophrenia.\n* Not pregnant, if of reproductive potential agrees to remain abstinent or use adequate and reliable contraception for duration of study.\n* Able and agrees to remain off prior antipsychotic medication for the duration of study.\n* Good physical health on the basis of medical history, physical examination, and laboratory screening.\n* Willing and able to comply with the protocol, including the inpatient requirements and outpatient visits.\n\nExclusion Criteria:\n\n* Considered by the investigator to be at imminent risk of suicide or injury to self, others, or property.\n* Any chronic organic disease of the CNS (other than schizophrenia).\n* Used investigational compound within 30 days.\n* Clinically significant or history of alcohol abuse/alcoholism or drug abuse/dependence within the last 6 months.", "healthyVolunteers": false, "sex": "ALL", "minimumAge": "18 Years", "maximumAge": "75 Years", "stdAges": ["ADULT", "OLDER_ADULT"]}, "contactsLocationsModule": {"overallOfficials": [{"name": "Medical Director, MD", "affiliation": "Sumitomo Pharma America, Inc.", "role": "STUDY_DIRECTOR"}], "locations": [{"facility": "K&S Professional Research Services, LLC", "city": "Little Rock", "state": "Arkansas", "zip": "72201", "country": "United States", "geoPoint": {"lat": 34.74648, "lon": -92.28959}}, {"facility": "Woodland International Research Group", "city": "Little Rock", "state": "Arkansas", "zip": "72211", "country": "United States", "geoPoint": {"lat": 34.74648, "lon": -92.28959}}, {"facility": "Clinical Pharmacological Studies, Inc.", "city": "Cerritos", "state": "California", "zip": "90703", "country": "United States", "geoPoint": {"lat": 33.85835, "lon": -118.06479}}, {"facility": "Comprehensive Neuroscience, Inc", "city": "Cerritos", "state": "California", "zip": "90703", "country": "United States", "geoPoint": {"lat": 33.85835, "lon": -118.06479}}, {"facility": "Clinical Innovations, Inc.", "city": "Costa Mesa", "state": "California", "zip": "92647", "country": "United States", "geoPoint": {"lat": 33.64113, "lon": -117.91867}}, {"facility": "Synergy Escondido", "city": "Escondido", "state": "California", "zip": "92025", "country": "United States", "geoPoint": {"lat": 33.11921, "lon": -117.08642}}, {"facility": "Collaborative Neuroscience Network", "city": "Garden Grove", "state": "California", "zip": "92645", "country": "United States", "geoPoint": {"lat": 33.77391, "lon": -117.94145}}, {"facility": "Apostle Clinical Trials, Inc.", "city": "Long Beach", "state": "California", "zip": "90813", "country": "United States", "geoPoint": {"lat": 33.76696, "lon": -118.18923}}, {"facility": "California Clinical Trials", "city": "Paramount", "state": "California", "zip": "90723", "country": "United States", "geoPoint": {"lat": 33.88946, "lon": -118.15979}}, {"facility": "Pasadena Research Institute", "city": "Pasadena", "state": "California", "zip": "91107", "country": "United States", "geoPoint": {"lat": 34.14778, "lon": -118.14452}}, {"facility": "CNRI-Los Angeles. LLC", "city": "Pico Rivera", "state": "California", "zip": "90660", "country": "United States", "geoPoint": {"lat": 33.98307, "lon": -118.09673}}, {"facility": "Clinical Innovations, Inc.", "city": "Riverside", "state": "California", "zip": "92647", "country": "United States", "geoPoint": {"lat": 33.95335, "lon": -117.39616}}, {"facility": "CNRI-San Diego", "city": "San Diego", "state": "California", "zip": "92126", "country": "United States", "geoPoint": {"lat": 32.71533, "lon": -117.15726}}, {"facility": "UCSD Medical Center", "city": "Sandeigo", "state": "California", "zip": "92103", "country": "United States", "geoPoint": {"lat": 32.71533, "lon": -117.15726}}, {"facility": "Segal Institute for Clinical Research", "city": "Highlands Ranch", "state": "Colorado", "zip": "80103", "country": "United States", "geoPoint": {"lat": 39.55388, "lon": -104.96943}}, {"facility": "Comprehensive Neuroscience, Inc.", "city": "Washington", "state": "District of Columbia", "zip": "20016", "country": "United States", "geoPoint": {"lat": 38.89511, "lon": -77.03637}}, {"facility": "Florida Clinical Research Center", "city": "Bradenton", "state": "Florida", "zip": "34208", "country": "United States", "geoPoint": {"lat": 27.49893, "lon": -82.57482}}, {"facility": "Florida Clinical Research Center, LLC", "city": "Fruitland Park", "state": "Florida", "zip": "34731", "country": "United States", "geoPoint": {"lat": 28.86138, "lon": -81.90647}}, {"facility": "Lake Charles Clinical Trials", "city": "Lake Charles", "state": "Louisiana", "zip": "70601", "country": "United States", "geoPoint": {"lat": 30.21309, "lon": -93.2044}}, {"facility": "Booker, J. Gary, MD. APMC", "city": "Shreveport", "state": "Louisiana", "zip": "71104", "country": "United States", "geoPoint": {"lat": 32.52515, "lon": -93.75018}}, {"facility": "Precise Clinical Research", "city": "Flowood", "state": "Mississippi", "zip": "39232", "country": "United States", "geoPoint": {"lat": 32.30959, "lon": -90.13898}}, {"facility": "St. Charles Psychiatric Associates", "city": "St Charles", "state": "Missouri", "zip": "63301", "country": "United States", "geoPoint": {"lat": 38.78394, "lon": -90.48123}}, {"facility": "St. Louis Research, Inc.", "city": "St. Louis", "state": "Missouri", "zip": "63118", "country": "United States", "geoPoint": {"lat": 38.62727, "lon": -90.19789}}, {"facility": "CRI Worldwide", "city": "Willingboro", "state": "New Jersey", "zip": "08046", "country": "United States", "geoPoint": {"lat": 40.02789, "lon": -74.86905}}, {"facility": "Comprehensive Neuroscience, Inc", "city": "Holliswood", "state": "New York", "zip": "11423", "country": "United States", "geoPoint": {"lat": 40.71344, "lon": -73.76708}}, {"facility": "Segal Institute for Clinical Research", "city": "Winston-Salem", "state": "North Carolina", "zip": "27104", "country": "United States", "geoPoint": {"lat": 36.09986, "lon": -80.24422}}, {"facility": "Community Clinical Research", "city": "Austin", "state": "Texas", "zip": "78729", "country": "United States", "geoPoint": {"lat": 30.26715, "lon": -97.74306}}, {"facility": "Future Search Trials of Neurology", "city": "Austin", "state": "Texas", "zip": "78756", "country": "United States", "geoPoint": {"lat": 30.26715, "lon": -97.74306}}, {"facility": "Pillar Clinical Research", "city": "Dallas", "state": "Texas", "zip": "75243", "country": "United States", "geoPoint": {"lat": 32.78306, "lon": -96.80667}}, {"facility": "Vijayawada Institute of Mental Health and Neurosciences", "city": "Vijayawada", "state": "Andhra Pradesh", "zip": "520002", "country": "India", "geoPoint": {"lat": 16.50745, "lon": 80.6466}}, {"facility": "S.V. Medical College", "city": "Tirupati", "state": "Andra Pradesh", "zip": "517507", "country": "India", "geoPoint": {"lat": 13.63551, "lon": 79.41989}}, {"facility": "Seth K M School of P G Medicine & Research", "city": "Ahmedabad", "state": "Gujarat", "zip": "380006", "country": "India", "geoPoint": {"lat": 23.02579, "lon": 72.58727}}, {"facility": "SBKS Medical Institute and Research Centre", "city": "Vadodara", "state": "Gujarat", "zip": "391760", "country": "India", "geoPoint": {"lat": 22.29941, "lon": 73.20812}}, {"facility": "Justice K.S. Hegde Charitable Hospital", "city": "Mangalore", "state": "Karnataka", "zip": "574160", "country": "India", "geoPoint": {"lat": 12.91723, "lon": 74.85603}}, {"facility": "JSS Medical College and Hospital", "city": "Mysore", "state": "Karnataka", "zip": "570004", "country": "India", "geoPoint": {"lat": 12.29791, "lon": 76.63925}}, {"facility": "Shanti Nursing Home", "city": "Aurangabad", "state": "Maharastra", "zip": "431005", "country": "India", "geoPoint": {"lat": 19.87757, "lon": 75.34226}}, {"facility": "Deenanath Mangeshkar Hospital and Research Centre", "city": "Pune", "state": "Maharastra", "zip": "411004", "country": "India", "geoPoint": {"lat": 18.51957, "lon": 73.85535}}, {"facility": "Mahatma Gandhi Institute of Medical Sciences", "city": "Sewagram", "state": "Maharastra", "zip": "442102", "country": "India", "geoPoint": {"lat": 20.73578, "lon": 78.65911}}, {"facility": "Madras Medical College & Government General Hospital", "city": "Chennai", "state": "TamilNadu", "zip": "600003", "country": "India", "geoPoint": {"lat": 13.08784, "lon": 80.27847}}, {"facility": "Spitalul Clinic Judetean de Urgenta Arad", "city": "Str. Octavian Goga nr. 17", "state": "Arad", "zip": "310022", "country": "Romania"}, {"facility": "Spitalul de Psihiatrie Titan \"Dr. Constantin Gorgos\"", "city": "Bdul Nicolae Grigorescu nr. 41", "state": "Bucuresti", "zip": "030440", "country": "Romania"}, {"facility": "Spitalul Clinic de Psihiatrie Prof. Dr. Alexandru Obregia", "city": "Sos. Berceni nr. 10-12", "state": "Bucuresti", "zip": "041914", "country": "Romania"}, {"facility": "Spitalul Judetean Arges", "city": "Str. Negru Voda nr. 53", "state": "Pitesti", "zip": "110069", "country": "Romania"}, {"facility": "Spitalul Clinic de Psihiatrie Prof. Dr. Alexandru Obregia", "city": "Bucuresti", "country": "Romania", "geoPoint": {"lat": 44.42802, "lon": 26.09665}}, {"facility": "Spitalul Clinic de Neurologie si Psihiatrie Oradea", "city": "Oradea", "country": "Romania", "geoPoint": {"lat": 47.0458, "lon": 21.91833}}, {"facility": "SEI of H.P. Educat. Northern SMU", "city": "Arkhangelsk", "zip": "163060", "country": "Russian Federation", "geoPoint": {"lat": 64.5401, "lon": 40.5433}}, {"facility": "St. Petersburg SHI Psychiatrical Hosptial #1 n.a. Kaschenko", "city": "Gatchina", "zip": "188357", "country": "Russian Federation", "geoPoint": {"lat": 59.57639, "lon": 30.12833}}, {"facility": "Moscow Scientific Research Institute of Psychiatry", "city": "Moscow", "zip": "107076", "country": "Russian Federation", "geoPoint": {"lat": 55.75222, "lon": 37.61556}}, {"facility": "Institution of RAMS Mental Health Research Center of RAMS", "city": "Moscow", "zip": "115522", "country": "Russian Federation", "geoPoint": {"lat": 55.75222, "lon": 37.61556}}, {"facility": "City Clinical Psichiatric Hospital #1", "city": "Nizhniy Novgorod", "zip": "603 155", "country": "Russian Federation", "geoPoint": {"lat": 56.32867, "lon": 44.00205}}, {"facility": "SHI Samara Psychiatric Hospital", "city": "Samara", "zip": "443016", "country": "Russian Federation", "geoPoint": {"lat": 53.20007, "lon": 50.15}}, {"facility": "City Psychiatric Hospital #2 of St. Nikolay Chudotvorets", "city": "St. Petersburg", "country": "Russian Federation", "geoPoint": {"lat": 59.93863, "lon": 30.31413}}, {"facility": "City Psychiatric Hospital #3 of Skvortsov-Stepanov", "city": "St. Petersburg", "country": "Russian Federation", "geoPoint": {"lat": 59.93863, "lon": 30.31413}}, {"facility": "City Psychiatric Hospital #4", "city": "St. Petersburg", "country": "Russian Federation", "geoPoint": {"lat": 59.93863, "lon": 30.31413}}, {"facility": "SHI City Psychoneurological Dispensary #7", "city": "St. Petersburg", "country": "Russian Federation", "geoPoint": {"lat": 59.93863, "lon": 30.31413}}, {"facility": "St. Petersburg GUZ City Psychiatric Hospital #6", "city": "St. Petersburg", "country": "Russian Federation", "geoPoint": {"lat": 59.93863, "lon": 30.31413}}, {"facility": "Kherson Regional Psychiatric Hospital", "city": "Kherson,vil.", "state": "Stepanovka", "zip": "73488", "country": "Ukraine"}, {"facility": "RCH n.a.I.I.Mechnikov, Reg.Cent. of Psychosom. Pathology", "city": "Dnipropetrovsk", "zip": "49005", "country": "Ukraine", "geoPoint": {"lat": 48.4593, "lon": 35.03864}}, {"facility": "Chair of Psychiatry and Medical Psychology", "city": "Donetsk", "zip": "83008", "country": "Ukraine", "geoPoint": {"lat": 48.023, "lon": 37.80224}}, {"facility": "Centre of Novel Treatment and Rehabilitation of Psychotic disorders", "city": "Kyiv", "country": "Ukraine", "geoPoint": {"lat": 50.45466, "lon": 30.5238}}, {"facility": "Kyiv City Psychoneurological Hospital", "city": "Kyviv", "country": "Ukraine"}, {"facility": "Lviv Reg.St.Cl.Psych.Hosp", "city": "Lviv", "country": "Ukraine", "geoPoint": {"lat": 49.83826, "lon": 24.02324}}, {"facility": "Reg. Psychiatric Hospital", "city": "Odessa", "country": "Ukraine", "geoPoint": {"lat": 46.47747, "lon": 30.73262}}, {"facility": "Poltava Regional Clinical Psychiatric Hospital,", "city": "Poltava", "country": "Ukraine", "geoPoint": {"lat": 49.59373, "lon": 34.54073}}, {"facility": "Crimean republican Clinical Psychiatric Hospital", "city": "Simferopol", "country": "Ukraine", "geoPoint": {"lat": 44.95719, "lon": 34.11079}}]}, "referencesModule": {"references": [{"pmid": "23415311", "type": "RESULT", "citation": "Loebel A, Cucchiaro J, Sarma K, Xu L, Hsu C, Kalali AH, Pikalov A, Potkin SG. Efficacy and safety of lurasidone 80 mg/day and 160 mg/day in the treatment of schizophrenia: a randomized, double-blind, placebo- and active-controlled trial. Schizophr Res. 2013 Apr;145(1-3):101-9. doi: 10.1016/j.schres.2013.01.009. Epub 2013 Feb 13."}, {"pmid": "24035633", "type": "RESULT", "citation": "Harvey PD, Siu CO, Hsu J, Cucchiaro J, Maruff P, Loebel A. Effect of lurasidone on neurocognitive performance in patients with schizophrenia: a short-term placebo- and active-controlled study followed by a 6-month double-blind extension. Eur Neuropsychopharmacol. 2013 Nov;23(11):1373-82. doi: 10.1016/j.euroneuro.2013.08.003. Epub 2013 Aug 27."}, {"pmid": "24330860", "type": "RESULT", "citation": "Loebel AD, Siu CO, Cucchiaro JB, Pikalov AA, Harvey PD. Daytime sleepiness associated with lurasidone and quetiapine XR: results from a randomized double-blind, placebo-controlled trial in patients with schizophrenia. CNS Spectr. 2014 Apr;19(2):197-205. doi: 10.1017/S1092852913000904. Epub 2013 Dec 13."}, {"pmid": "34751928", "type": "DERIVED", "citation": "Hopkins SC, Ogirala A, Worden M, Koblan KS. Depicting Safety Profile of TAAR1 Agonist Ulotaront Relative to Reactions Anticipated for a Dopamine D2-Based Pharmacological Class in FAERS. Clin Drug Investig. 2021 Dec;41(12):1067-1073. doi: 10.1007/s40261-021-01094-7. Epub 2021 Nov 9."}, {"pmid": "26117157", "type": "DERIVED", "citation": "Harvey PD, Siu CO, Ogasa M, Loebel A. Effect of lurasidone dose on cognition in patients with schizophrenia: post-hoc analysis of a long-term, double-blind continuation study. Schizophr Res. 2015 Aug;166(1-3):334-8. doi: 10.1016/j.schres.2015.06.008. Epub 2015 Jun 24."}, {"pmid": "24955752", "type": "DERIVED", "citation": "Nasrallah HA, Cucchiaro JB, Mao Y, Pikalov AA, Loebel AD. Lurasidone for the treatment of depressive symptoms in schizophrenia: analysis of 4 pooled, 6-week, placebo-controlled studies. CNS Spectr. 2015 Apr;20(2):140-7. doi: 10.1017/S1092852914000285. Epub 2014 Jun 23."}]}}, "resultsSection": {"participantFlowModule": {"groups": [{"id": "FG000", "title": "Lurasidone 80 mg", "description": "Lurasidone 80 mg tablets taken orally once a day"}, {"id": "FG001", "title": "Lurasidone 160 mg", "description": "Lurasidone 160 mg (4 tablets) taken orally once a day"}, {"id": "FG002", "title": "Quetiapine XR 600mg", "description": "Quetiapine XR 600 mg (4 tablets) orally taken once a day"}, {"id": "FG003", "title": "Placebo", "description": "Matching placebo to either lurasidone or quetiapine XR. The total for this group is 73 and the adverse events only add up to 69 because the total is based on all treatment emergent adverse events not limited to \\>= 5%."}], "periods": [{"title": "Overall Study", "milestones": [{"type": "STARTED", "achievements": [{"groupId": "FG000", "numSubjects": "125"}, {"groupId": "FG001", "numSubjects": "121"}, {"groupId": "FG002", "numSubjects": "120"}, {"groupId": "FG003", "numSubjects": "122"}]}, {"type": "COMPLETED", "achievements": [{"groupId": "FG000", "numSubjects": "89"}, {"groupId": "FG001", "numSubjects": "93"}, {"groupId": "FG002", "numSubjects": "97"}, {"groupId": "FG003", "numSubjects": "74"}]}, {"type": "NOT COMPLETED", "achievements": [{"groupId": "FG000", "numSubjects": "36"}, {"groupId": "FG001", "numSubjects": "28"}, {"groupId": "FG002", "numSubjects": "23"}, {"groupId": "FG003", "numSubjects": "48"}]}]}]}, "baselineCharacteristicsModule": {"groups": [{"id": "BG000", "title": "Lurasidone 80 mg", "description": "Lurasidone 80 mg tablets taken orally once a day"}, {"id": "BG001", "title": "Lurasidone 160 mg", "description": "Lurasidone 160 mg (4 tablets) taken orally once a day"}, {"id": "BG002", "title": "Quetiapine XR 600mg", "description": "Quetiapine XR 600 mg (4 tablets) orally taken once a day"}, {"id": "BG003", "title": "Placebo", "description": "Matching placebo to either lurasidone or quetiapine XR. The total for this group is 73 and the adverse events only add up to 69 because the total is based on all treatment emergent adverse events not limited to \\>= 5%."}, {"id": "BG004", "title": "Total", "description": "Total of all reporting groups"}], "denoms": [{"units": "Participants", "counts": [{"groupId": "BG000", "value": "125"}, {"groupId": "BG001", "value": "121"}, {"groupId": "BG002", "value": "120"}, {"groupId": "BG003", "value": "122"}, {"groupId": "BG004", "value": "488"}]}], "measures": [{"title": "Age, Continuous", "paramType": "MEAN", "dispersionType": "STANDARD_DEVIATION", "unitOfMeasure": "years", "classes": [{"categories": [{"measurements": [{"groupId": "BG000", "value": "36.2", "spread": "10.9"}, {"groupId": "BG001", "value": "37.9", "spread": "11.3"}, {"groupId": "BG002", "value": "37.4", "spread": "10.4"}, {"groupId": "BG003", "value": "37.4", "spread": "10.8"}, {"groupId": "BG004", "value": "37.2", "spread": "10.8"}]}]}]}, {"title": "Gender", "description": "There were two subjects, one randomized to the Quetiapine 600 mg group and one subject randomized to placebo that did not take study drug. Thus you see a discrepancy between the participant population and the overall baseline population for the two treatment groups (1 less patient in each treatment arm).", "paramType": "NUMBER", "unitOfMeasure": "participants", "classes": [{"title": "Female", "categories": [{"measurements": [{"groupId": "BG000", "value": "29"}, {"groupId": "BG001", "value": "39"}, {"groupId": "BG002", "value": "42"}, {"groupId": "BG003", "value": "44"}, {"groupId": "BG004", "value": "154"}]}]}, {"title": "Male", "categories": [{"measurements": [{"groupId": "BG000", "value": "96"}, {"groupId": "BG001", "value": "82"}, {"groupId": "BG002", "value": "77"}, {"groupId": "BG003", "value": "77"}, {"groupId": "BG004", "value": "332"}]}]}]}, {"title": "Region of Enrollment", "description": "There were two subjects, one randomized to the Quetiapine 600 mg group and one subject randomized to placebo that did not take study drug. Thus you see a discrepancy between the participant population and the overall baseline population(1 less patient in each treatment arm).", "paramType": "NUMBER", "unitOfMeasure": "participants", "classes": [{"title": "United States", "categories": [{"measurements": [{"groupId": "BG000", "value": "40"}, {"groupId": "BG001", "value": "37"}, {"groupId": "BG002", "value": "35"}, {"groupId": "BG003", "value": "39"}, {"groupId": "BG004", "value": "151"}]}]}, {"title": "Ukraine", "categories": [{"measurements": [{"groupId": "BG000", "value": "19"}, {"groupId": "BG001", "value": "20"}, {"groupId": "BG002", "value": "19"}, {"groupId": "BG003", "value": "17"}, {"groupId": "BG004", "value": "75"}]}]}, {"title": "Romania", "categories": [{"measurements": [{"groupId": "BG000", "value": "13"}, {"groupId": "BG001", "value": "11"}, {"groupId": "BG002", "value": "13"}, {"groupId": "BG003", "value": "12"}, {"groupId": "BG004", "value": "49"}]}]}, {"title": "Russian Federation", "categories": [{"measurements": [{"groupId": "BG000", "value": "22"}, {"groupId": "BG001", "value": "22"}, {"groupId": "BG002", "value": "21"}, {"groupId": "BG003", "value": "22"}, {"groupId": "BG004", "value": "87"}]}]}, {"title": "India", "categories": [{"measurements": [{"groupId": "BG000", "value": "24"}, {"groupId": "BG001", "value": "25"}, {"groupId": "BG002", "value": "25"}, {"groupId": "BG003", "value": "24"}, {"groupId": "BG004", "value": "98"}]}]}, {"title": "Colombia", "categories": [{"measurements": [{"groupId": "BG000", "value": "7"}, {"groupId": "BG001", "value": "6"}, {"groupId": "BG002", "value": "6"}, {"groupId": "BG003", "value": "7"}, {"groupId": "BG004", "value": "26"}]}]}]}]}, "outcomeMeasuresModule": {"outcomeMeasures": [{"type": "PRIMARY", "title": "Primary Efficacy Endpoint: Mean Change in Total PANSS Score From Baseline to the End of the Double Blind Phase", "description": "The PANSS (Positive and Negative Syndrome Scale) is a 30-item scale (range 30-210) designed to assess various symptoms of schizophrenia including delusions, grandiosity, blunted affect, poor attention, and poor impulse control. The 30 symptoms are rated on a 7-point scale that ranges from 1 (absent) to 7 (extreme psychopathology). The PANSS total score consists of the sum of all 30 PANSS items. Higher scores indicate worsening.", "populationDescription": "The primary population for the efficacy analysis was the Intent-to-Treat (ITT) population. All subjects who were randomized, received at least one dose of study medication, and have a Baseline efficacy measurement and at least one post-Baseline efficacy measurement, were in the efficacy analysis in the treatment group to which they were randomized.", "reportingStatus": "POSTED", "anticipatedPostingDate": "2011-09", "paramType": "LEAST_SQUARES_MEAN", "dispersionType": "95% Confidence Interval", "unitOfMeasure": "scores on a scale", "timeFrame": "Week 6", "groups": [{"id": "OG000", "title": "Lurasidone 80 mg", "description": "Lurasidone 80 mg tablets taken orally once a day"}, {"id": "OG001", "title": "Lurasidone 160 mg", "description": "Lurasidone 160 mg (4 tablets) taken orally once a day"}, {"id": "OG002", "title": "Quetiapine XR 600mg", "description": "Quetiapine XR 600 mg (4 tablets) orally taken once a day"}, {"id": "OG003", "title": "Placebo", "description": "Matching placebo to either lurasidone or quetiapine XR. The total for this group is 73 and the adverse events only add up to 69 because the total is based on all treatment emergent adverse events not limited to \\>= 5%."}], "denoms": [{"units": "Participants", "counts": [{"groupId": "OG000", "value": "125"}, {"groupId": "OG001", "value": "121"}, {"groupId": "OG002", "value": "116"}, {"groupId": "OG003", "value": "120"}]}], "classes": [{"categories": [{"measurements": [{"groupId": "OG000", "value": "-22.2", "lowerLimit": "-25.7", "upperLimit": "-18.7"}, {"groupId": "OG001", "value": "-26.5", "lowerLimit": "-30.0", "upperLimit": "-23.0"}, {"groupId": "OG002", "value": "-27.8", "lowerLimit": "-31.3", "upperLimit": "-24.2"}, {"groupId": "OG003", "value": "-10.3", "lowerLimit": "-13.9", "upperLimit": "-6.7"}]}]}], "analyses": [{"groupIds": ["OG000", "OG001", "OG002", "OG003"], "testedNonInferiority": false, "nonInferiorityType": "SUPERIORITY_OR_OTHER", "pValue": "<0.05", "statisticalMethod": "Mixed Models Analysis", "ciPctValue": "95", "ciNumSides": "TWO_SIDED"}]}, {"type": "SECONDARY", "title": "Secondary Outcome: CGI-S From Baseline to the End of the Double-blind Treatment", "description": "Clinical Global Impression of Severity is a clinician-rated assessment of the subject's current illness state on a 7 point scale, where a higher score is associated with greater illness severity. The scale has a single item measured on a 7 point scale from 1 ('normal', not ill) to 7 (extremely ill).", "reportingStatus": "POSTED", "anticipatedPostingDate": "2011-09", "paramType": "LEAST_SQUARES_MEAN", "dispersionType": "95% Confidence Interval", "unitOfMeasure": "scores on a scale", "timeFrame": "6-Weeks", "groups": [{"id": "OG000", "title": "Lurasidone 80 mg", "description": "Lurasidone 80 mg tablets taken orally once a day"}, {"id": "OG001", "title": "Lurasidone 160 mg", "description": "Lurasidone 160 mg (4 tablets) taken orally once a day"}, {"id": "OG002", "title": "Quetiapine XR 600mg", "description": "Quetiapine XR 600 mg (4 tablets) orally taken once a day"}, {"id": "OG003", "title": "Placebo", "description": "Matching placebo to either lurasidone or quetiapine XR. The total for this group is 73 and the adverse events only add up to 69 because the total is based on all treatment emergent adverse events not limited to \\>= 5%."}], "denoms": [{"units": "Participants", "counts": [{"groupId": "OG000", "value": "125"}, {"groupId": "OG001", "value": "121"}, {"groupId": "OG002", "value": "116"}, {"groupId": "OG003", "value": "120"}]}], "classes": [{"categories": [{"measurements": [{"groupId": "OG000", "value": "-1.5", "lowerLimit": "-1.7", "upperLimit": "-1.3"}, {"groupId": "OG001", "value": "-1.7", "lowerLimit": "-1.9", "upperLimit": "-1.5"}, {"groupId": "OG002", "value": "-1.7", "lowerLimit": "-1.9", "upperLimit": "-1.5"}, {"groupId": "OG003", "value": "-0.9", "lowerLimit": "-1.1", "upperLimit": "-0.7"}]}]}], "analyses": [{"groupIds": ["OG000", "OG001", "OG002", "OG003"], "testedNonInferiority": false, "nonInferiorityType": "SUPERIORITY_OR_OTHER", "pValue": "<0.05", "statisticalMethod": "Mixed Models Analysis", "ciPctValue": "95", "ciNumSides": "TWO_SIDED"}]}]}, "adverseEventsModule": {"frequencyThreshold": "5", "timeFrame": "14 days post study therapy", "eventGroups": [{"id": "EG000", "title": "Lurasidone 80 mg", "description": "Lurasidone 80 mg tablets taken orally once a day", "seriousNumAffected": 1, "seriousNumAtRisk": 125, "otherNumAffected": 71, "otherNumAtRisk": 125}, {"id": "EG001", "title": "Lurasidone 160 mg", "description": "Lurasidone 160 mg (4 tablets) taken orally once a day", "seriousNumAffected": 4, "seriousNumAtRisk": 121, "otherNumAffected": 76, "otherNumAtRisk": 121}, {"id": "EG002", "title": "Quetiapine XR 600mg", "description": "Quetiapine XR 600 mg (4 tablets) orally taken once a day", "seriousNumAffected": 1, "seriousNumAtRisk": 119, "otherNumAffected": 70, "otherNumAtRisk": 119}, {"id": "EG003", "title": "Placebo", "description": "Matching placebo to either lurasidone or quetiapine XR. The total for this group is 73 and the adverse events only add up to 69 because the total is based on all treatment emergent adverse events not limited to \\>= 5%.", "seriousNumAffected": 4, "seriousNumAtRisk": 121, "otherNumAffected": 69, "otherNumAtRisk": 121}], "seriousEvents": [{"term": "Left Ventricular Dysfunction", "organSystem": "Cardiac disorders", "assessmentType": "SYSTEMATIC_ASSESSMENT", "stats": [{"groupId": "EG000", "numEvents": 1, "numAffected": 1, "numAtRisk": 125}, {"groupId": "EG001", "numEvents": 4, "numAffected": 4, "numAtRisk": 121}, {"groupId": "EG002", "numEvents": 1, "numAffected": 1, "numAtRisk": 119}, {"groupId": "EG003", "numEvents": 4, "numAffected": 4, "numAtRisk": 121}]}, {"term": "Abdominal Hernia Obstructive", "organSystem": "Gastrointestinal disorders", "assessmentType": "SYSTEMATIC_ASSESSMENT", "stats": [{"groupId": "EG000", "numEvents": 0, "numAffected": 0, "numAtRisk": 125}, {"groupId": "EG001", "numEvents": 1, "numAffected": 1, "numAtRisk": 121}, {"groupId": "EG002", "numEvents": 0, "numAffected": 0, "numAtRisk": 119}, {"groupId": "EG003", "numEvents": 0, "numAffected": 0, "numAtRisk": 121}]}, {"term": "Non-cardiac Chest Pain", "organSystem": "General disorders", "assessmentType": "SYSTEMATIC_ASSESSMENT", "stats": [{"groupId": "EG000", "numEvents": 0, "numAffected": 0, "numAtRisk": 125}, {"groupId": "EG001", "numEvents": 1, "numAffected": 1, "numAtRisk": 121}, {"groupId": "EG002", "numEvents": 0, "numAffected": 0, "numAtRisk": 119}, {"groupId": "EG003", "numEvents": 0, "numAffected": 0, "numAtRisk": 121}]}, {"term": "Hepatitis Viral", "organSystem": "Infections and infestations", "assessmentType": "SYSTEMATIC_ASSESSMENT", "stats": [{"groupId": "EG000", "numEvents": 0, "numAffected": 0, "numAtRisk": 125}, {"groupId": "EG001", "numEvents": 0, "numAffected": 0, "numAtRisk": 121}, {"groupId": "EG002", "numEvents": 119, "numAffected": 1, "numAtRisk": 119}, {"groupId": "EG003", "numEvents": 0, "numAffected": 0, "numAtRisk": 121}]}, {"term": "Hand Fracture", "organSystem": "Injury, poisoning and procedural complications", "assessmentType": "SYSTEMATIC_ASSESSMENT", "stats": [{"groupId": "EG000", "numEvents": 0, "numAffected": 0, "numAtRisk": 125}, {"groupId": "EG001", "numEvents": 1, "numAffected": 1, "numAtRisk": 121}, {"groupId": "EG002", "numEvents": 0, "numAffected": 0, "numAtRisk": 119}, {"groupId": "EG003", "numEvents": 0, "numAffected": 0, "numAtRisk": 121}]}, {"term": "Agression", "organSystem": "Psychiatric disorders", "assessmentType": "SYSTEMATIC_ASSESSMENT", "stats": [{"groupId": "EG000", "numEvents": 0, "numAffected": 0, "numAtRisk": 125}, {"groupId": "EG001", "numEvents": 0, "numAffected": 0, "numAtRisk": 121}, {"groupId": "EG002", "numEvents": 0, "numAffected": 0, "numAtRisk": 119}, {"groupId": "EG003", "numEvents": 1, "numAffected": 1, "numAtRisk": 121}]}, {"term": "Pyschotic Disorder", "organSystem": "Psychiatric disorders", "assessmentType": "SYSTEMATIC_ASSESSMENT", "stats": [{"groupId": "EG000", "numEvents": 0, "numAffected": 0, "numAtRisk": 125}, {"groupId": "EG001", "numEvents": 0, "numAffected": 0, "numAtRisk": 121}, {"groupId": "EG002", "numEvents": 1, "numAffected": 1, "numAtRisk": 119}, {"groupId": "EG003", "numEvents": 2, "numAffected": 2, "numAtRisk": 121}]}, {"term": "Schizophrenia", "organSystem": "Psychiatric disorders", "assessmentType": "SYSTEMATIC_ASSESSMENT", "stats": [{"groupId": "EG000", "numEvents": 0, "numAffected": 0, "numAtRisk": 125}, {"groupId": "EG001", "numEvents": 1, "numAffected": 1, "numAtRisk": 121}, {"groupId": "EG002", "numEvents": 0, "numAffected": 0, "numAtRisk": 119}, {"groupId": "EG003", "numEvents": 0, "numAffected": 0, "numAtRisk": 121}]}, {"term": "Suicidal Behavior", "organSystem": "Psychiatric disorders", "assessmentType": "SYSTEMATIC_ASSESSMENT", "stats": [{"groupId": "EG000", "numEvents": 0, "numAffected": 0, "numAtRisk": 125}, {"groupId": "EG001", "numEvents": 0, "numAffected": 0, "numAtRisk": 121}, {"groupId": "EG002", "numEvents": 0, "numAffected": 0, "numAtRisk": 119}, {"groupId": "EG003", "numEvents": 1, "numAffected": 1, "numAtRisk": 121}]}, {"term": "Suicidal Ideation", "organSystem": "Psychiatric disorders", "assessmentType": "SYSTEMATIC_ASSESSMENT", "stats": [{"groupId": "EG000", "numEvents": 0, "numAffected": 0, "numAtRisk": 125}, {"groupId": "EG001", "numEvents": 0, "numAffected": 0, "numAtRisk": 121}, {"groupId": "EG002", "numEvents": 0, "numAffected": 0, "numAtRisk": 119}, {"groupId": "EG003", "numEvents": 2, "numAffected": 2, "numAtRisk": 121}]}, {"term": "Physical Assault", "organSystem": "Social circumstances", "assessmentType": "SYSTEMATIC_ASSESSMENT", "stats": [{"groupId": "EG000", "numEvents": 1, "numAffected": 1, "numAtRisk": 125}, {"groupId": "EG001", "numEvents": 0, "numAffected": 0, "numAtRisk": 121}, {"groupId": "EG002", "numEvents": 0, "numAffected": 0, "numAtRisk": 119}, {"groupId": "EG003", "numEvents": 0, "numAffected": 0, "numAtRisk": 121}]}, {"term": "Labile Hypertension", "organSystem": "Vascular disorders", "assessmentType": "SYSTEMATIC_ASSESSMENT", "stats": [{"groupId": "EG000", "numEvents": 0, "numAffected": 0, "numAtRisk": 125}, {"groupId": "EG001", "numEvents": 1, "numAffected": 1, "numAtRisk": 121}, {"groupId": "EG002", "numEvents": 0, "numAffected": 0, "numAtRisk": 119}, {"groupId": "EG003", "numEvents": 0, "numAffected": 0, "numAtRisk": 121}]}], "otherEvents": [{"term": "Constipation", "organSystem": "Gastrointestinal disorders", "assessmentType": "SYSTEMATIC_ASSESSMENT", "stats": [{"groupId": "EG000", "numEvents": 3, "numAffected": 3, "numAtRisk": 125}, {"groupId": "EG001", "numEvents": 1, "numAffected": 1, "numAtRisk": 121}, {"groupId": "EG002", "numEvents": 8, "numAffected": 8, "numAtRisk": 119}, {"groupId": "EG003", "numEvents": 3, "numAffected": 3, "numAtRisk": 121}]}, {"term": "Dry Mouth", "organSystem": "Gastrointestinal disorders", "assessmentType": "SYSTEMATIC_ASSESSMENT", "stats": [{"groupId": "EG000", "numEvents": 2, "numAffected": 2, "numAtRisk": 125}, {"groupId": "EG001", "numEvents": 2, "numAffected": 2, "numAtRisk": 121}, {"groupId": "EG002", "numEvents": 9, "numAffected": 9, "numAtRisk": 119}, {"groupId": "EG003", "numEvents": 1, "numAffected": 1, "numAtRisk": 121}]}, {"term": "Dyspepsia", "organSystem": "Gastrointestinal disorders", "assessmentType": "SYSTEMATIC_ASSESSMENT", "stats": [{"groupId": "EG000", "numEvents": 3, "numAffected": 3, "numAtRisk": 125}, {"groupId": "EG001", "numEvents": 7, "numAffected": 7, "numAtRisk": 121}, {"groupId": "EG002", "numEvents": 3, "numAffected": 3, "numAtRisk": 119}, {"groupId": "EG003", "numEvents": 4, "numAffected": 4, "numAtRisk": 121}]}, {"term": "Nausea", "organSystem": "Gastrointestinal disorders", "assessmentType": "SYSTEMATIC_ASSESSMENT", "stats": [{"groupId": "EG000", "numEvents": 10, "numAffected": 10, "numAtRisk": 125}, {"groupId": "EG001", "numEvents": 8, "numAffected": 8, "numAtRisk": 121}, {"groupId": "EG002", "numEvents": 4, "numAffected": 4, "numAtRisk": 119}, {"groupId": "EG003", "numEvents": 4, "numAffected": 4, "numAtRisk": 121}]}, {"term": "Vomiting", "organSystem": "Gastrointestinal disorders", "assessmentType": "SYSTEMATIC_ASSESSMENT", "stats": [{"groupId": "EG000", "numEvents": 8, "numAffected": 8, "numAtRisk": 125}, {"groupId": "EG001", "numEvents": 9, "numAffected": 9, "numAtRisk": 121}, {"groupId": "EG002", "numEvents": 6, "numAffected": 6, "numAtRisk": 119}, {"groupId": "EG003", "numEvents": 6, "numAffected": 6, "numAtRisk": 121}]}, {"term": "Upper Respiratory Tract Infection", "organSystem": "Infections and infestations", "assessmentType": "SYSTEMATIC_ASSESSMENT", "stats": [{"groupId": "EG000", "numEvents": 2, "numAffected": 2, "numAtRisk": 125}, {"groupId": "EG001", "numEvents": 1, "numAffected": 1, "numAtRisk": 121}, {"groupId": "EG002", "numEvents": 6, "numAffected": 6, "numAtRisk": 119}, {"groupId": "EG003", "numEvents": 1, "numAffected": 1, "numAtRisk": 121}]}, {"term": "Weight Increase", "organSystem": "Investigations", "assessmentType": "SYSTEMATIC_ASSESSMENT", "stats": [{"groupId": "EG000", "numEvents": 1, "numAffected": 1, "numAtRisk": 125}, {"groupId": "EG001", "numEvents": 2, "numAffected": 2, "numAtRisk": 121}, {"groupId": "EG002", "numEvents": 8, "numAffected": 8, "numAtRisk": 119}, {"groupId": "EG003", "numEvents": 1, "numAffected": 1, "numAtRisk": 121}]}, {"term": "Arthralgia", "organSystem": "Musculoskeletal and connective tissue disorders", "assessmentType": "SYSTEMATIC_ASSESSMENT", "stats": [{"groupId": "EG000", "numEvents": 2, "numAffected": 2, "numAtRisk": 125}, {"groupId": "EG001", "numEvents": 1, "numAffected": 1, "numAtRisk": 121}, {"groupId": "EG002", "numEvents": 7, "numAffected": 7, "numAtRisk": 119}, {"groupId": "EG003", "numEvents": 1, "numAffected": 1, "numAtRisk": 121}]}, {"term": "Akathisia", "organSystem": "Nervous system disorders", "assessmentType": "SYSTEMATIC_ASSESSMENT", "stats": [{"groupId": "EG000", "numEvents": 10, "numAffected": 10, "numAtRisk": 125}, {"groupId": "EG001", "numEvents": 9, "numAffected": 9, "numAtRisk": 121}, {"groupId": "EG002", "numEvents": 2, "numAffected": 2, "numAtRisk": 119}, {"groupId": "EG003", "numEvents": 1, "numAffected": 1, "numAtRisk": 121}]}, {"term": "Dizziness", "organSystem": "Nervous system disorders", "assessmentType": "SYSTEMATIC_ASSESSMENT", "stats": [{"groupId": "EG000", "numEvents": 6, "numAffected": 6, "numAtRisk": 125}, {"groupId": "EG001", "numEvents": 7, "numAffected": 7, "numAtRisk": 121}, {"groupId": "EG002", "numEvents": 16, "numAffected": 16, "numAtRisk": 119}, {"groupId": "EG003", "numEvents": 2, "numAffected": 2, "numAtRisk": 121}]}, {"term": "Headache", "organSystem": "Nervous system disorders", "assessmentType": "SYSTEMATIC_ASSESSMENT", "stats": [{"groupId": "EG000", "numEvents": 12, "numAffected": 12, "numAtRisk": 125}, {"groupId": "EG001", "numEvents": 12, "numAffected": 12, "numAtRisk": 121}, {"groupId": "EG002", "numEvents": 13, "numAffected": 13, "numAtRisk": 119}, {"groupId": "EG003", "numEvents": 13, "numAffected": 13, "numAtRisk": 121}]}, {"term": "Parkinsonism", "organSystem": "Nervous system disorders", "assessmentType": "SYSTEMATIC_ASSESSMENT", "stats": [{"groupId": "EG000", "numEvents": 7, "numAffected": 7, "numAtRisk": 125}, {"groupId": "EG001", "numEvents": 8, "numAffected": 8, "numAtRisk": 121}, {"groupId": "EG002", "numEvents": 4, "numAffected": 4, "numAtRisk": 119}, {"groupId": "EG003", "numEvents": 0, "numAffected": 0, "numAtRisk": 121}]}, {"term": "Somnolence", "organSystem": "Nervous system disorders", "assessmentType": "SYSTEMATIC_ASSESSMENT", "stats": [{"groupId": "EG000", "numEvents": 5, "numAffected": 5, "numAtRisk": 125}, {"groupId": "EG001", "numEvents": 8, "numAffected": 8, "numAtRisk": 121}, {"groupId": "EG002", "numEvents": 16, "numAffected": 16, "numAtRisk": 119}, {"groupId": "EG003", "numEvents": 1, "numAffected": 1, "numAtRisk": 121}]}, {"term": "Agitation", "organSystem": "Psychiatric disorders", "assessmentType": "SYSTEMATIC_ASSESSMENT", "stats": [{"groupId": "EG000", "numEvents": 4, "numAffected": 4, "numAtRisk": 125}, {"groupId": "EG001", "numEvents": 6, "numAffected": 6, "numAtRisk": 121}, {"groupId": "EG002", "numEvents": 3, "numAffected": 3, "numAtRisk": 119}, {"groupId": "EG003", "numEvents": 10, "numAffected": 10, "numAtRisk": 121}]}, {"term": "Anxiety", "organSystem": "Psychiatric disorders", "assessmentType": "SYSTEMATIC_ASSESSMENT", "stats": [{"groupId": "EG000", "numEvents": 9, "numAffected": 9, "numAtRisk": 125}, {"groupId": "EG001", "numEvents": 4, "numAffected": 4, "numAtRisk": 121}, {"groupId": "EG002", "numEvents": 1, "numAffected": 1, "numAtRisk": 119}, {"groupId": "EG003", "numEvents": 10, "numAffected": 10, "numAtRisk": 121}]}, {"term": "Insomnia", "organSystem": "Psychiatric disorders", "assessmentType": "SYSTEMATIC_ASSESSMENT", "stats": [{"groupId": "EG000", "numEvents": 14, "numAffected": 14, "numAtRisk": 125}, {"groupId": "EG001", "numEvents": 8, "numAffected": 8, "numAtRisk": 121}, {"groupId": "EG002", "numEvents": 5, "numAffected": 5, "numAtRisk": 119}, {"groupId": "EG003", "numEvents": 11, "numAffected": 11, "numAtRisk": 121}]}]}, "moreInfoModule": {"certainAgreement": {"piSponsorEmployee": false, "restrictiveAgreement": false}, "pointOfContact": {"title": "Josephine Cucchiaro, PhD, Executive Director", "organization": "Sunovion", "email": "josephine.cucchiaro@sunovion.com", "phone": "201-592-2050"}}}, "derivedSection": {"miscInfoModule": {"versionHolder": "2024-06-26", "removedCountries": ["Colombia"]}, "conditionBrowseModule": {"meshes": [{"id": "D000012559", "term": "Schizophrenia"}], "ancestors": [{"id": "D000019967", "term": "Schizophrenia Spectrum and Other Psychotic Disorders"}, {"id": "D000001523", "term": "Mental Disorders"}], "browseLeaves": [{"id": "M4815", "name": "Mental Disorders", "relevance": "LOW"}, {"id": "M15376", "name": "Schizophrenia", "asFound": "Schizophrenia", "relevance": "HIGH"}, {"id": "M14473", "name": "Psychotic Disorders", "relevance": "LOW"}, {"id": "M21838", "name": "Schizophrenia Spectrum and Other Psychotic Disorders", "relevance": "LOW"}, {"id": "T170", "name": "Acute Graft Versus Host Disease", "relevance": "LOW"}], "browseBranches": [{"abbrev": "BXM", "name": "Behaviors and Mental Disorders"}, {"abbrev": "All", "name": "All Conditions"}, {"abbrev": "Rare", "name": "Rare Diseases"}]}, "interventionBrowseModule": {"meshes": [{"id": "D000069348", "term": "Quetiapine Fumarate"}, {"id": "D000069056", "term": "Lurasidone Hydrochloride"}], "ancestors": [{"id": "D000000928", "term": "Antidepressive Agents"}, {"id": "D000011619", "term": "Psychotropic Drugs"}, {"id": "D000014150", "term": "Antipsychotic Agents"}, {"id": "D000014149", "term": "Tranquilizing Agents"}, {"id": "D000002492", "term": "Central Nervous System Depressants"}, {"id": "D000045505", "term": "Physiological Effects of Drugs"}, {"id": "D000058669", "term": "Adrenergic alpha-2 Receptor Antagonists"}, {"id": "D000000317", "term": "Adrenergic alpha-Antagonists"}, {"id": "D000018674", "term": "Adrenergic Antagonists"}, {"id": "D000018663", "term": "Adrenergic Agents"}, {"id": "D000018377", "term": "Neurotransmitter Agents"}, {"id": "D000045504", "term": "Molecular Mechanisms of Pharmacological Action"}, {"id": "D000058830", "term": "Serotonin 5-HT2 Receptor Antagonists"}, {"id": "D000012702", "term": "Serotonin Antagonists"}, {"id": "D000018490", "term": "Serotonin Agents"}, {"id": "D000065127", "term": "Dopamine D2 Receptor Antagonists"}, {"id": "D000018492", "term": "Dopamine Antagonists"}, {"id": "D000015259", "term": "Dopamine Agents"}], "browseLeaves": [{"id": "M348", "name": "Lurasidone Hydrochloride", "asFound": "Proton Pump", "relevance": "HIGH"}, {"id": "M399", "name": "Quetiapine Fumarate", "asFound": "Sexual", "relevance": "HIGH"}, {"id": "M4247", "name": "Antidepressive Agents", "relevance": "LOW"}, {"id": "M14474", "name": "Psychotropic Drugs", "relevance": "LOW"}, {"id": "M16904", "name": "Antipsychotic Agents", "relevance": "LOW"}, {"id": "M20746", "name": "Adrenergic Agents", "relevance": "LOW"}, {"id": "M29195", "name": "Adrenergic alpha-2 Receptor Antagonists", "relevance": "LOW"}, {"id": "M3669", "name": "Adrenergic alpha-Antagonists", "relevance": "LOW"}, {"id": "M20755", "name": "Adrenergic Antagonists", "relevance": "LOW"}, {"id": "M20504", "name": "Neurotransmitter Agents", "relevance": "LOW"}, {"id": "M15512", "name": "Serotonin", "relevance": "LOW"}, {"id": "M7473", "name": "Dopamine", "relevance": "LOW"}, {"id": "M20596", "name": "Dopamine Antagonists", "relevance": "LOW"}, {"id": "M17962", "name": "Dopamine Agents", "relevance": "LOW"}], "browseBranches": [{"abbrev": "CNSDep", "name": "Central Nervous System Depressants"}, {"abbrev": "PsychDr", "name": "Psychotropic Drugs"}, {"abbrev": "All", "name": "All Drugs and Chemicals"}, {"abbrev": "CaAg", "name": "Cardiotonic Agents"}]}}, "hasResults": true}