{"protocolSection": {"identificationModule": {"nctId": "NCT00553267", "orgStudyIdInfo": {"id": "1235.6"}, "secondaryIdInfos": [{"id": "EUDRACT 2007-002421-68"}], "organization": {"fullName": "Boehringer Ingelheim", "class": "INDUSTRY"}, "briefTitle": "Telmisartan/Amlodipine (80/10) vs. Telmisartan/Amlodipine (40/10) vs. amlodipine10 in Resistant Hypertension", "officialTitle": "An Eight-week Randomised, Double-blind Study to Compare the Fixed-dose Combination of Telmisartan 40mg + Amlodipine 10mg Versus Telmisartan 80mg + Amlodipine 10mg Versus Amlodipine 10mg Monotherapy in Patients With Hypertension Who Fail to Respond Adequately to Treatment With Amlodipine 10mg Monotherapy"}, "statusModule": {"statusVerifiedDate": "2013-12", "overallStatus": "COMPLETED", "expandedAccessInfo": {"hasExpandedAccess": false}, "startDateStruct": {"date": "2007-11"}, "primaryCompletionDateStruct": {"date": "2008-10", "type": "ACTUAL"}, "studyFirstSubmitDate": "2007-10-08", "studyFirstSubmitQcDate": "2007-11-02", "studyFirstPostDateStruct": {"date": "2007-11-04", "type": "ESTIMATED"}, "resultsFirstSubmitDate": "2009-11-18", "resultsFirstSubmitQcDate": "2009-11-18", "resultsFirstPostDateStruct": {"date": "2009-12-22", "type": "ESTIMATED"}, "lastUpdateSubmitDate": "2013-12-16", "lastUpdatePostDateStruct": {"date": "2014-02-13", "type": "ESTIMATED"}}, "sponsorCollaboratorsModule": {"responsibleParty": {"oldNameTitle": "Boehringer Ingelheim, Study Chair", "oldOrganization": "Boehringer Ingelheim"}, "leadSponsor": {"name": "Boehringer Ingelheim", "class": "INDUSTRY"}}, "descriptionModule": {"briefSummary": "The primary objective of this trial is to demonstrate that the fixed dose combination of telmisartan 40mg + amlodipine 10mg (T40/A10) or the fixed dose combination of telmisartan 80mg + amlodipine 10mg (T80/A10) is superior in reducing blood pressure at eight weeks compared with amlodipine 10mg monotherapy (A10) in patients who fail to respond to six weeks treatment with A10."}, "conditionsModule": {"conditions": ["Hypertension"]}, "designModule": {"studyType": "INTERVENTIONAL", "phases": ["PHASE3"], "designInfo": {"interventionModel": "PARALLEL", "primaryPurpose": "TREATMENT"}, "enrollmentInfo": {"count": 947, "type": "ACTUAL"}}, "armsInterventionsModule": {"interventions": [{"type": "DRUG", "name": "fixed dose combination of telmisartan+amlodipine"}, {"type": "DRUG", "name": "amlodipine"}]}, "outcomesModule": {"primaryOutcomes": [{"measure": "Change From Baseline in Trough Seated Diastolic Blood Pressure", "description": "Change from baseline to the end of study in trough DBP", "timeFrame": "Baseline and end of study (8 weeks or last value on treatment)"}], "secondaryOutcomes": [{"measure": "Change From Baseline in Trough Seated Systolic Blood Pressure", "description": "Change from baseline to the end of study in trough SBP", "timeFrame": "Baseline and end of study (8 weeks or last value on treatment)"}, {"measure": "Trough Seated Diastolic Blood Pressure Control (Defined as < 90mmHg)", "description": "The number of patients who reach the target DBP of \\<90mmHg", "timeFrame": "End of study (8 weeks or last value on treatment)"}, {"measure": "Trough Seated Diastolic Blood Pressure <80 mmHg", "description": "The number of patients who reach the target DBP of \\<80mmHg", "timeFrame": "End of study (8 weeks or last value on treatment)"}, {"measure": "Trough Seated DBP Response", "description": "The number of patients who reach the target DBP of \\<90mmHg or had a reduction in DBP \\>= 10mmHg", "timeFrame": "End of study (8 weeks or last value on treatment)"}, {"measure": "Trough Seated SBP Control", "description": "The number of patients who reach the target SBP of \\<140mmHg", "timeFrame": "End of study (8 weeks or last value on treatment)"}, {"measure": "Trough Seated SBP Response", "description": "The number of patients who reach the target SBP of \\<140mmHg or had a reduction in SBP \\>= 15 mmHg", "timeFrame": "End of study (8 weeks or last value on treatment)"}, {"measure": "Trough Seated BP Normality Classes", "description": "The number of patients who reach predefined BP categories", "timeFrame": "End of study (8 weeks or last value on treatment)"}, {"measure": "Oedema Incidence Rate", "description": "The number of patients who experienced at least one case of oedema or worsening of oedema for the first time (expressed as number of patients/100 patient-years)", "timeFrame": "During randomised treatment period"}, {"measure": "Peripheral Oedema Incidence Rate", "description": "The number of cases of peripheral oedema (expressed as number of cases/100 patient-years)", "timeFrame": "During randomised treatment period"}]}, "eligibilityModule": {"eligibilityCriteria": "Inclusion Criteria:\n\n* diagnosis of essential hypertension and blood pressure not adequately controlled before informed consent (inadequate control defined as seated diastolic blood pressure (DBP) \\>= 95 mmHg if on existing antihypertensive treatment or seated DBP \\>= 100 mmHg if treatment-na\u00efve).\n* failure to respond to six weeks treatment with amlodipine 10mg. (Failure to respond defined as seated DBP \\>= 90 mmHg.)\n* able to stop any current antihypertensive therapy without unacceptable risk to the patient.\n* willing and able to provide written informed consent.\n\nExclusion Criteria:\n\n* pregnancy, breast-feeding, unwilling to use effective contraception (if female of child-bearing potential).\n* known or suspected secondary hypertension.\n* mean seated systolic blood pressure (SBP) \\>=200 mmHg and/or mean seated DBP \\>= 120 mmHg during run-in treatment or mean seated SBP \\>= 180 mmHg and/or mean seated DBP \\>= 120 mmHg at the randomisation visit or at any time during randomised treatment.\n* any clinically significant hepatic impairment or severe renal impairment bilateral renal artery stenosis or renal artery stenosis in a solitary kidney or post post-renal transplant.\n* clinically relevant hyperkalaemia.\n* uncorrected volume or sodium depletion.\n* primary aldosteronism.\n* hereditary fructose or lactose intolerance.\n* symptomatic congestive heart failure.\n* patients who have previously experienced symptoms characteristic of angioedema during treatment with ACE inhibitors or ARBs.\n* history of drug or alcohol dependency within the six months prior to signing consent.\n* concurrent participation in another clinical trial or any investigational therapy within thirty days prior to signing consent.\n* hypertrophic obstructive cardiomyopathy, hemodynamically relevant stenosis of the aortic or mitral valve.\n* known allergic hypersensitivity to any component of the formulations under investigation. (Includes known hypersensitivity to telmisartan or other ARBs or amlodipine or other dihydropyridine CCBs.)\n* non-compliance with study medication (defined as less than 80% or more than 120%) during the open-label run-in treatment period.\n* current treatment with any antihypertensive agents, whether or not prescribed for this indication, that cannot be safely stopped (investigator\u00bfs decision) by the start of the run-in period.\n* chronic administration of any medication known to affect blood pressure, other than the trial medication.\n* any other clinical condition which, in the opinion of the investigator, would not allow safe completion of the protocol and safe administration of telmisartan and amlodipine.", "healthyVolunteers": false, "sex": "ALL", "minimumAge": "18 Years", "stdAges": ["ADULT", "OLDER_ADULT"]}, "contactsLocationsModule": {"overallOfficials": [{"name": "Boehringer Ingelheim", "affiliation": "Boehringer Ingelheim", "role": "STUDY_CHAIR"}], "locations": [{"facility": "1235.6.61003 Boehringer Ingelheim Investigational Site", "city": "Gosford", "state": "New South Wales", "country": "Australia", "geoPoint": {"lat": -33.4244, "lon": 151.34399}}, {"facility": "1235.6.61004 Boehringer Ingelheim Investigational Site", "city": "Liverpool", "state": "New South Wales", "country": "Australia", "geoPoint": {"lat": -33.90011, "lon": 150.93328}}, {"facility": "1235.6.61002 Boehringer Ingelheim Investigational Site", "city": "Kippa-Ring", "state": "Queensland", "country": "Australia", "geoPoint": {"lat": -27.22586, "lon": 153.0835}}, {"facility": "1235.6.61001 Boehringer Ingelheim Investigational Site", "city": "Milton", "state": "Queensland", "country": "Australia", "geoPoint": {"lat": -35.31644, "lon": 150.4361}}, {"facility": "1235.6.61005 Boehringer Ingelheim Investigational Site", "city": "Elizabeth Vale", "state": "South Australia", "country": "Australia", "geoPoint": {"lat": -34.74857, "lon": 138.66819}}, {"facility": "1235.6.43007 Boehringer Ingelheim Investigational Site", "city": "Eggenburg", "country": "Austria", "geoPoint": {"lat": 48.63892, "lon": 15.81903}}, {"facility": "1235.6.43006 Boehringer Ingelheim Investigational Site", "city": "Hainburg a.d. Donau", "country": "Austria"}, {"facility": "1235.6.43005 Boehringer Ingelheim Investigational Site", "city": "Hartberg", "country": "Austria", "geoPoint": {"lat": 47.28333, "lon": 15.96667}}, {"facility": "1235.6.43001 Boehringer Ingelheim Investigational Site", "city": "Wien", "country": "Austria", "geoPoint": {"lat": 48.20849, "lon": 16.37208}}, {"facility": "1235.6.43002 Boehringer Ingelheim Investigational Site", "city": "Wien", "country": "Austria", "geoPoint": {"lat": 48.20849, "lon": 16.37208}}, {"facility": "1235.6.43003 Boehringer Ingelheim Investigational Site", "city": "Wien", "country": "Austria", "geoPoint": {"lat": 48.20849, "lon": 16.37208}}, {"facility": "1235.6.35912 Boehringer Ingelheim Investigational Site", "city": "Bourgas", "country": "Bulgaria", "geoPoint": {"lat": 42.50606, "lon": 27.46781}}, {"facility": "1235.6.35902 Boehringer Ingelheim Investigational Site", "city": "Sofia", "country": "Bulgaria", "geoPoint": {"lat": 42.69751, "lon": 23.32415}}, {"facility": "1235.6.35903 Boehringer Ingelheim Investigational Site", "city": "Sofia", "country": "Bulgaria", "geoPoint": {"lat": 42.69751, "lon": 23.32415}}, {"facility": "1235.6.35904 Boehringer Ingelheim Investigational Site", "city": "Sofia", "country": "Bulgaria", "geoPoint": {"lat": 42.69751, "lon": 23.32415}}, {"facility": "1235.6.35905 Boehringer Ingelheim Investigational Site", "city": "Sofia", "country": "Bulgaria", "geoPoint": {"lat": 42.69751, "lon": 23.32415}}, {"facility": "1235.6.35906 Boehringer Ingelheim Investigational Site", "city": "Sofia", "country": "Bulgaria", "geoPoint": {"lat": 42.69751, "lon": 23.32415}}, {"facility": "1235.6.35907 Boehringer Ingelheim Investigational Site", "city": "Sofia", "country": "Bulgaria", "geoPoint": {"lat": 42.69751, "lon": 23.32415}}, {"facility": "1235.6.35910 Boehringer Ingelheim Investigational Site", "city": "Sofia", "country": "Bulgaria", "geoPoint": {"lat": 42.69751, "lon": 23.32415}}, {"facility": "1235.6.35911 Boehringer Ingelheim Investigational Site", "city": "Sofia", "country": "Bulgaria", "geoPoint": {"lat": 42.69751, "lon": 23.32415}}, {"facility": "1235.6.35901 Boehringer Ingelheim Investigational Site", "city": "Varna", "country": "Bulgaria", "geoPoint": {"lat": 43.21667, "lon": 27.91667}}, {"facility": "1235.6.42002 Boehringer Ingelheim Investigational Site", "city": "Benatky nad Jizerou", "country": "Czech Republic", "geoPoint": {"lat": 50.29085, "lon": 14.82343}}, {"facility": "1235.6.42006 Boehringer Ingelheim Investigational Site", "city": "Brno", "country": "Czech Republic", "geoPoint": {"lat": 49.19522, "lon": 16.60796}}, {"facility": "1235.6.42001 Boehringer Ingelheim Investigational Site", "city": "Plzen", "country": "Czech Republic", "geoPoint": {"lat": 49.74747, "lon": 13.37759}}, {"facility": "1235.6.42003 Boehringer Ingelheim Investigational Site", "city": "Praha 5", "country": "Czech Republic", "geoPoint": {"lat": 50.08804, "lon": 14.42076}}, {"facility": "1235.6.42004 Boehringer Ingelheim Investigational Site", "city": "Pribram", "country": "Czech Republic", "geoPoint": {"lat": 49.68988, "lon": 14.01043}}, {"facility": "1235.6.42005 Boehringer Ingelheim Investigational Site", "city": "Slany", "country": "Czech Republic", "geoPoint": {"lat": 50.23046, "lon": 14.08693}}, {"facility": "1235.6.42007 Boehringer Ingelheim Investigational Site", "city": "Strakonice", "country": "Czech Republic", "geoPoint": {"lat": 49.26141, "lon": 13.90237}}, {"facility": "1235.6.35304 Wilmer Road", "city": "Birr", "country": "Ireland", "geoPoint": {"lat": 53.09139, "lon": -7.91333}}, {"facility": "1235.6.35305 Dr. Ger McLaughlin", "city": "Carrigtwohill", "country": "Ireland", "geoPoint": {"lat": 51.90833, "lon": -8.26333}}, {"facility": "1235.6.35302 Slaney Medical Centre", "city": "Enniscorthy", "country": "Ireland", "geoPoint": {"lat": 52.50083, "lon": -6.55778}}, {"facility": "1235.6.35303 Gorey Medical Centre, Coral House,", "city": "Gorey", "country": "Ireland", "geoPoint": {"lat": 52.67472, "lon": -6.2925}}, {"facility": "1235.6.35306 The Red House Surgery", "city": "Mallow", "country": "Ireland", "geoPoint": {"lat": 52.13333, "lon": -8.63333}}, {"facility": "1235.6.35301 Boehringer Ingelheim Investigational Site", "city": "New Ross", "country": "Ireland", "geoPoint": {"lat": 52.39667, "lon": -6.93667}}, {"facility": "1235.6.39002 Boehringer Ingelheim Investigational Site", "city": "Broni (pv)", "country": "Italy"}, {"facility": "1235.6.39006 Boehringer Ingelheim Investigational Site", "city": "Coppito (AQ)", "country": "Italy"}, {"facility": "1235.6.39001 Boehringer Ingelheim Investigational Site", "city": "Ferrara", "country": "Italy", "geoPoint": {"lat": 44.83804, "lon": 11.62057}}, {"facility": "1235.6.64003 Boehringer Ingelheim Investigational Site", "city": "Dunedin", "country": "New Zealand", "geoPoint": {"lat": -45.87416, "lon": 170.50361}}, {"facility": "1235.6.64002 Boehringer Ingelheim Investigational Site", "city": "Otahuhu, Auckland", "country": "New Zealand"}, {"facility": "1235.6.64001 Boehringer Ingelheim Investigational Site", "city": "Tauranga", "country": "New Zealand", "geoPoint": {"lat": -37.68611, "lon": 176.16667}}, {"facility": "1235.6.70004 Boehringer Ingelheim Investigational Site", "city": "Moscow", "country": "Russian Federation", "geoPoint": {"lat": 55.75222, "lon": 37.61556}}, {"facility": "1235.6.70005 Boehringer Ingelheim Investigational Site", "city": "Moscow", "country": "Russian Federation", "geoPoint": {"lat": 55.75222, "lon": 37.61556}}, {"facility": "1235.6.70006 Boehringer Ingelheim Investigational Site", "city": "Moscow", "country": "Russian Federation", "geoPoint": {"lat": 55.75222, "lon": 37.61556}}, {"facility": "1235.6.70007 Boehringer Ingelheim Investigational Site", "city": "Moscow", "country": "Russian Federation", "geoPoint": {"lat": 55.75222, "lon": 37.61556}}, {"facility": "1235.6.70008 Boehringer Ingelheim Investigational Site", "city": "Moscow", "country": "Russian Federation", "geoPoint": {"lat": 55.75222, "lon": 37.61556}}, {"facility": "1235.6.70009 Boehringer Ingelheim Investigational Site", "city": "Moscow", "country": "Russian Federation", "geoPoint": {"lat": 55.75222, "lon": 37.61556}}, {"facility": "1235.6.70010 Boehringer Ingelheim Investigational Site", "city": "St. Petersburg", "country": "Russian Federation", "geoPoint": {"lat": 59.93863, "lon": 30.31413}}, {"facility": "1235.6.70011 Boehringer Ingelheim Investigational Site", "city": "St. Petersburg", "country": "Russian Federation", "geoPoint": {"lat": 59.93863, "lon": 30.31413}}, {"facility": "1235.6.70012 Boehringer Ingelheim Investigational Site", "city": "St. Petersburg", "country": "Russian Federation", "geoPoint": {"lat": 59.93863, "lon": 30.31413}}, {"facility": "1235.6.42103 Boehringer Ingelheim Investigational Site", "city": "Dolny Kubin", "country": "Slovakia", "geoPoint": {"lat": 49.20983, "lon": 19.30341}}, {"facility": "1235.6.42106 Boehringer Ingelheim Investigational Site", "city": "Kralovsky Chmlec", "country": "Slovakia"}, {"facility": "1235.6.42104 Boehringer Ingelheim Investigational Site", "city": "Liptovsky Mikulas", "country": "Slovakia", "geoPoint": {"lat": 49.08061, "lon": 19.62218}}, {"facility": "1235.6.42102 Boehringer Ingelheim Investigational Site", "city": "Povazska Bystrica", "country": "Slovakia", "geoPoint": {"lat": 49.12153, "lon": 18.42169}}, {"facility": "1235.6.42105 Boehringer Ingelheim Investigational Site", "city": "Presov", "country": "Slovakia", "geoPoint": {"lat": 48.99839, "lon": 21.23393}}, {"facility": "1235.6.42101 Boehringer Ingelheim Investigational Site", "city": "Trencin", "country": "Slovakia", "geoPoint": {"lat": 48.89452, "lon": 18.04436}}, {"facility": "1235.6.42107 Boehringer Ingelheim Investigational Site", "city": "Vrable", "country": "Slovakia", "geoPoint": {"lat": 48.24371, "lon": 18.30846}}, {"facility": "1235.6.34008 Hospital Municipal de Badalona", "city": "Badalona", "country": "Spain", "geoPoint": {"lat": 41.45004, "lon": 2.24741}}, {"facility": "1235.6.34009 Boehringer Ingelheim Investigational Site", "city": "Barcelona", "country": "Spain", "geoPoint": {"lat": 41.38879, "lon": 2.15899}}, {"facility": "1235.6.34001 Hospital Gral de Jerez de la Frontera", "city": "Jerez de la Frontera (C\u00e1diz)", "country": "Spain"}, {"facility": "1235.6.34006 C.A.P. Mossen Cinto Verdaguer", "city": "L'Hospitalet de Llobregat (Barcelona)", "country": "Spain"}, {"facility": "1235.6.34003 Hospital Doce de Octubre", "city": "Madrid", "country": "Spain", "geoPoint": {"lat": 40.4165, "lon": -3.70256}}, {"facility": "1235.6.34004 Hospital La Princesa", "city": "Madrid", "country": "Spain", "geoPoint": {"lat": 40.4165, "lon": -3.70256}}, {"facility": "1235.6.34011 Boehringer Ingelheim Investigational Site", "city": "Santa Coloma de Gramanet", "country": "Spain"}, {"facility": "1235.6.41005 Boehringer Ingelheim Investigational Site", "city": "Gordola", "country": "Switzerland", "geoPoint": {"lat": 46.18256, "lon": 8.86657}}, {"facility": "1235.6.90004 Boehringer Ingelheim Investigational Site", "city": "Erzurum", "country": "Turkey", "geoPoint": {"lat": 39.90861, "lon": 41.27694}}, {"facility": "1235.6.90003 Boehringer Ingelheim Investigational Site", "city": "Istanbul", "country": "Turkey", "geoPoint": {"lat": 41.01384, "lon": 28.94966}}, {"facility": "1235.6.90005 Boehringer Ingelheim Investigational Site", "city": "Istanbul", "country": "Turkey", "geoPoint": {"lat": 41.01384, "lon": 28.94966}}, {"facility": "1235.6.90001 Boehringer Ingelheim Investigational Site", "city": "Izmir", "country": "Turkey", "geoPoint": {"lat": 38.41273, "lon": 27.13838}}, {"facility": "1235.6.38010 Boehringer Ingelheim Investigational Site", "city": "Dnepropetrovsk", "country": "Ukraine", "geoPoint": {"lat": 48.4593, "lon": 35.03864}}, {"facility": "1235.6.38001 Boehringer Ingelheim Investigational Site", "city": "Kharkov", "country": "Ukraine", "geoPoint": {"lat": 49.98081, "lon": 36.25272}}, {"facility": "1235.6.38003 Boehringer Ingelheim Investigational Site", "city": "Kharkov", "country": "Ukraine", "geoPoint": {"lat": 49.98081, "lon": 36.25272}}, {"facility": "1235.6.38008 Boehringer Ingelheim Investigational Site", "city": "Kharkov", "country": "Ukraine", "geoPoint": {"lat": 49.98081, "lon": 36.25272}}, {"facility": "1235.6.38011 Boehringer Ingelheim Investigational Site", "city": "Kharkov", "country": "Ukraine", "geoPoint": {"lat": 49.98081, "lon": 36.25272}}, {"facility": "1235.6.38004 Boehringer Ingelheim Investigational Site", "city": "Kiev", "country": "Ukraine", "geoPoint": {"lat": 50.45466, "lon": 30.5238}}, {"facility": "1235.6.38006 Boehringer Ingelheim Investigational Site", "city": "Kiev", "country": "Ukraine", "geoPoint": {"lat": 50.45466, "lon": 30.5238}}, {"facility": "1235.6.38012 Boehringer Ingelheim Investigational Site", "city": "Kiev", "country": "Ukraine", "geoPoint": {"lat": 50.45466, "lon": 30.5238}}, {"facility": "1235.6.38013 Boehringer Ingelheim Investigational Site", "city": "Kiev", "country": "Ukraine", "geoPoint": {"lat": 50.45466, "lon": 30.5238}}, {"facility": "1235.6.38002 Boehringer Ingelheim Investigational Site", "city": "Lvov", "country": "Ukraine", "geoPoint": {"lat": 47.89219, "lon": 31.09319}}, {"facility": "1235.6.38005 Boehringer Ingelheim Investigational Site", "city": "Odessa", "country": "Ukraine", "geoPoint": {"lat": 46.47747, "lon": 30.73262}}, {"facility": "1235.6.38009 Boehringer Ingelheim Investigational Site", "city": "Odessa", "country": "Ukraine", "geoPoint": {"lat": 46.47747, "lon": 30.73262}}, {"facility": "1235.6.38007 Boehringer Ingelheim Investigational Site", "city": "Zaporozhye", "country": "Ukraine", "geoPoint": {"lat": 47.82289, "lon": 35.19031}}, {"facility": "1235.6.44010 Boehringer Ingelheim Investigational Site", "city": "Bexhill", "country": "United Kingdom", "geoPoint": {"lat": 50.85023, "lon": 0.47095}}, {"facility": "1235.6.44008 Boehringer Ingelheim Investigational Site", "city": "Blackpool", "country": "United Kingdom", "geoPoint": {"lat": 53.81667, "lon": -3.05}}, {"facility": "1235.6.44016 Boehringer Ingelheim Investigational Site", "city": "Blackpool", "country": "United Kingdom", "geoPoint": {"lat": 53.81667, "lon": -3.05}}, {"facility": "1235.6.44011 Boehringer Ingelheim Investigational Site", "city": "Burbage, Hinkley", "country": "United Kingdom"}, {"facility": "1235.6.44007 Boehringer Ingelheim Investigational Site", "city": "Chestfield, Whitstable", "country": "United Kingdom"}, {"facility": "1235.6.44005 Boehringer Ingelheim Investigational Site", "city": "Chorley", "country": "United Kingdom", "geoPoint": {"lat": 53.65, "lon": -2.61667}}, {"facility": "1235.6.44002 Boehringer Ingelheim Investigational Site", "city": "Edgbaston, Birmingham", "country": "United Kingdom"}, {"facility": "1235.6.44009 Boehringer Ingelheim Investigational Site", "city": "Ely", "country": "United Kingdom", "geoPoint": {"lat": 52.39964, "lon": 0.26196}}, {"facility": "1235.6.44001 Boehringer Ingelheim Investigational Site", "city": "Fowey", "country": "United Kingdom", "geoPoint": {"lat": 50.33634, "lon": -4.6386}}, {"facility": "1235.6.44003 Boehringer Ingelheim Investigational Site", "city": "Glasgow", "country": "United Kingdom", "geoPoint": {"lat": 55.86515, "lon": -4.25763}}, {"facility": "1235.6.44012 Boehringer Ingelheim Investigational Site", "city": "Penzance", "country": "United Kingdom", "geoPoint": {"lat": 50.11861, "lon": -5.53715}}, {"facility": "1235.6.44013 Boehringer Ingelheim Investigational Site", "city": "Plymouth", "country": "United Kingdom", "geoPoint": {"lat": 50.37153, "lon": -4.14305}}, {"facility": "1235.6.44004 Boehringer Ingelheim Investigational Site", "city": "Reading", "country": "United Kingdom", "geoPoint": {"lat": 51.45625, "lon": -0.97113}}, {"facility": "1235.6.44014 Boehringer Ingelheim Investigational Site", "city": "Saltash", "country": "United Kingdom", "geoPoint": {"lat": 50.40959, "lon": -4.22514}}, {"facility": "1235.6.44015 Boehringer Ingelheim Investigational Site", "city": "St Stephen, St Austell", "country": "United Kingdom"}, {"facility": "1235.6.44006 Boehringer Ingelheim Investigational Site", "city": "Whitstable", "country": "United Kingdom", "geoPoint": {"lat": 51.3607, "lon": 1.0257}}]}}, "resultsSection": {"participantFlowModule": {"groups": [{"id": "FG000", "title": "Amlodipine 10mg"}, {"id": "FG001", "title": "Telmisartan 40mg and Amlodipine 10mg"}, {"id": "FG002", "title": "Telmisartan 80mg and Amlodipine 10mg"}], "periods": [{"title": "Overall Study", "milestones": [{"type": "STARTED", "achievements": [{"groupId": "FG000", "numSubjects": "315"}, {"groupId": "FG001", "numSubjects": "315"}, {"groupId": "FG002", "numSubjects": "317"}]}, {"type": "COMPLETED", "achievements": [{"groupId": "FG000", "numSubjects": "301"}, {"groupId": "FG001", "numSubjects": "297"}, {"groupId": "FG002", "numSubjects": "307"}]}, {"type": "NOT COMPLETED", "achievements": [{"groupId": "FG000", "numSubjects": "14"}, {"groupId": "FG001", "numSubjects": "18"}, {"groupId": "FG002", "numSubjects": "10"}]}], "dropWithdraws": [{"type": "Adverse Event", "reasons": [{"groupId": "FG000", "numSubjects": "8"}, {"groupId": "FG001", "numSubjects": "10"}, {"groupId": "FG002", "numSubjects": "5"}]}, {"type": "Non compliant with protocol", "reasons": [{"groupId": "FG000", "numSubjects": "3"}, {"groupId": "FG001", "numSubjects": "3"}, {"groupId": "FG002", "numSubjects": "2"}]}, {"type": "Lost to Follow-up", "reasons": [{"groupId": "FG000", "numSubjects": "0"}, {"groupId": "FG001", "numSubjects": "0"}, {"groupId": "FG002", "numSubjects": "1"}]}, {"type": "Consent withdrawn", "reasons": [{"groupId": "FG000", "numSubjects": "2"}, {"groupId": "FG001", "numSubjects": "3"}, {"groupId": "FG002", "numSubjects": "1"}]}, {"type": "Specified category", "reasons": [{"groupId": "FG000", "numSubjects": "1"}, {"groupId": "FG001", "numSubjects": "2"}, {"groupId": "FG002", "numSubjects": "1"}]}]}]}, "baselineCharacteristicsModule": {"groups": [{"id": "BG000", "title": "Amlodipine 10mg"}, {"id": "BG001", "title": "Telmisartan 40mg and Amlodipine 10mg"}, {"id": "BG002", "title": "Telmisartan 80mg and Amlodipine 10mg"}, {"id": "BG003", "title": "Total", "description": "Total of all reporting groups"}], "denoms": [{"units": "Participants", "counts": [{"groupId": "BG000", "value": "315"}, {"groupId": "BG001", "value": "315"}, {"groupId": "BG002", "value": "317"}, {"groupId": "BG003", "value": "947"}]}], "measures": [{"title": "Age, Continuous", "paramType": "MEAN", "dispersionType": "STANDARD_DEVIATION", "unitOfMeasure": "Years", "classes": [{"categories": [{"measurements": [{"groupId": "BG000", "value": "56.4", "spread": "10.4"}, {"groupId": "BG001", "value": "57.6", "spread": "9.4"}, {"groupId": "BG002", "value": "55.5", "spread": "9.8"}, {"groupId": "BG003", "value": "56.5", "spread": "9.9"}]}]}]}, {"title": "Sex: Female, Male", "paramType": "COUNT_OF_PARTICIPANTS", "unitOfMeasure": "Participants", "classes": [{"categories": [{"title": "Female", "measurements": [{"groupId": "BG000", "value": "128"}, {"groupId": "BG001", "value": "145"}, {"groupId": "BG002", "value": "146"}, {"groupId": "BG003", "value": "419"}]}, {"title": "Male", "measurements": [{"groupId": "BG000", "value": "187"}, {"groupId": "BG001", "value": "170"}, {"groupId": "BG002", "value": "171"}, {"groupId": "BG003", "value": "528"}]}]}]}]}, "outcomeMeasuresModule": {"outcomeMeasures": [{"type": "PRIMARY", "title": "Change From Baseline in Trough Seated Diastolic Blood Pressure", "description": "Change from baseline to the end of study in trough DBP", "populationDescription": "Full analysis set of patients who had a baseline trough blood pressure measurement and at least one post baseline trough blood pressure measurement using last observation carried forward", "reportingStatus": "POSTED", "paramType": "LEAST_SQUARES_MEAN", "dispersionType": "Standard Error", "unitOfMeasure": "mmHg", "timeFrame": "Baseline and end of study (8 weeks or last value on treatment)", "groups": [{"id": "OG000", "title": "Amlodipine 10mg"}, {"id": "OG001", "title": "Telmisartan 40mg and Amlodipine 10mg"}, {"id": "OG002", "title": "Telmisartan 80mg and Amlodipine 10mg"}], "denoms": [{"units": "Participants", "counts": [{"groupId": "OG000", "value": "305"}, {"groupId": "OG001", "value": "306"}, {"groupId": "OG002", "value": "310"}]}], "classes": [{"categories": [{"measurements": [{"groupId": "OG000", "value": "-6.48", "spread": "0.45"}, {"groupId": "OG001", "value": "-9.24", "spread": "0.45"}, {"groupId": "OG002", "value": "-9.33", "spread": "0.45"}]}]}], "analyses": [{"groupIds": ["OG000", "OG001"], "groupDescription": "Testing that the combination treatments are superior to monotherapy A10.\n\nThe number of patients in the treatment arms ensure the tests have over 90% power.", "testedNonInferiority": false, "nonInferiorityType": "SUPERIORITY_OR_OTHER", "pValue": "<0.0001", "pValueComment": "Doses tested against A10 in a hierarchical manner to address issues of multiplicity. T80/A10 was tested first, then T40/A10.", "statisticalMethod": "ANCOVA", "statisticalComment": "Adjusted for baseline and country effect", "paramType": "Least Squares Mean Difference", "paramValue": "-2.76", "ciPctValue": "95", "ciLowerLimit": "-3.77", "ciUpperLimit": "-1.75", "dispersionType": "STANDARD_ERROR_OF_MEAN", "dispersionValue": "0.52"}, {"groupIds": ["OG000", "OG002"], "groupDescription": "Testing that the combination treatments are superior to monotherapy A10.\n\nThe number of patients in the treatment arms ensure the tests have over 90% power.", "testedNonInferiority": false, "nonInferiorityType": "SUPERIORITY_OR_OTHER", "pValue": "<0.0001", "pValueComment": "Doses tested against A10 in a hierarchical manner to address issues of multiplicity. T80/A10 was tested first, then T40/A10.", "statisticalMethod": "ANCOVA", "statisticalComment": "Adjusted for baseline and country effect", "paramType": "Least Squares Mean Difference", "paramValue": "-2.85", "ciPctValue": "95", "ciLowerLimit": "-3.86", "ciUpperLimit": "-1.84", "dispersionType": "STANDARD_ERROR_OF_MEAN", "dispersionValue": "0.51"}]}, {"type": "SECONDARY", "title": "Change From Baseline in Trough Seated Systolic Blood Pressure", "description": "Change from baseline to the end of study in trough SBP", "populationDescription": "Full analysis set of patients who had a baseline trough blood pressure measurement and at least one post baseline trough blood pressure measurement using last observation carried forward", "reportingStatus": "POSTED", "paramType": "LEAST_SQUARES_MEAN", "dispersionType": "Standard Error", "unitOfMeasure": "mmHg", "timeFrame": "Baseline and end of study (8 weeks or last value on treatment)", "groups": [{"id": "OG000", "title": "Amlodipine 10mg"}, {"id": "OG001", "title": "Telmisartan 40mg and Amlodipine 10mg"}, {"id": "OG002", "title": "Telmisartan 80mg and Amlodipine 10mg"}], "denoms": [{"units": "Participants", "counts": [{"groupId": "OG000", "value": "305"}, {"groupId": "OG001", "value": "306"}, {"groupId": "OG002", "value": "310"}]}], "classes": [{"categories": [{"measurements": [{"groupId": "OG000", "value": "-7.44", "spread": "0.66"}, {"groupId": "OG001", "value": "-11.09", "spread": "0.66"}, {"groupId": "OG002", "value": "-11.29", "spread": "0.66"}]}]}], "analyses": [{"groupIds": ["OG000", "OG001"], "testedNonInferiority": false, "nonInferiorityType": "SUPERIORITY_OR_OTHER", "pValue": "<0.0001", "statisticalMethod": "ANCOVA", "statisticalComment": "Adjusted for baseline and country effect", "paramType": "Least Squares Mean Difference", "paramValue": "-3.66", "ciPctValue": "95", "ciLowerLimit": "-5.15", "ciUpperLimit": "-2.16", "dispersionType": "STANDARD_ERROR_OF_MEAN", "dispersionValue": "0.76"}, {"groupIds": ["OG000", "OG002"], "testedNonInferiority": false, "nonInferiorityType": "SUPERIORITY_OR_OTHER", "pValue": "<0.0001", "statisticalMethod": "ANCOVA", "statisticalComment": "Adjusted for baseline and country effect", "paramType": "Least Squares Mean Difference", "paramValue": "-3.85", "ciPctValue": "95", "ciLowerLimit": "-5.35", "ciUpperLimit": "-2.36", "dispersionType": "STANDARD_ERROR_OF_MEAN", "dispersionValue": "0.76"}]}, {"type": "SECONDARY", "title": "Trough Seated Diastolic Blood Pressure Control (Defined as < 90mmHg)", "description": "The number of patients who reach the target DBP of \\<90mmHg", "populationDescription": "Full analysis set of patients who had a baseline trough blood pressure measurement and at least one post baseline trough blood pressure measurement using last observation carried forward", "reportingStatus": "POSTED", "paramType": "NUMBER", "unitOfMeasure": "Participants", "timeFrame": "End of study (8 weeks or last value on treatment)", "groups": [{"id": "OG000", "title": "Amlodipine 10mg"}, {"id": "OG001", "title": "Telmisartan 40mg and Amlodipine 10mg"}, {"id": "OG002", "title": "Telmisartan 80mg and Amlodipine 10mg"}], "denoms": [{"units": "Participants", "counts": [{"groupId": "OG000", "value": "305"}, {"groupId": "OG001", "value": "306"}, {"groupId": "OG002", "value": "310"}]}], "classes": [{"title": "Yes (DBP<90 mmHg)", "categories": [{"measurements": [{"groupId": "OG000", "value": "156"}, {"groupId": "OG001", "value": "195"}, {"groupId": "OG002", "value": "206"}]}]}, {"title": "No (DBP>=90 mmHg)", "categories": [{"measurements": [{"groupId": "OG000", "value": "149"}, {"groupId": "OG001", "value": "111"}, {"groupId": "OG002", "value": "104"}]}]}], "analyses": [{"groupIds": ["OG000", "OG001"], "testedNonInferiority": false, "nonInferiorityType": "SUPERIORITY_OR_OTHER", "pValue": "0.002", "statisticalMethod": "Mantel Haenszel", "statisticalComment": "Mantel-Haenszel statistics adjusted for country effect", "paramType": "Odds Ratio (OR)", "paramValue": "1.67", "ciPctValue": "95", "ciNumSides": "TWO_SIDED", "ciLowerLimit": "1.21", "ciUpperLimit": "2.32"}, {"groupIds": ["OG000", "OG002"], "testedNonInferiority": false, "nonInferiorityType": "SUPERIORITY_OR_OTHER", "pValue": "<0.001", "statisticalMethod": "Mantel Haenszel", "statisticalComment": "Mantel-Haenszel statistics adjusted for country effect", "paramType": "Odds Ratio (OR)", "paramValue": "1.91", "ciPctValue": "95", "ciLowerLimit": "1.37", "ciUpperLimit": "2.65"}]}, {"type": "SECONDARY", "title": "Trough Seated Diastolic Blood Pressure <80 mmHg", "description": "The number of patients who reach the target DBP of \\<80mmHg", "populationDescription": "Full analysis set of patients who had a baseline trough blood pressure measurement and at least one post baseline trough blood pressure measurement using last observation carried forward", "reportingStatus": "POSTED", "paramType": "NUMBER", "unitOfMeasure": "Participants", "timeFrame": "End of study (8 weeks or last value on treatment)", "groups": [{"id": "OG000", "title": "Amlodipine 10mg"}, {"id": "OG001", "title": "Telmisartan 40mg and Amlodipine 10mg"}, {"id": "OG002", "title": "Telmisartan 80mg and Amlodipine 10mg"}], "denoms": [{"units": "Participants", "counts": [{"groupId": "OG000", "value": "305"}, {"groupId": "OG001", "value": "306"}, {"groupId": "OG002", "value": "310"}]}], "classes": [{"title": "Yes (DBP<80 mmHg)", "categories": [{"measurements": [{"groupId": "OG000", "value": "18"}, {"groupId": "OG001", "value": "39"}, {"groupId": "OG002", "value": "39"}]}]}, {"title": "No (DBP>=80 mmHg)", "categories": [{"measurements": [{"groupId": "OG000", "value": "287"}, {"groupId": "OG001", "value": "267"}, {"groupId": "OG002", "value": "271"}]}]}], "analyses": [{"groupIds": ["OG000", "OG001"], "testedNonInferiority": false, "nonInferiorityType": "SUPERIORITY_OR_OTHER", "pValue": "0.004", "statisticalMethod": "Mantel Haenszel", "statisticalComment": "Mantel-Haenszel statistics adjusted for country effect", "paramType": "Odds Ratio (OR)", "paramValue": "2.35", "ciPctValue": "95", "ciLowerLimit": "1.30", "ciUpperLimit": "4.25"}, {"groupIds": ["OG000", "OG002"], "testedNonInferiority": false, "nonInferiorityType": "SUPERIORITY_OR_OTHER", "pValue": "0.004", "statisticalMethod": "Mantel Haenszel", "statisticalComment": "Mantel-Haenszel statistics adjusted for country effect", "paramType": "Odds Ratio (OR)", "paramValue": "2.33", "ciPctValue": "95", "ciLowerLimit": "1.29", "ciUpperLimit": "4.22"}]}, {"type": "SECONDARY", "title": "Trough Seated DBP Response", "description": "The number of patients who reach the target DBP of \\<90mmHg or had a reduction in DBP \\>= 10mmHg", "populationDescription": "Full analysis set of patients who had a baseline trough blood pressure measurement and at least one post baseline trough blood pressure measurement using last observation carried forward", "reportingStatus": "POSTED", "paramType": "NUMBER", "unitOfMeasure": "Participants", "timeFrame": "End of study (8 weeks or last value on treatment)", "groups": [{"id": "OG000", "title": "Amlodipine 10mg"}, {"id": "OG001", "title": "Telmisartan 40mg and Amlodipine 10mg"}, {"id": "OG002", "title": "Telmisartan 80mg and Amlodipine 10mg"}], "denoms": [{"units": "Participants", "counts": [{"groupId": "OG000", "value": "305"}, {"groupId": "OG001", "value": "306"}, {"groupId": "OG002", "value": "310"}]}], "classes": [{"title": "Yes (Responder)", "categories": [{"measurements": [{"groupId": "OG000", "value": "163"}, {"groupId": "OG001", "value": "202"}, {"groupId": "OG002", "value": "213"}]}]}, {"title": "No (Non-responder)", "categories": [{"measurements": [{"groupId": "OG000", "value": "142"}, {"groupId": "OG001", "value": "104"}, {"groupId": "OG002", "value": "97"}]}]}], "analyses": [{"groupIds": ["OG000", "OG001"], "testedNonInferiority": false, "nonInferiorityType": "SUPERIORITY_OR_OTHER", "pValue": "0.002", "statisticalMethod": "Mantel Haenszel", "statisticalComment": "Mantel-Haenszel statistics adjusted for country effect", "paramType": "Odds Ratio (OR)", "paramValue": "1.68", "ciPctValue": "95", "ciLowerLimit": "1.21", "ciUpperLimit": "2.34"}, {"groupIds": ["OG000", "OG002"], "testedNonInferiority": false, "nonInferiorityType": "SUPERIORITY_OR_OTHER", "pValue": "<0.001", "statisticalMethod": "Mantel Haenszel", "statisticalComment": "Mantel-Haenszel statistics adjusted for country effect", "paramType": "Odds Ratio (OR)", "paramValue": "1.92", "ciPctValue": "95", "ciLowerLimit": "1.38", "ciUpperLimit": "2.68"}]}, {"type": "SECONDARY", "title": "Trough Seated SBP Control", "description": "The number of patients who reach the target SBP of \\<140mmHg", "populationDescription": "Full analysis set of patients who had a baseline trough blood pressure measurement and at least one post baseline trough blood pressure measurement using last observation carried forward", "reportingStatus": "POSTED", "paramType": "NUMBER", "unitOfMeasure": "Participants", "timeFrame": "End of study (8 weeks or last value on treatment)", "groups": [{"id": "OG000", "title": "Amlodipine 10mg"}, {"id": "OG001", "title": "Telmisartan 40mg and Amlodipine 10mg"}, {"id": "OG002", "title": "Telmisartan 80mg and Amlodipine 10mg"}], "denoms": [{"units": "Participants", "counts": [{"groupId": "OG000", "value": "305"}, {"groupId": "OG001", "value": "306"}, {"groupId": "OG002", "value": "310"}]}], "classes": [{"title": "Yes (SBP<140 mmHg)", "categories": [{"measurements": [{"groupId": "OG000", "value": "153"}, {"groupId": "OG001", "value": "180"}, {"groupId": "OG002", "value": "187"}]}]}, {"title": "No (SBP>=140 mmHg)", "categories": [{"measurements": [{"groupId": "OG000", "value": "152"}, {"groupId": "OG001", "value": "126"}, {"groupId": "OG002", "value": "123"}]}]}], "analyses": [{"groupIds": ["OG000", "OG001"], "testedNonInferiority": false, "nonInferiorityType": "SUPERIORITY_OR_OTHER", "pValue": "0.027", "statisticalMethod": "Mantel Haenszel", "statisticalComment": "Mantel-Haenszel statistics adjusted for country effect", "paramType": "Odds Ratio (OR)", "paramValue": "1.44", "ciPctValue": "95", "ciLowerLimit": "1.04", "ciUpperLimit": "2.00"}, {"groupIds": ["OG000", "OG002"], "testedNonInferiority": false, "nonInferiorityType": "SUPERIORITY_OR_OTHER", "pValue": "0.008", "statisticalMethod": "Mantel Haenszel", "statisticalComment": "Mantel-Haenszel statistics adjusted for country effect", "paramType": "Odds Ratio (OR)", "paramValue": "1.55", "ciPctValue": "95", "ciLowerLimit": "1.12", "ciUpperLimit": "2.15"}]}, {"type": "SECONDARY", "title": "Trough Seated SBP Response", "description": "The number of patients who reach the target SBP of \\<140mmHg or had a reduction in SBP \\>= 15 mmHg", "populationDescription": "Full analysis set of patients who had a baseline trough blood pressure measurement and at least one post baseline trough blood pressure measurement using last observation carried forward", "reportingStatus": "POSTED", "paramType": "NUMBER", "unitOfMeasure": "Participants", "timeFrame": "End of study (8 weeks or last value on treatment)", "groups": [{"id": "OG000", "title": "Amlodipine 10mg"}, {"id": "OG001", "title": "Telmisartan 40mg and Amlodipine 10mg"}, {"id": "OG002", "title": "Telmisartan 80mg and Amlodipine 10mg"}], "denoms": [{"units": "Participants", "counts": [{"groupId": "OG000", "value": "305"}, {"groupId": "OG001", "value": "306"}, {"groupId": "OG002", "value": "310"}]}], "classes": [{"title": "Yes (Responder)", "categories": [{"measurements": [{"groupId": "OG000", "value": "165"}, {"groupId": "OG001", "value": "198"}, {"groupId": "OG002", "value": "204"}]}]}, {"title": "No (Non-responder)", "categories": [{"measurements": [{"groupId": "OG000", "value": "140"}, {"groupId": "OG001", "value": "108"}, {"groupId": "OG002", "value": "106"}]}]}], "analyses": [{"groupIds": ["OG000", "OG001"], "testedNonInferiority": false, "nonInferiorityType": "SUPERIORITY_OR_OTHER", "pValue": "0.006", "statisticalMethod": "Mantel Haenszel", "statisticalComment": "Mantel-Haenszel statistics adjusted for country effect", "paramType": "Odds Ratio (OR)", "paramValue": "1.58", "ciPctValue": "95", "ciLowerLimit": "1.14", "ciUpperLimit": "2.21"}, {"groupIds": ["OG000", "OG002"], "testedNonInferiority": false, "nonInferiorityType": "SUPERIORITY_OR_OTHER", "pValue": "0.002", "statisticalMethod": "Mantel Haenszel", "statisticalComment": "Mantel-Haenszel statistics adjusted for country effect", "paramType": "Odds Ratio (OR)", "paramValue": "1.67", "ciPctValue": "95", "ciLowerLimit": "1.20", "ciUpperLimit": "2.32"}]}, {"type": "SECONDARY", "title": "Trough Seated BP Normality Classes", "description": "The number of patients who reach predefined BP categories", "populationDescription": "Full analysis set of patients who had a baseline trough blood pressure measurement and at least one post baseline trough blood pressure measurement using last observation carried forward", "reportingStatus": "POSTED", "paramType": "NUMBER", "unitOfMeasure": "Participants", "timeFrame": "End of study (8 weeks or last value on treatment)", "groups": [{"id": "OG000", "title": "Amlodipine 10mg"}, {"id": "OG001", "title": "Telmisartan 40mg and Amlodipine 10mg"}, {"id": "OG002", "title": "Telmisartan 80mg and Amlodipine 10mg"}], "denoms": [{"units": "Participants", "counts": [{"groupId": "OG000", "value": "305"}, {"groupId": "OG001", "value": "306"}, {"groupId": "OG002", "value": "310"}]}], "classes": [{"title": "Optimal (SBP<120 and DBP<80 mmHg)", "categories": [{"measurements": [{"groupId": "OG000", "value": "0"}, {"groupId": "OG001", "value": "12"}, {"groupId": "OG002", "value": "6"}]}]}, {"title": "Normal (SBP<130 and DBP<85 mmHg and not optimal)", "categories": [{"measurements": [{"groupId": "OG000", "value": "36"}, {"groupId": "OG001", "value": "43"}, {"groupId": "OG002", "value": "50"}]}]}, {"title": "High-normal (SBP<140 DBP<90 mmHg and not normal)", "categories": [{"measurements": [{"groupId": "OG000", "value": "77"}, {"groupId": "OG001", "value": "91"}, {"groupId": "OG002", "value": "106"}]}]}, {"title": "Stage 1 hypertension (SBP<160 and DBP<100 mmHg)", "categories": [{"measurements": [{"groupId": "OG000", "value": "157"}, {"groupId": "OG001", "value": "139"}, {"groupId": "OG002", "value": "133"}]}]}, {"title": "Stage 2 hypertension (SBP>=160 and DBP>=100 mmHg)", "categories": [{"measurements": [{"groupId": "OG000", "value": "35"}, {"groupId": "OG001", "value": "21"}, {"groupId": "OG002", "value": "15"}]}]}], "analyses": [{"groupIds": ["OG000", "OG001"], "testedNonInferiority": false, "nonInferiorityType": "SUPERIORITY_OR_OTHER", "pValue": "0.006", "statisticalMethod": "Wilcoxon rank sum test", "statisticalComment": "Stratified (for country) Wilcoxon rank sum test", "ciPctValue": "95"}, {"groupIds": ["OG000", "OG002"], "testedNonInferiority": false, "nonInferiorityType": "SUPERIORITY_OR_OTHER", "pValue": "<0.001", "statisticalMethod": "Wilcoxon rank sum test", "statisticalComment": "Stratified (for country) Wilcoxon rank sum test", "ciPctValue": "95"}]}, {"type": "SECONDARY", "title": "Oedema Incidence Rate", "description": "The number of patients who experienced at least one case of oedema or worsening of oedema for the first time (expressed as number of patients/100 patient-years)", "populationDescription": "Full analysis set of patients who had a baseline trough blood pressure measurement and at least one post baseline trough blood pressure measurement using last observation carried forward", "reportingStatus": "POSTED", "paramType": "NUMBER", "unitOfMeasure": "Number of patients/100 patient-years", "timeFrame": "During randomised treatment period", "groups": [{"id": "OG000", "title": "Amlodipine 10mg"}, {"id": "OG001", "title": "Telmisartan 40mg and Amlodipine 10mg"}, {"id": "OG002", "title": "Telmisartan 80mg and Amlodipine 10mg"}], "denoms": [{"units": "Participants", "counts": [{"groupId": "OG000", "value": "305"}, {"groupId": "OG001", "value": "306"}, {"groupId": "OG002", "value": "310"}]}], "classes": [{"categories": [{"measurements": [{"groupId": "OG000", "value": "44.7"}, {"groupId": "OG001", "value": "42.8"}, {"groupId": "OG002", "value": "54.0"}]}]}]}, {"type": "SECONDARY", "title": "Peripheral Oedema Incidence Rate", "description": "The number of cases of peripheral oedema (expressed as number of cases/100 patient-years)", "reportingStatus": "POSTED", "paramType": "NUMBER", "unitOfMeasure": "Number of cases/100 patient-years", "timeFrame": "During randomised treatment period", "groups": [{"id": "OG000", "title": "Amlodipine 10mg"}, {"id": "OG001", "title": "Telmisartan 40mg and Amlodipine 10mg"}, {"id": "OG002", "title": "Telmisartan 80mg and Amlodipine 10mg"}], "denoms": [{"units": "Participants", "counts": [{"groupId": "OG000", "value": "305"}, {"groupId": "OG001", "value": "306"}, {"groupId": "OG002", "value": "310"}]}], "classes": [{"categories": [{"measurements": [{"groupId": "OG000", "value": "48.8"}, {"groupId": "OG001", "value": "44.8"}, {"groupId": "OG002", "value": "54.0"}]}]}]}]}, "adverseEventsModule": {"frequencyThreshold": "5", "eventGroups": [{"id": "EG000", "title": "Amlodipine 10mg", "seriousNumAffected": 1, "otherNumAffected": 22}, {"id": "EG001", "title": "Telmisartan 40mg and Amlodipine 10mg", "seriousNumAffected": 3, "otherNumAffected": 21}, {"id": "EG002", "title": "Telmisartan 80mg and Amlodipine 10mg", "seriousNumAffected": 0, "otherNumAffected": 27}], "seriousEvents": [{"term": "Cardiac failure", "organSystem": "Cardiac disorders", "sourceVocabulary": "MedDRA 11.1", "assessmentType": "SYSTEMATIC_ASSESSMENT", "stats": [{"groupId": "EG000", "numAffected": 0, "numAtRisk": 315}, {"groupId": "EG001", "numAffected": 1, "numAtRisk": 315}, {"groupId": "EG002", "numAffected": 0, "numAtRisk": 317}]}, {"term": "Local swelling", "organSystem": "General disorders", "sourceVocabulary": "MedDRA 11.1", "assessmentType": "SYSTEMATIC_ASSESSMENT", "stats": [{"groupId": "EG000", "numAffected": 0, "numAtRisk": 315}, {"groupId": "EG001", "numAffected": 1, "numAtRisk": 315}, {"groupId": "EG002", "numAffected": 0, "numAtRisk": 317}]}, {"term": "Bronchitis", "organSystem": "Infections and infestations", "sourceVocabulary": "MedDRA 11.1", "assessmentType": "SYSTEMATIC_ASSESSMENT", "stats": [{"groupId": "EG000", "numAffected": 1, "numAtRisk": 315}, {"groupId": "EG001", "numAffected": 0, "numAtRisk": 315}, {"groupId": "EG002", "numAffected": 0, "numAtRisk": 317}]}, {"term": "Ruptured cerebral aneurysm", "organSystem": "Nervous system disorders", "sourceVocabulary": "MedDRA 11.1", "assessmentType": "SYSTEMATIC_ASSESSMENT", "stats": [{"groupId": "EG000", "numAffected": 0, "numAtRisk": 315}, {"groupId": "EG001", "numAffected": 1, "numAtRisk": 315}, {"groupId": "EG002", "numAffected": 0, "numAtRisk": 317}]}], "otherEvents": [{"term": "Peripheral oedema", "organSystem": "General disorders", "sourceVocabulary": "MedDRA 11.1", "assessmentType": "SYSTEMATIC_ASSESSMENT", "stats": [{"groupId": "EG000", "numAffected": 22, "numAtRisk": 315}, {"groupId": "EG001", "numAffected": 21, "numAtRisk": 315}, {"groupId": "EG002", "numAffected": 27, "numAtRisk": 317}]}]}, "moreInfoModule": {"certainAgreement": {"piSponsorEmployee": false, "restrictionType": "OTHER", "restrictiveAgreement": true, "otherDetails": "Any publication of the result of this trial must be consistent with the Boehringer Ingelheim publication policy. The rights of the investigator and of the sponsor with regard to publication of the results of this trial are described in the investigator contract."}, "pointOfContact": {"title": "Boehringer Ingelheim Call Center", "organization": "Boehringer Ingelheim Pharmaceuticals", "email": "clintriage.rdg@boehringer-ingelheim.com", "phone": "1-800-243-0127"}}}, "derivedSection": {"miscInfoModule": {"versionHolder": "2024-07-01", "removedCountries": ["Portugal"]}, "conditionBrowseModule": {"meshes": [{"id": "D000006973", "term": "Hypertension"}], "ancestors": [{"id": "D000014652", "term": "Vascular Diseases"}, {"id": "D000002318", "term": "Cardiovascular Diseases"}], "browseLeaves": [{"id": "M10024", "name": "Hypertension", "asFound": "Hypertension", "relevance": "HIGH"}, {"id": "M17400", "name": "Vascular Diseases", "relevance": "LOW"}], "browseBranches": [{"abbrev": "BC14", "name": "Heart and Blood Diseases"}, {"abbrev": "All", "name": "All Conditions"}]}, "interventionBrowseModule": {"meshes": [{"id": "D000017311", "term": "Amlodipine"}, {"id": "D000077333", "term": "Telmisartan"}, {"id": "C000548840", "term": "Telmisartan amlodipine combination"}], "ancestors": [{"id": "D000000959", "term": "Antihypertensive Agents"}, {"id": "D000002121", "term": "Calcium Channel Blockers"}, {"id": "D000049990", "term": "Membrane Transport Modulators"}, {"id": "D000045504", "term": "Molecular Mechanisms of Pharmacological Action"}, {"id": "D000077264", "term": "Calcium-Regulating Hormones and Agents"}, {"id": "D000045505", "term": "Physiological Effects of Drugs"}, {"id": "D000014665", "term": "Vasodilator Agents"}, {"id": "D000047228", "term": "Angiotensin II Type 1 Receptor Blockers"}, {"id": "D000057911", "term": "Angiotensin Receptor Antagonists"}], "browseLeaves": [{"id": "M19600", "name": "Amlodipine", "asFound": "Healthy Volunteers", "relevance": "HIGH"}, {"id": "M1770", "name": "Telmisartan", "asFound": "Fixed dose", "relevance": "HIGH"}, {"id": "M261345", "name": "Telmisartan amlodipine combination", "asFound": "Pressure, pulse", "relevance": "HIGH"}, {"id": "M4277", "name": "Antihypertensive Agents", "relevance": "LOW"}, {"id": "M5381", "name": "Calcium", "relevance": "LOW"}, {"id": "M5398", "name": "Calcium, Dietary", "relevance": "LOW"}, {"id": "M5384", "name": "Calcium Channel Blockers", "relevance": "LOW"}, {"id": "M9789", "name": "Hormones", "relevance": "LOW"}, {"id": "M17412", "name": "Vasodilator Agents", "relevance": "LOW"}, {"id": "M4132", "name": "Angiotensin II", "relevance": "LOW"}, {"id": "M289354", "name": "Giapreza", "relevance": "LOW"}, {"id": "M4135", "name": "Angiotensinogen", "relevance": "LOW"}, {"id": "M25789", "name": "Angiotensin II Type 1 Receptor Blockers", "relevance": "LOW"}, {"id": "M28916", "name": "Angiotensin Receptor Antagonists", "relevance": "LOW"}], "browseBranches": [{"abbrev": "AnAg", "name": "Antihypertensive Agents"}, {"abbrev": "ChanBlk", "name": "Channel Blockers"}, {"abbrev": "VaDiAg", "name": "Vasodilator Agents"}, {"abbrev": "All", "name": "All Drugs and Chemicals"}, {"abbrev": "BDCA", "name": "Bone Density Conservation Agents"}, {"abbrev": "VaCoAg", "name": "Vasoconstrictor Agents"}]}}, "hasResults": true}